     3.00           OBSERVATION DATA    M                   RINEX VERSION / TYPE 
G = GPS  R = GLONASS  E = GALILEO  S = GEO  M = MIXED       COMMENT 
XXRINEXO V9.9       AIUB                20060324 144333 UTC PGM / RUN BY / DATE 
EXAMPLE OF A MIXED RINEX FILE VERSIOIN 3.00                 COMMENT 
The file contains L1 pseudorange and phase data of the      COMMENT 
geostationary AOR-E satellite (PRN 120 = S20)               COMMENT 
A 9080                                                      MARKER NAME 
9080.1.34                                                   MARKER NUMBER 
BILL SMITH          ABC INSTITUTE                           OBSERVER / AGENCY 
X1234A123           GEODETIC            1.3.1               REC # / TYPE / VERS 
G1234               ROVER                                   ANT # / TYPE 
  4375274.       587466.      4589095.                      APPROX POSITION XYZ 
         .9030         .0000         .0000                  ANTENNA: DELTA H/E/N 
     0                                                      RCV CLOCK OFFS APPL 
G    5 C1C L1W L2W C1W S2W                                  SYS / # / OBS TYPES 
R    2 C1C L1C                                              SYS / # / OBS TYPES 
E    2 L1B L5I                                              SYS / # / OBS TYPES 
S    2 C1C L1C                                              SYS / # / OBS TYPES 
    18.000                                                  INTERVAL 
G APPL_DCB          xyz.uvw.abc//pub/dcb_gps.dat            SYS / DCBS APPLIED 
DBHZ                                                        SIGNAL STRENGTH UNIT 
  2006    03    24    13    10   36.0000000     GPS         TIME OF FIRST OBS 
                                                            END OF HEADER 
> 2006 03 24 13 10 36.0000000  0  5      -0.123456789012 
G06  23629347.915            .300 8         -.353 4  23629347.158          24.158 
G09  20891534.648           -.120 9         -.358 6  20891545.292          38.123 
G12  20607600.189           -.430 9          .394 5  20607600.848          35.234 
E11          .324 8          .178 7 
S20  38137559.506      335849.135 9 
> 2006 03 24 13 10 54.0000000  0  7      -0.123456789210 
G06  23619095.450      -53875.632 8    -41981.375 4  23619095.008          25.234 
G09  20886075.667      -28688.027 9    -22354.535 7  20886076.101          42.231 
G12  20611072.689       18247.789 9     14219.770 6  20611072.410          36.765 
R21  21345678.576       12345.567 5 
R22  22123456.789       23456.789 5 
E11     65432.123 5     48861.586 7 
S20  38137559.506      335849.135 9 
> 2006 03 24 13 11 12.0000000  2  2 
      *** FROM NOW ON KINEMATIC DATA! ***                   COMMENT 
      TWO COMMENT LINES FOLLOW DIRECTLY THE EVENT RECORD    COMMENT 
> 2006  3 24 13 11 12.0000000  0  4      -0.123456789876 
G06  21110991.756       16119.980 7     12560.510 4  21110991.441          25.543 
G09  23588424.398     -215050.557 6   -167571.734 6  23588424.570          41.824 
G12  20869878.790     -113803.187 8    -88677.926 6  20869878.938          36.961 
G16  20621643.727       73797.462 7     57505.177 2  20621644.276          15.368 
>                              3  4 
A 9081                                                      MARKER NAME 
9081.1.34                                                   MARKER NUMBER 
         .9050         .0000         .0000                  ANTENNA: DELTA H/E/N 
          --> THIS IS THE START OF A NEW SITE <--           COMMENT 
> 2006 03 24 13 12  6.0000000  0  4      -0.123456987654 
G06  21112589.384       24515.877 6     19102.763 4  21112589.187          25.478 
G09  23578228.338     -268624.234 7   -209317.284 6  23578228.398          41.725 
G12  20625218.088       92581.207 7     72141.846 5  20625218.795          35.143 
G16  20864539.693     -141858.836 8   -110539.435 2  20864539.943          16.345 
> 2006 03 24 13 13  1.2345678  5  0 
>                              4  2 
      AN EVENT FLAG 5 WITH A SIGNIFICANT EPOCH              COMMENT 
  AND AN EVENT FLAG 4 TO ESCAPE FOR THE TWO COMMENT LINES   COMMENT 
> 2006 03 24 13 14 12.0000000  0  4      -0.123456012345 
G06  21124965.133           0.30213        -0.62614  21124965.275          27.528 
G09  23507272.372     -212616.150 7   -165674.789 7  23507272.421          42.124 
G12  20828010.354     -333820.093 6   -260119.395 6  20828010.129          37.002 
G16  20650944.902      227775.130 7    177487.651 3  20650944.363          18.040 
>                              4  1 
           *** LOST LOCK ON G 06                            COMMENT 
>                              4  1 
END OF FILE                                                 COMMENT 
