     2.10           OBSERVATION DATA    G (GPS)             RINEX VERSION / TYPE
teqc  2005Sep1      gpsops              20080528 00:03:37UTCPGM / RUN BY / DATE
    30.0000                                                 INTERVAL
     1     1                                                WAVELENGTH FACT L1/2
     7    L1    L2    P1    P2    C1    S1    S2            # / TYPES OF OBSERV
Linux 2.4.20-8|Pentium IV|gcc|Linux|486/DX+                 COMMENT
soc2rnx ver 1.19    gpsops              28-May-2008 00:03:36COMMENT
S1, if present, is the SNR for the C/A data stream on L1.   COMMENT
 SNR is mapped to RINEX snr flag value [1,4-9]              COMMENT
    SNR:   >316  >100  >31.6  >10  >3.2    >0 bad=0         COMMENT
L1 & L2:      9     8     7     6     5     4     1         COMMENT
                                                            COMMENT
This data is provided as a public service by NASA/JPL.      COMMENT
No warranty is expressed or implied regarding suitability   COMMENT
for use.  For further information, contact:                 COMMENT
Dave Stowers, NASA/JPL m/s 238-600                          COMMENT
4800 Oak Grove Drive, Pasadena CA 91109 USA                 COMMENT
                                                            COMMENT
Forced Modulo Decimation to 30 seconds                      COMMENT
  2008     5    27     0     0    0.0000000     GPS         TIME OF FIRST OBS
DSN                 JPL                                     OBSERVER / AGENCY
451-U               AOAD/M_T        NONE                    ANT # / TYPE
  4849202.3940  -360328.9929  4114913.1862                  APPROX POSITION XYZ
        0.0254        0.0000        0.0000                  ANTENNA: DELTA H/E/N
LP03574             ASHTECH Z-XII3      CC00                REC # / TYPE / VERS
MADR                                                        MARKER NAME
13407S012                                                   MARKER NUMBER
                                                            END OF HEADER
 08  5 27  0  0  0.0000000  0  8G 6G21G29G30G31G 3G24G16
 114882249.33248  89518626.24848  21861373.4054   21861376.2644   21861373.5894
       238.000         204.000
 110254184.33348  85912345.81348  20980679.0014   20980680.5424   20980679.8634
       249.000         223.000
 120713732.89848  94062638.76348  22971066.7834   22971069.3844   22971066.3794
       231.000         194.000
 127596858.63848  99426108.12048  24280886.5204   24280890.7184   24280887.1834
       218.000         159.000
 113742340.75548  88630389.25948  21644452.3124   21644453.7974   21644451.9784
       245.000         216.000
 122838795.24448  95718531.73348  23375451.5884   23375454.5834   23375451.0024
       216.000         162.000
 117616989.64848  91649585.97448  22381782.3054   22381787.0184   22381782.7914
       238.000         201.000
 111208337.76148  86655834.69148  21162252.8314   21162255.1284   21162253.5234
       248.000         220.000
 08  5 27  0  0 30.0000000  0  8G 6G21G29G30G31G 3G24G16
 114825074.22548  89474074.23348  21850493.1514   21850496.1524   21850493.1974
       236.000         204.000
 110238993.41748  85900508.75448  20977788.2394   20977789.7274   20977788.6424
       248.000         223.000
 120793260.51648  94124608.31248  22986200.7214   22986203.2344   22986200.3684
       233.000         197.000
 127695503.22248  99502974.07548  24299658.6784   24299661.6504   24299658.3424
       214.000         155.000
 113813855.33948  88686114.90648  21658061.2464   21658062.5594   21658061.0534
       245.000         216.000
 122751831.52048  95650767.84448  23358902.5194   23358906.2154   23358902.5684
       218.000         162.000
 117688379.74648  91705214.61548  22395367.4394   22395371.8074   22395368.1844
       238.000         199.000
 111152642.00248  86612435.40848  21151654.5184   21151656.5154   21151654.6754
       248.000         221.000
 08  5 27  0  1  0.0000000  0  8G 6G21G29G30G31G 3G24G16
 114768127.75148  89429700.36948  21839656.6934   21839659.6324   21839656.6524
       237.000         204.000
 110224313.66448  85889069.99748  20974994.5674   20974996.2464   20974994.7994
       249.000         223.000
 120872862.07948  94186635.51448  23001349.1224   23001351.0114   23001348.9344
       234.000         196.000
 127794280.59448  99579943.49548  24318454.6494   24318457.7604   24318453.7084
       213.000         154.000
 113885789.80948  88742167.74148  21671749.9164   21671751.3704   21671749.7454
       245.000         216.000
 122665022.63348  95583124.57448  23342383.5154   23342386.4384   23342384.5474
       216.000         162.000
 117760182.70648  91761164.98048  22409031.5204   22409034.4524   22409032.0864
       240.000         199.000
 111097195.70048  86569230.51448  21141103.6084   21141105.6714   21141104.0884
       248.000         221.000
 08  5 27  0  1 30.0000000  0  8G 6G21G29G30G31G 3G24G16
 114711409.88248  89385504.63948  21828863.5484   21828866.4124   21828863.7244
       237.000         204.000
 110210145.07648  85878029.54548  20972298.7654   20972300.2214   20972299.8154
       248.000         224.000
 120952536.29248  94248719.27048  23016509.5364   23016512.2034   23016509.5414
       233.000         195.000
 127893189.57748  99657015.42348  24337277.0164   24337280.0014   24337275.9704
       215.000         156.000
 113958141.53848  88798545.70248  21685517.8754   21685519.5354   21685517.5994
       244.000         216.000
 122578368.73848  95515602.09548  23325893.2394   23325897.2694   23325893.9024
       215.000         162.000
 117832396.11648  91817435.16248  22422773.0804   22422775.7614   22422773.5744
       238.000         199.000
 111042000.13948  86526221.00048  21130600.0294   21130602.1394   21130600.3484
       248.000         221.000
 08  5 27  0  2  0.0000000  0  8G 6G21G29G30G31G 3G24G16
 114654920.85648  89341487.23348  21818113.9154   21818116.7504   21818113.9354
       236.000         204.000
 110196487.68448  85867387.43948  20969699.6344   20969701.0734   20969699.7084
       249.000         223.000
 121032281.88648  94310858.68248  23031685.8764   23031687.5094   23031685.7134
       237.000         198.000
 127992229.63648  99734189.51748  24356123.8134   24356126.7064   24356123.1334
       213.000         153.000
 114030908.62148  88855247.31648  21699364.8114   21699366.5924   21699364.4274
       245.000         216.000
 122491871.02348  95448201.29848  23309432.8804   23309437.2664   23309433.1094
       213.000         163.000
 117905017.72348  91874023.42548  22436592.6594   22436595.7904   22436593.1594
       238.000         199.000
 110987057.24748  86483408.36748  21120144.9654   21120146.8584   21120145.4894
       248.000         221.000
 08  5 27  0  2 30.0000000  0  8G 6G21G29G30G31G 3G24G16
 114598660.16348  89297647.75448  21807408.1374   21807410.7334   21807408.2014
       238.000         205.000
 110183340.91948  85857143.21248  20967197.7634   20967199.4484   20967198.6914
       249.000         223.000
 121112098.11748  94373053.13048  23046873.7864   23046876.2824   23046874.1054
       232.000         196.000
 128091399.06648  99811464.41348  24374994.6544   24374998.4094   24374994.4284
       215.000         153.000
 114104087.88548  88912270.11148  21713290.7034   21713292.1124   21713290.6164
       245.000         215.000
 122405528.98748  95380921.83748  23293003.2724   23293006.4334   23293003.2964
       216.000         161.000
 117978044.05448  91930927.07248  22450488.7224   22450493.3364   22450488.6024
       237.000         199.000
 110932367.85148  86440793.26648  21109737.7944   21109739.8694   21109738.2074
       248.000         222.000
 08  5 27  0  3  0.0000000  0  8G 6G21G29G30G31G 3G24G16
 114542628.06548  89253986.40948  21796745.3344   21796748.2664   21796745.6324
       237.000         205.000
 110170705.15048  85847297.17748  20964793.2524   20964794.8924   20964793.6864
       248.000         223.000
 121191984.03648  94435301.88448  23062075.2754   23062078.1624   23062074.9394
       235.000         198.000
 128190696.93148  99888839.39348  24393890.6504   24393893.8084   24393890.3894
       214.000         154.000
 114177677.37648  88969612.56348  21727294.2614   21727295.6094   21727294.0104
       245.000         215.000
 122319343.70748  95313764.48348  23276602.3954   23276606.2114   23276601.9454
       212.000         162.000
 118051473.21348  91988144.62248  22464461.8784   22464467.1804   22464461.4844
       236.000         200.000
 110877933.78648  86398377.12048  21099379.2514   21099381.2584   21099379.6584
       247.000         221.000
 08  5 27  0  3 30.0000000  0  8G 6G21G29G30G31G 3G24G16
 114486824.55048  89210503.17048  21786126.2784   21786129.1474   21786126.5814
       237.000         205.000
 110158581.34748  85837850.06848  20962486.0814   20962487.8694   20962486.4824
       249.000         224.000
 121271938.53348  94497604.08048  23077291.2294   23077293.0474   23077291.5534
       236.000         198.000
 128290122.43448  99966313.79848  24412810.5664   24412813.6054   24412810.5144
       218.000         157.000
 114251674.89048  89027272.96448  21741375.6184   21741376.8764   21741375.4854
       245.000         215.000
 122233315.76648  95246729.78848  23260231.2214   23260235.5694   23260231.2734
       216.000         165.000
 118125302.59348  92045674.01048  22478511.0004   22478516.3724   22478511.2684
       237.000         199.000
 110823756.58848  86356161.13348  21089069.7864   21089071.8224   21089069.8764
       249.000         222.000
 08  5 27  0  4  0.0000000  0  8G 6G21G29G30G31G 3G24G16
 114431249.21548  89167197.73748  21775550.4574   21775553.3134   21775550.7494
       237.000         204.000
 110146968.62848  85828801.20648  20960276.4064   20960277.9024   20960277.1294
       248.000         224.000
 121351960.28148  94559958.64848  23092517.8184   23092520.6444   23092517.2694
       234.000         196.000
 128389674.02248 100043886.45848  24431754.8244   24431758.2864   24431754.2474
       218.000         160.000
 114326077.67548  89085249.15348  21755533.9084   21755535.1994   21755533.5804
       246.000         214.000
 122147445.35648  95179817.79848  23243891.7444   23243894.9724   23243891.2874
       220.000         170.000
 118199529.27648  92103512.98448  22492636.2224   22492640.3444   22492636.7454
       236.000         197.000
 110769837.70148  86314146.42948  21078809.4074   21078811.2034   21078809.8874
       249.000         222.000
 08  5 27  0  4 30.0000000  0  8G 6G21G29G30G31G 3G24G16
 114375903.13748  89124070.93548  21765018.3254   21765021.4014   21765018.2284
       238.000         206.000
 110135867.96348  85820151.34848  20958163.7964   20958165.5414   20958164.0654
       249.000         223.000
 121432049.17048  94622365.57148  23107758.6954   23107760.8504   23107758.5254
       236.000         196.000
 128489351.62448 100121557.29948  24450722.4604   24450725.7854   24450722.3464
       217.000         158.000
 114400883.83248  89143539.65948  21769768.9154   21769770.2284   21769768.7094
       242.000         214.000
 122061733.26548  95113029.19448  23227580.6274   23227584.5864   23227580.2834
       220.000         167.000
 118274151.75848  92161660.36548  22506835.9274   22506839.4724   22506835.8364
       234.000         195.000
 110716179.14448  86272334.57248  21068598.3744   21068600.3954   21068598.7044
       249.000         222.000
 08  5 27  0  5  0.0000000  0  8G 6G21G29G30G31G 3G24G16
 114320785.68248  89081122.28248  21754530.0334   21754533.0154   21754530.1984
       239.000         206.000
 110125278.57748  85811899.89248  20956148.8194   20956150.3874   20956149.5854
       248.000         223.000
 121512203.62048  94684823.58748  23123011.5504   23123013.5734   23123011.3344
       234.000         195.000
 128589153.39848 100199324.93548  24469713.9174   24469717.1754   24469713.8254
       216.000         157.000
 114476090.34148  89202142.12648  21784080.4164   21784081.7694   21784080.0614
       244.000         215.000
 121976180.21048  95046364.50448  23211300.3094   23211304.1444   23211301.5254
       222.000         169.000
 118349166.78248  92220113.62848  22521110.9294   22521113.6294   22521110.5034
       238.000         196.000
 110662781.99148  86230726.41348  21058437.2684   21058439.3914   21058437.8004
       249.000         222.000
 08  5 27  0  5 30.0000000  0  8G 6G21G29G30G31G 3G24G16
 114265896.77648  89038351.72548  21744085.0434   21744087.8864   21744085.4544
       239.000         206.000
 110115199.96648  85804046.43848  20954231.0244   20954232.4384   20954231.5014
       249.000         224.000
 121592422.63848  94747331.89048  23138275.9884   23138279.0024   23138275.8924
       233.000         194.000
 128689078.23848 100277188.41948  24488728.9934   24488732.3484   24488728.5944
       218.000         156.000
 114551695.01748  89261054.85348  21798467.5304   21798469.0004   21798467.4394
       243.000         214.000
 121890785.94948  94979823.55648  23195051.0024   23195053.6954   23195052.4534
       225.000         172.000
 118424571.71348  92278870.71548  22535460.2654   22535462.7214   22535460.9874
       238.000         196.000
 110609647.55148  86189322.96448  21048325.9864   21048327.8954   21048326.3594
       248.000         222.000
 08  5 27  0  6  0.0000000  0  8G 6G21G29G30G31G 3G24G16
 114211236.24048  88995759.11548  21733683.4164   21733686.4964   21733683.7384
       240.000         207.000
 110105633.34048  85796591.93548  20952410.4934   20952412.0144   20952410.9154
       248.000         224.000
 121672705.17748  94809889.68848  23153553.8944   23153556.3384   23153554.0524
       234.000         195.000
 128789125.50748 100355147.31348  24507767.6394   24507770.3054   24507767.5274
       221.000         159.000
 114627694.90848  89320275.53748  21812929.8774   21812931.1734   21812929.4604
       245.000         214.000
 121805550.77648  94913406.55248  23178831.0944   23178834.0474   23178830.9584
       224.000         173.000
 118500364.10348  92337929.72548  22549883.0464   22549885.9884   22549883.1314
       237.000         197.000
 110556777.45848  86148125.49948  21038265.1424   21038267.1724   21038265.2914
       248.000         223.000
 08  5 27  0  6 30.0000000  0  8G 6G21G29G30G31G 3G24G16
 114156804.95248  88953345.14748  21723325.6284   21723328.5254   21723326.1724
       240.000         207.000
 110096579.15148  85789536.73148  20950687.5534   20950689.1484   20950688.2674
       248.000         224.000
 121753051.11848  94872496.90048  23168843.4744   23168846.0804   23168843.4084
       234.000         195.000
 128889294.63648 100433201.16048  24526829.5414   24526832.1024   24526829.7284
       221.000         163.000
 114704088.77748  89379803.22748  21827467.0504   21827468.2804   21827467.1684
       243.000         213.000
 121720476.28848  94847114.75948  23162642.0584   23162645.2044   23162641.8434
       225.000         174.000
 118576542.06948  92397289.18948  22564379.1054   22564382.4974   22564379.1554
       237.000         196.000
 110504174.55648  86107136.23248  21028255.3604   21028257.1174   21028255.6474
       250.000         223.000
 08  5 27  0  7  0.0000000  0  8G 6G21G29G30G31G 3G24G16
 114102603.09148  88911109.95048  21713011.1894   21713013.9594   21713011.5624
       239.000         207.000
 110088036.92948  85782880.46448  20949062.0394   20949063.5884   20949062.5874
       248.000         224.000
 121833459.71948  94935152.93548  23184144.1144   23184147.0454   23184144.2234
       233.000         193.000
 128989584.58348 100511349.15448  24545913.6334   24545916.7594   24545912.9694
       218.000         162.000
 114780874.11548  89439635.94548  21842078.8694   21842080.1824   21842078.4414
       243.000         213.000
 121635563.19748  94780948.76748  23146483.6534   23146487.4394   23146484.8824
       223.000         175.000
 118653103.33748  92456947.32548  22578948.3024   22578951.9144   22578947.8574
       238.000         198.000
 110451840.18148  86066356.20248  21018296.4464   21018298.2144   21018297.0904
       249.000         223.000
 08  5 27  0  7 30.0000000  0  8G 6G21G29G30G31G 3G24G16
 114048630.20048  88869053.16548  21702740.6244   21702743.2014   21702740.9224
       239.000         207.000
 110080006.46048  85776622.96548  20947533.6884   20947535.3904   20947533.9674
       248.000         224.000
 121913929.38748  94997856.57148  23199457.2314   23199459.8154   23199457.2424
       234.000         192.000
 129089994.07148 100589590.31448  24565021.3194   24565024.4724   24565021.0944
       220.000         163.000
 114858047.85948  89499771.33948  21856764.5424   21856765.9314   21856764.3044
       244.000         213.000
 121550811.94648  94714908.84948  23130355.7104   23130359.9134   23130355.9004
       222.000         173.000
 118730045.00948  92516901.88048  22593590.0374   22593593.9304   22593590.6504
       237.000         198.000
 110399775.42648  86025786.27848  21008388.6604   21008390.6784   21008389.0064
       249.000         223.000
 08  5 27  0  8  0.0000000  0  8G 6G21G29G30G31G 3G24G16
 113994886.48648  88827174.95848  21692513.4664   21692516.2134   21692513.1504
       239.000         208.000
 110072487.65648  85770764.16248  20946103.0164   20946104.6244   20946103.6604
       248.000         224.000
 121994459.63148  95060607.39348  23214781.2124   23214784.3134   23214780.7984
       231.000         192.000
 129190521.72248 100667923.57648  24584151.7214   24584153.8654   24584151.6444
       218.000         160.000
 114935607.83148  89560207.66348  21871523.7794   21871525.2854   21871523.8424
       242.000         213.000
 121466222.76248  94648995.22948  23114258.7324   23114262.5714   23114259.2744
       224.000         174.000
 118807364.60948  92577150.91448  22608303.2044   22608307.8024   22608303.3634
       236.000         198.000
 110347981.94648  85985427.73048  20998532.7744   20998534.6474   20998533.1214
       249.000         223.000
 08  5 27  0  8 30.0000000  0  9G 6G21G29G30G31G 3G24G16G18
 113941371.55348  88785475.03848  21682329.6994   21682332.5974   21682329.3134
       240.000         208.000
 110065480.19648  85765303.82048  20944769.5254   20944771.1474   20944769.9344
       247.000         224.000
 122075049.29148  95123404.50248  23230116.8884   23230120.0324   23230116.6374
       231.000         192.000
 129291166.25548 100746347.87748  24603303.6744   24603306.8164   24603303.8074
       219.000         162.000
 115013551.42048  89620942.92348  21886355.7764   21886357.2394   21886355.4184
       242.000         212.000
 121381795.57748  94583207.84148  23098192.9444   23098196.2034   23098193.4414
       225.000         174.000
 118885059.11648  92637692.11048  22623087.8644   22623093.1044   22623088.3754
       235.000         198.000
 110296461.23548  85945281.73548  20988728.4374   20988730.5164   20988728.8854
       249.000         223.000
 140337512.03458  91561689.36658  24802410.4535   24802411.7835   24802410.7375
       214.000         148.000
 08  5 27  0  9  0.0000000  0  9G 6G21G29G30G31G 3G24G16G18
 113888085.85148  88743953.72348  21672189.9904   21672192.7424   21672190.7254
       241.000         209.000
 110058984.75248  85760242.44248  20943533.4314   20943535.1174   20943533.8204
       248.000         224.000
 122155697.74648  95186247.42548  23245463.9464   23245467.0394   23245463.4134
       232.000         194.000
 129391927.10648 100824862.80448  24622477.2334   24622480.8284   24622477.3524
       215.000         162.000
 115091876.15748  89681975.18348  21901260.4134   21901261.8554   21901260.1264
       242.000         212.000
 121297531.65748  94517547.66048  23082157.8624   23082161.3784   23082158.6624
       226.000         174.000
 118963126.52648  92698523.86848  22637943.5634   22637949.3394   22637944.2344
       233.000         197.000
 110245215.38648  85905349.91248  20978976.8464   20978978.8104   20978977.0174
       250.000         224.000
 140258518.71648  91500136.23448  24787377.3134   24787380.2244   24787378.3224
       212.000         148.000
 08  5 27  0  9 30.0000000  0  9G 6G21G29G30G31G 3G24G16G18
 113835029.82748  88702611.38048  21662093.8524   21662096.4804   21662093.9124
       240.000         209.000
 110053001.33448  85755580.05148  20942394.9794   20942396.3754   20942395.5294
       249.000         224.000
 122236404.35148  95249135.66548  23260822.3444   23260824.7324   23260822.0734
       233.000         192.000
 129492803.69348 100903467.96048  24641673.8164   24641676.5364   24641673.8404
       214.000         162.000
 115170580.24248  89743303.03248  21916237.4054   21916238.7924   21916237.3414
       242.000         212.000
 121213432.00348  94452015.45948  23066154.4624   23066157.1514   23066154.7414
       226.000         174.000
 119041564.69148  92759644.52748  22652869.8354   22652875.9454   22652869.7804
       234.000         197.000
 110194246.10448  85865633.59848  20969277.7674   20969279.6664   20969278.1674
       250.000         224.000
 140179572.66448  91438619.90648  24772353.8944   24772357.6734   24772353.9594
       209.000         148.000
 08  5 27  0 10  0.0000000  0  9G 6G21G29G30G31G 3G24G16G18
 113782203.28248  88661447.85648  21652041.1744   21652043.8744   21652041.0394
       241.000         209.000
 110047529.61548  85751316.38848  20941353.6104   20941355.0824   20941354.0624
       249.000         223.000
 122317168.42348  95312068.67348  23276190.8364   23276193.6814   23276190.5514
       231.000         190.000
 129593794.73648 100982162.25548  24660891.0484   24660894.7124   24660891.4054
       212.000         156.000
 115249660.66748  89804924.13248  21931285.7614   21931287.3604   21931285.3814
       242.000         211.000
 121129496.37948  94386611.10548  23050181.6444   23050184.6224   23050182.0854
       224.000         174.000
 119120370.78448  92821051.88648  22667866.2684   22667872.2664   22667866.9044
       234.000         196.000
 110143554.87148  85826133.94448  20959631.5534   20959633.3454   20959631.8734
       250.000         224.000
 140100676.76848  91377142.59948  24757340.5944   24757343.3094   24757341.2694
       209.000         150.000
 08  5 27  0 10 30.0000000  0  9G 6G21G29G30G31G 3G24G16G18
 113729606.39648  88620463.27948  21642032.0654   21642034.9804   21642032.5614
       240.000         209.000
 110042569.98548  85747451.75148  20940409.7504   20940411.1854   20940410.2844
       249.000         224.000
 122397989.14648  95375045.82248  23291570.5364   23291573.2244   23291570.2404
       231.000         189.000
 129694899.35448 101060945.11548  24680130.4834   24680133.8604   24680129.8864
       214.000         156.000
 115329115.56648  89866837.03548  21946405.6834   21946406.8004   21946405.2004
       243.000         211.000
 121045725.65148  94321335.22748  23034240.5644   23034243.6894   23034240.6404
       224.000         174.000
 119199542.54248  92882744.16648  22682931.9804   22682937.7394   22682932.0294
       234.000         195.000
 110093143.46948  85786852.33848  20950038.6524   20950040.6514   20950039.0124
       250.000         225.000
 140021833.92048  91315706.59848  24742337.1594   24742340.4164   24742337.5284
       211.000         152.000
 08  5 27  0 11  0.0000000  0  9G 6G21G29G30G31G 3G24G16G18
 113677238.67248  88579657.27848  21632066.8254   21632069.7004   21632067.1504
       240.000         209.000
 110038120.71148  85743984.79648  20939563.2524   20939564.6814   20939563.7924
       248.000         224.000
 122478865.03148  95438065.97548  23306961.1434   23306963.2294   23306961.3604
       231.000         189.000
 129796116.16048 101139815.36348  24699391.3094   24699395.0354   24699391.4564
       210.000         153.000
 115408941.32948  89929038.92148  21961596.1084   21961597.3624   21961596.1114
       242.000         210.000
 120962120.00548  94256187.99048  23018331.1034   23018334.4474   23018331.5204
       224.000         176.000
 119279076.65548  92944718.79848  22698066.8384   22698071.9704   22698067.2814
       235.000         195.000
 110043013.04948  85747789.68248  20940498.9804   20940500.9714   20940499.1434
       251.000         225.000
 139943046.03148  91254313.45648  24727345.3784   24727347.1924   24727345.2244
       211.000         149.000
 08  5 27  0 11 30.0000000  0  9G 6G21G29G30G31G 3G24G16G18
 113625100.24448  88539029.95048  21622145.3544   21622148.2204   21622145.4134
       241.000         210.000
 110034182.71148  85740916.23948  20938813.6374   20938815.4104   20938813.9944
       249.000         224.000
 122559795.36848  95501128.56248  23322361.8164   23322364.0074   23322361.2734
       232.000         190.000
 129897443.61848 101218771.77448  24718673.8684   24718676.7374   24718673.5614
       207.000         150.000
 115489135.67548  89991528.01648  21976856.4954   21976857.8714   21976856.0304
       243.000         211.000
 120878679.84748  94191169.72848  23002453.1654   23002456.4424   23002453.4954
       224.000         177.000
 119358970.68048  93006973.88948  22713270.3184   22713274.6444   22713270.6024
       236.000         193.000
 109993165.40548  85708947.36848  20931013.5044   20931015.2894   20931013.7824
       250.000         225.000
 139864316.07948  91192965.51348  24712362.6994   24712365.6544   24712363.1534
       211.000         145.000
 08  5 27  0 12  0.0000000  0  9G 6G21G29G30G31G 3G24G16G18
 113573190.83548  88498581.07648  21612267.4284   21612270.2054   21612267.5414
       241.000         210.000
 110030755.11648  85738245.39248  20938161.6804   20938163.1394   20938162.4314
       249.000         224.000
 122640779.18648  95564232.80848  23337772.4904   23337774.6214   23337772.6744
       230.000         188.000
 129998880.75048 101297813.66448  24737976.2354   24737979.7934   24737976.1644
       213.000         150.000
 115569695.86448  90054302.18148  21992186.5334   21992188.0624   21992186.5264
       241.000         211.000
 120795405.99548  94126281.00648  22986606.9694   22986609.8744   22986607.3654
       226.000         180.000
 119439222.17648  93069507.52448  22728541.6914   22728545.2054   22728541.9134
       233.000         192.000
 109943601.75248  85670326.34648  20921581.6774   20921583.5604   20921582.0134
       250.000         225.000
 139785646.68348  91131664.75348  24697392.3404   24697395.7714   24697393.1344
       208.000         142.000
 08  5 27  0 12 30.0000000  0  9G 6G21G29G30G31G 3G24G16G18
 113521510.67748  88458310.84448  21602432.8824   21602435.6704   21602433.3294
       241.000         210.000
 110027837.99948  85735972.32248  20937606.4654   20937608.0244   20937606.9104
       249.000         224.000
 122721815.61048  95627378.05348  23353193.1754   23353195.2424   23353193.0064
       229.000         188.000
 130100426.71048 101376940.43748  24757300.2764   24757302.8414   24757301.8014
       215.000         152.000
 115650619.20048  90117359.31348  22007585.5994   22007587.4524   22007585.2694
       241.000         211.000
 120712298.43748  94061521.89848  22970792.2354   22970795.1344   22970792.5634
       224.000         178.000
 119519828.50048  93132317.64548  22743880.5834   22743883.7084   22743880.2084
       233.000         192.000
 109894323.76848  85631927.92548  20912204.5164   20912206.2264   20912204.9334
       251.000         225.000
 139707040.95348  91070413.45248  24682434.9884   24682437.7244   24682436.0094
       210.000         147.000
 08  5 27  0 13  0.0000000  0  9G 6G21G29G30G31G 3G24G16G18
 113470060.79148  88418220.04248  21592642.2164   21592645.0454   21592642.2074
       242.000         210.000
 110025431.43848  85734097.09448  20937148.3724   20937150.0744   20937148.8314
       248.000         225.000
 122802904.79748  95690564.41248  23368624.1174   23368626.0754   23368624.5484
       230.000         187.000
 130202081.44348 101456151.91348  24776644.3564   24776647.4264   24776643.7964
       215.000         156.000
 115731904.45148  90180698.46248  22023053.8824   22023055.2634   22023053.2524
       242.000         210.000
 120629358.91648  93996893.72748  22955008.8324   22955012.2424   22955008.7474
       225.000         176.000
 119600788.19848  93195403.12648  22759287.1114   22759289.4434   22759286.4784
       234.000         191.000
 109845334.05648  85593754.13748  20902882.0284   20902883.6934   20902882.5364
       251.000         225.000
 139628502.86348  91009214.92948  24667489.5224   24667491.9264   24667489.8044
       215.000         150.000
 08  5 27  0 13 30.0000000  0  9G 6G21G29G30G31G 3G24G16G18
 113418840.41648  88378308.07848  21582895.4984   21582898.2884   21582895.8034
       242.000         210.000
 110023535.81448  85732619.98848  20936788.0384   20936789.4314   20936788.4404
       249.000         224.000
 122884045.62848  95753791.01248  23384064.5424   23384066.9604   23384064.8454
       227.000         187.000
 130303843.04848 101535446.68148  24796009.2174   24796011.3104   24796008.4354
       217.000         155.000
 115813548.26848  90244317.01748  22038590.1234   22038591.4974   22038589.9434
       242.000         210.000
 120546587.19048  93932396.30548  22939257.5934   22939261.2044   22939258.6714
       225.000         177.000
 119682097.84248  93258761.28248  22774759.5864   22774762.0814   22774760.0084
       233.000         190.000
 109796634.08248  85555806.11348  20893614.8834   20893616.5104   20893615.2424
       251.000         225.000
 139550034.32248  90948070.68948  24652557.6684   24652558.9174   24652558.9464
       205.000         147.000
 08  5 27  0 14  0.0000000  0  9G 6G21G29G30G31G 3G24G16G18
 113367849.76348  88338575.11648  21573192.1364   21573194.8664   21573192.2064
       241.000         211.000
 110022150.23748  85731540.33748  20936523.7494   20936525.6184   20936524.3274
       248.000         224.000
 122965237.12848  95817057.10448  23399514.5444   23399517.2414   23399514.2444
       229.000         187.000
 130405710.81348 101614824.21048  24815393.7494   24815396.9104   24815394.5324
       217.000         155.000
 115895548.54548  90308213.32048  22054194.2474   22054195.7964   22054194.1004
       242.000         210.000
 120463984.12148  93868030.28748  22923539.2074   22923541.9994   22923540.0844
       225.000         178.000
 119763755.07448  93322390.28448  22790298.3804   22790300.8014   22790298.8824
       232.000         189.000
 109748225.06248  85518084.80848  20884402.7994   20884404.5524   20884403.1834
       251.000         226.000
 139471638.12948  90886982.82848  24637639.6844   24637641.6804   24637640.4034
       203.000         136.000
 08  5 27  0 14 30.0000000  0  9G 6G21G29G30G31G 3G24G16G18
 113317086.71848  88299019.50748  21563532.4524   21563534.8594   21563532.5384
       241.000         210.000
 110021272.12348  85730856.10148  20936356.8544   20936358.4404   20936357.0324
       250.000         224.000
 123046476.39648  95880360.41548  23414973.8974   23414976.5694   23414974.3414
       227.000         185.000
 130507681.11848 101694281.64848  24834798.5194   24834802.0384   24834797.9434
       217.000         155.000
 115977900.14948  90372383.39148  22069865.2644   22069866.9494   22069864.6634
       243.000         211.000
 120381547.73048  93803794.15748  22907852.0174   22907854.8874   22907852.4204
       225.000         176.000
 119845755.31648  93386286.56548  22805902.2934   22805904.9054   22805902.6454
       232.000         187.000
 109700106.67948  85480589.97448  20875246.1684   20875247.9834   20875246.6614
       251.000         226.000
 139393314.74748  90825951.65348  24622734.9014   24622735.2544   24622735.0464
       191.000         125.000
 08  5 27  0 15  0.0000000  0  9G 6G21G29G30G31G 3G24G16G18
 113266553.91948  88259643.31648  21553916.0864   21553918.9234   21553916.1514
       241.000         211.000
 110020904.37348  85730569.54248  20936287.4124   20936288.4264   20936287.9664
       249.000         224.000
 123127765.39848  95943702.46348  23430442.6054   23430445.4404   23430442.5724
       227.000         185.000
 130609755.62748 101773820.26048  24854222.0774   24854225.7054   24854221.2174
       212.000         153.000
 116060603.11048  90436827.24048  22085603.3384   22085604.6984   22085603.3674
       243.000         210.000
 120299281.18348  93739690.39248  22892196.8854   22892200.3714   22892197.2924
       224.000         176.000
 119928098.53248  93450450.10848  22821571.9844   22821574.0154   22821572.4154
       229.000         187.000
 109652283.12148  85443324.87048  20866145.6424   20866147.5034   20866145.9784
       250.000         226.000
 119315016.13658 110764926.85558  24607844.6085   24607850.1195   24607846.1305
       197.000         125.000
 08  5 27  0 15 30.0000000  0  9G 6G21G29G30G31G 3G24G16G18
 113216251.77348  88220446.86048  21544344.0914   21544346.9944   21544344.1504
       241.000         212.000
 110021046.83548  85730680.57148  20936313.8284   20936315.4204   20936314.5184
       248.000         223.000
 123209103.68048  96007082.92848  23445920.8574   23445923.4604   23445920.8304
       228.000         185.000
 130711933.80848 101853439.70048  24873665.7414   24873669.2384   24873664.9194
       214.000         154.000
 116143655.28348  90501543.22448  22101407.6454   22101408.8274   22101407.5434
       242.000         209.000
 120217185.42848  93675719.69548  22876574.8654   22876577.9474   22876574.6194
       226.000         177.000
 120010782.38048  93514879.07948  22837305.8724   22837308.3054   22837305.4184
       229.000         186.000
 109604756.59948  85406291.22648  20857101.5694   20857103.4554   20857101.7444
       251.000         226.000
 119236853.16948 110704020.74448  24592970.2054   24592973.8084   24592970.2404
       197.000         133.000
 08  5 27  0 16  0.0000000  0  9G 6G21G29G30G31G 3G24G16G18
 113166179.03348  88181429.15848  21534815.3234   21534818.3084   21534815.3454
       241.000         211.000
 110021698.04148  85731188.01448  20936437.9624   20936439.4034   20936438.1254
       249.000         224.000
 123290489.25648  96070500.24748  23461408.3284   23461410.8014   23461409.1014
       227.000         185.000
 130814212.94648 101933137.76848  24893128.6564   24893131.9784   24893128.0164
       218.000         157.000
 116227052.92948  90566528.38748  22117277.5044   22117278.6804   22117277.1614
       241.000         208.000
 120135259.72848  93611881.50748  22860984.8884   22860988.5534   22860985.2244
       226.000         178.000
 120093803.02248  93579570.47148  22853104.2544   22853107.0364   22853103.7924
       229.000         187.000
 109557527.64348  85369489.45048  20848114.1904   20848116.2554   20848114.7264
       251.000         227.000
 119158773.68348 110643179.61648  24578113.0264   24578115.2524   24578112.3654
       203.000         139.000
 08  5 27  0 16 30.0000000  0  9G 6G21G29G30G31G 3G24G16G18
 113116336.39248  88142590.75348  21525330.5474   21525333.6734   21525331.0034
       241.000         212.000
 110022858.17148  85732092.01448  20936659.2264   20936660.2144   20936659.9144
       249.000         224.000
 123371922.13948  96133954.42348  23476903.8734   23476907.0514   23476903.5634
       226.000         184.000
 130916592.65848 102012914.21048  24912611.5504   24912614.4874   24912611.6574
       219.000         156.000
 116310794.05248  90631781.19048  22133212.7724   22133214.1044   22133212.3544
       242.000         209.000
 120053505.14248  93548176.64448  22845427.7884   22845430.4674   22845428.4024
       228.000         179.000
 120177158.64848  93644522.89848  22868966.1894   22868969.4724   22868966.1014
       230.000         186.000
 109510598.04248  85332920.93948  20839183.8604   20839185.8344   20839184.2674
       251.000         227.000
 119080780.97348 110582406.07948  24563271.5434   24563275.0284   24563272.2724
       205.000         143.000
 08  5 27  0 17  0.0000000  0  9G 6G21G29G30G31G 3G24G16G18
 113066723.25948  88103931.18248  21515889.6154   21515892.6274   21515890.0214
       241.000         212.000
 110024526.15848  85733391.75948  20936975.8834   20936977.6784   20936976.3774
       248.000         224.000
 123453401.03248  96197444.46548  23492408.7114   23492412.0904   23492408.2264
       225.000         183.000
 131019071.53848 102092767.98248  24932111.8854   24932115.6854   24932111.7074
       214.000         153.000
 116394875.22348  90697298.98148  22149213.2064   22149214.5354   22149212.9624
       242.000         210.000
 119971922.10048  93484605.48748  22829902.3174   22829906.0974   22829902.3204
       225.000         180.000
 120260846.35748  93709734.08848  22884891.4724   22884894.9114   22884892.1374
       229.000         186.000
 109463969.12748  85296586.73148  20830310.5494   20830312.4334   20830311.1254
       251.000         227.000
 119002877.31348 110521701.85348  24548446.5464   24548450.8604   24548446.8294
       202.000         138.000
 08  5 27  0 17 30.0000000  0  9G 6G21G29G30G31G 3G24G16G18
 113017339.06148  88065450.00248  21506491.9974   21506494.8454   21506492.1314
       241.000         212.000
 110026700.65348  85735086.18248  20937389.7334   20937391.3844   20937390.0884
       249.000         224.000
 123534924.41648  96260969.14048  23507921.9134   23507925.6584   23507922.3434
       223.000         183.000
 131121647.76548 102172697.56948  24951631.7034   24951634.9014   24951631.1824
       211.000         154.000
 116479293.33548  90763079.31548  22165277.5414   22165279.0484   22165277.4084
       242.000         209.000
 119890510.34048  93421167.77348  22814410.6004   22814413.7234   22814410.6684
       228.000         181.000
 120344862.49448  93775201.20348  22900879.0354   22900882.9124   22900879.7064
       229.000         186.000
 109417641.88148  85260487.58348  20821494.8024   20821496.7054   20821495.2154
       251.000         227.000
 118925065.18548 110461069.01648  24533638.9814   24533641.8404   24533640.4464
       196.000         133.000
 08  5 27  0 18  0.0000000  0  9G 6G21G29G30G31G 3G24G16G18
 112968184.69648  88027147.90648  21497138.3584   21497140.9934   21497137.8904
       241.000         212.000
 110029382.79748  85737176.16448  20937900.4884   20937901.9394   20937901.1514
       248.000         224.000
 123616492.48748  96324528.64248  23523444.6304   23523447.1974   23523444.4294
       226.000         183.000
 131224321.20348 102252702.90548  24971169.4114   24971172.6564   24971169.7144
       209.000         148.000
 116564046.73548  90829120.90848  22181405.3414   22181406.9844   22181405.1594
       242.000         208.000
 119809271.27348  93357864.61548  22798950.9934   22798953.5854   22798951.0994
       225.000         178.000
 120429205.69348  93840923.17748  22916928.9504   22916933.5274   22916928.7814
       228.000         187.000
 109371618.81648  85224625.45948  20812736.9944   20812738.8354   20812737.3784
       252.000         227.000
 118847348.10548 110400510.29148  24518850.3284   24518851.7984   24518851.0374
       202.000         134.000
 08  5 27  0 18 30.0000000  0  9G 6G21G29G30G31G 3G24G16G18
 112919259.79848  87989024.63048  21487828.1944   21487830.9594   21487828.1244
       241.000         212.000
 110032571.86348  85739661.16548  20938507.1174   20938508.8034   20938507.5414
       249.000         224.000
 123698104.21148  96388122.15348  23538974.6984   23538977.1104   23538974.5294
       226.000         182.000
 131327090.30448 102332782.74348  24990725.6294   24990728.9064   24990724.9084
       201.000         147.000
 116649132.25748  90895421.31348  22197596.7604   22197597.9634   22197596.5764
       242.000         208.000
 119728204.67548  93294695.86548  22783524.5424   22783527.4064   22783524.8004
       225.000         179.000
 120513873.10248  93906897.78548  22933040.8484   22933045.2544   22933040.7084
       228.000         187.000
 109325901.39448  85189001.50248  20804037.2424   20804039.1074   20804037.7904
       251.000         227.000
 118769728.72048 110340027.71748  24504080.4834   24504081.5654   24504081.4944
       198.000         136.000
 08  5 27  0 19  0.0000000  0  9G 6G21G29G30G31G 3G24G16G18
 112870564.35748  87951080.14948  21478561.6344   21478564.5494   21478561.6004
       242.000         212.000
 110036266.88948  85742540.41648  20939210.3164   20939211.9454   20939210.7944
       249.000         224.000
 123779758.70748  96451749.03148  23554513.3534   23554515.3794   23554512.9274
       226.000         180.000
 131429954.04748 102412936.31648  25010298.6294   25010303.2684   25010297.2354
       197.000         142.000
 116734547.15848  90961978.36848  22213850.5224   22213852.2044   22213850.4444
       241.000         207.000
 119647311.11448  93231661.95748  22768130.8234   22768134.2724   22768130.5894
       225.000         179.000
 120598861.93448  93973122.84948  22949213.6624   22949218.0464   22949213.5704
       227.000         186.000
 109280491.14948  85153616.89948  20795395.8964   20795397.7764   20795396.3274
       251.000         227.000
 118692209.70048 110279623.40648  24489328.2324   24489329.9924   24489328.2374
       198.000         136.000
 08  5 27  0 19 30.0000000  0  9G 6G21G29G30G31G 3G24G16G18
 112822098.70848  87913314.71848  21469338.9964   21469341.7594   21469339.5894
       242.000         213.000
 110040468.11848  85745814.10948  20940009.6644   20940011.3014   20940010.2994
       248.000         223.000
 123861455.48448  96515408.82948  23570059.3874   23570061.5944   23570059.0394
       226.000         180.000
 131532911.34248 102493162.75248  25029890.5924   25029896.1134   25029892.3374
       189.000         138.000
 116820289.39748  91028790.48948  22230166.6394   22230168.3324   22230165.9064
       241.000         208.000
 119566591.88248  93168763.88948  22752770.4754   22752773.8664   22752771.0074
       225.000         180.000
 120684169.85048  94039596.54348  22965447.0784   22965451.8064   22965447.2954
       229.000         186.000
 109235389.97348  85118473.12848  20786813.5524   20786815.2654   20786813.9274
       251.000         227.000
 118614794.32548 110219299.78348  24474597.7354   24474599.2824   24474599.1964
       200.000         137.000
 08  5 27  0 20  0.0000000  0  9G 6G21G29G30G31G 3G24G16G18
 112773862.04348  87875727.72448  21460160.0354   21460162.9474   21460160.6104
       243.000         214.000
 110045174.10048  85749481.11648  20940905.1404   20940906.5244   20940905.6054
       248.000         223.000
 123943193.39148  96579100.67548  23585613.5914   23585615.7344   23585613.8664
       225.000         180.000
 131635960.75748 102573460.84648  25049499.9734   25049505.2544   25049499.6614
       188.000         139.000
 116906355.22048  91095854.75148  22246544.5844   22246546.1774   22246544.2684
       242.000         208.000
 119486046.06748  93106000.94048  22737443.2674   22737446.6524   22737443.4504
       227.000         180.000
 120769793.69048  94106316.41648  22981741.0824   22981745.5644   22981741.2684
       228.000         186.000
 109190598.93948  85083571.03148  20778290.0084   20778291.8884   20778290.3204
       251.000         227.000
 118537484.68648 110159058.46248  24459886.5864   24459888.6084   24459885.8484
       196.000         134.000
 08  5 27  0 20 30.0000000  0  9G 6G21G29G30G31G 3G24G16G18
 112725855.03848  87838319.68148  21451024.4944   21451027.5464   21451024.5364
       242.000         214.000
 110050384.41048  85753541.10148  20941896.8504   20941898.1694   20941897.4034
       249.000         224.000
 124024972.20048  96642824.40548  23601175.7094   23601178.0214   23601175.5024
       226.000         182.000
 131739101.45148 102653830.23348  25069130.3894   25069131.1144   25069129.1324
       203.000         148.000
 116992742.81548  91163169.74748  22262983.9464   22262985.1654   22262983.8064
       242.000         208.000
 119405675.12648  93043374.25748  22722149.5174   22722152.5084   22722150.1054
       226.000         180.000
 120855731.19648  94173280.71148  22998094.1304   22998098.8844   22998093.9074
       227.000         185.000
 109146120.01648  85048912.13948  20769825.7694   20769827.7934   20769826.1154
       251.000         227.000
 118460283.65448 110098901.76848  24445195.3444   24445195.7654   24445196.4574
       197.000         132.000
 08  5 27  0 21  0.0000000  0  9G 6G21G29G30G31G 3G24G16G18
 112678077.84548  87801090.70848  21441932.8054   21441935.7394   21441933.0474
       243.000         213.000
 110056099.64148  85757994.53948  20942984.3874   20942985.8394   20942984.9704
       247.000         223.000
 124106791.39048  96706579.59548  23616745.5654   23616747.8984   23616745.3464
       228.000         184.000
 131842332.66548 102734270.18148  25088773.3664   25088776.0544   25088774.4114
       208.000         154.000
 117079449.29148  91230733.23448  22279483.4384   22279484.8664   22279483.3464
       241.000         207.000
 119325479.63048  92980884.30048  22706888.1284   22706892.1204   22706888.1514
       226.000         181.000
 120941980.01848  94240487.58148  23014506.7234   23014511.3774   23014506.7534
       227.000         185.000
 109101955.22448  85014498.02148  20761421.5024   20761423.4254   20761421.9974
       251.000         227.000
 118383194.73048 110038832.47948  24430523.4734   24430527.1184   24430524.6624
       197.000         129.000
 08  5 27  0 21 30.0000000  0  9G 6G21G29G30G31G 3G24G16G18
 112630530.30548  87764040.69248  21432884.6784   21432887.5684   21432884.7474
       242.000         213.000
 110062318.86348  85762840.69648  20944167.4984   20944169.1854   20944167.8054
       249.000         223.000
 124188650.14748  96770365.60748  23632322.4314   23632325.0674   23632322.7424
       225.000         182.000
 131945652.89848 102814779.46448  25108434.7264   25108437.7474   25108434.4424
       213.000         159.000
 117166471.95548  91298543.07948  22296043.3734   22296044.8684   22296043.2074
       242.000         208.000
 119245459.81448  92918531.22348  22691661.4464   22691664.4884   22691661.9464
       227.000         182.000
 121028537.41048  94307934.88248  23030978.3164   23030982.7554   23030978.2414
       229.000         186.000
 109058105.88448  84980329.70748  20753077.3814   20753079.1924   20753077.8484
       252.000         227.000
 118306220.77948 109978852.86648  24415877.4354   24415879.0454   24415879.0434
       195.000         128.000
 08  5 27  0 22  0.0000000  0  9G 6G21G29G30G31G 3G24G16G18
 112583212.45948  87727169.65648  21423880.2214   21423883.0684   21423879.9884
       242.000         213.000
 110069041.42148  85768079.05348  20945447.1034   20945448.4914   20945448.0934
       249.000         224.000
 124270547.81648  96834181.99348  23647907.1214   23647909.6284   23647906.9014
       226.000         181.000
 132049061.00448 102895357.26948  25128112.0434   25128115.3344   25128111.7884
       217.000         161.000
 117253808.39048  91366597.42348  22312663.2224   22312664.3024   22312663.0674
       240.000         207.000
 119165616.19448  92856315.43848  22676467.2454   22676470.8484   22676467.1924
       229.000         185.000
 121115401.07448  94375620.86448  23047508.2744   23047511.9834   23047509.1574
       227.000         185.000
 109014573.67148  84946408.50748  20744793.4904   20744795.2764   20744794.0354
       251.000         227.000
 118229364.52648 109918964.94148  24401253.2284   24401254.8694   24401252.6024
       200.000         129.000
 08  5 27  0 22 30.0000000  0  9G 6G21G29G30G31G 3G24G16G18
 112536124.46148  87690477.71748  21414920.0244   21414922.4984   21414919.8124
       243.000         213.000
 110076266.98048  85773709.37048  20946822.0754   20946823.6664   20946822.6564
       248.000         224.000
 124352483.65648  96898028.08248  23663499.2484   23663501.7394   23663499.1044
       228.000         181.000
 132152556.18048 102976002.87248  25147807.2054   25147810.0114   25147806.9884
       217.000         159.000
 117341455.73648  91434894.05448  22329341.7874   22329342.8534   22329341.2304
       241.000         205.000
 119085949.37048  92794237.42748  22661307.5814   22661310.9524   22661308.3334
       229.000         185.000
 121202568.32548  94443543.37948  23064095.1824   23064099.4774   23064095.3424
       227.000         184.000
 108971360.49548  84912735.90148  20736570.1724   20736571.9794   20736570.5354
       251.000         227.000
 118152628.76548 109859170.93248  24386647.5334   24386652.2084   24386649.1434
       197.000         129.000
 08  5 27  0 23  0.0000000  0  9G 6G21G29G30G31G 3G24G16G18
 112489265.85348  87653964.52648  21406003.1484   21406005.7574   21406003.4594
       243.000         214.000
 110083994.46348  85779730.79248  20948292.5594   20948294.0174   20948292.8724
       249.000         224.000
 124434456.99948  96961903.39348  23679098.4864   23679100.8744   23679098.7214
       229.000         183.000
 132256136.92348 103056715.23048  25167517.6034   25167519.7824   25167517.0024
       218.000         156.000
 117429410.90448  91503430.54148  22346078.9544   22346080.2064   22346078.6904
       239.000         205.000
 119006460.21348  92732297.83648  22646180.7734   22646184.1514   22646180.8774
       227.000         182.000
 121290036.41848  94511700.33748  23080739.7994   23080744.3924   23080740.6784
       228.000         184.000
 108928467.74948  84879312.98248  20728408.1324   20728409.7064   20728408.5664
       251.000         227.000
 118076016.23648 109799472.85848  24372071.2704   24372073.7994   24372071.2514
       194.000         128.000
 08  5 27  0 23 30.0000000  0  8G 6G21G29G30G31G 3G24G16
 112442637.11748  87617630.46448  21397129.9574   21397132.5904   21397130.0384
       242.000         214.000
 110092223.68948  85786143.18048  20949858.5894   20949859.9824   20949859.2954
       249.000         224.000
 124516467.21548  97025807.44748  23694704.3064   23694707.0364   23694704.1964
       228.000         183.000
 132359802.53048 103137493.64048  25187244.7594   25187247.5544   25187244.5884
       215.000         155.000
 117517671.75948  91572205.22948  22362874.2094   22362875.8854   22362873.6154
       239.000         205.000
 118927148.77848  92670496.73648  22631088.7634   22631091.5764   22631089.2404
       228.000         182.000
 121377802.94748  94580089.82848  23097440.8584   23097445.8194   23097441.9034
       226.000         184.000
 108885897.21348  84846141.14348  20720307.0414   20720308.8534   20720307.4274
       251.000         227.000
 08  5 27  0 24  0.0000000  0  8G 6G21G29G30G31G 3G24G16
 112396237.94348  87581475.27948  21388300.1774   21388303.1364   21388300.2154
       243.000         214.000
 110100953.95848  85792945.99648  20951519.6104   20951521.1934   20951520.0284
       248.000         224.000
 124598513.56648  97089739.65548  23710317.2454   23710320.1444   23710317.8164
       227.000         182.000
 132463551.40048 103218336.88548  25206987.1074   25206990.7834   25206986.5054
       219.000         153.000
 117606234.98248  91641215.51648  22379727.1944   22379728.9594   22379727.0604
       240.000         205.000
 118848015.39548  92608834.37348  22616029.7904   22616033.4194   22616030.1864
       227.000         184.000
 121465865.00548  94648709.61248  23114198.5874   23114203.3624   23114198.2054
       225.000         184.000
 108843650.17848  84813221.37748  20712267.7554   20712269.5144   20712268.0794
       251.000         228.000
 08  5 27  0 24 30.0000000  0  9G 6G21G29G30G31G 3G24G16G18
 112350068.65448  87545499.22048  21379514.7414   21379517.4904   21379515.2204
       242.000         214.000
 110110184.89248  85800138.94048  20953276.3344   20953277.9214   20953276.7894
       249.000         224.000
 124680595.82648  97153699.85748  23725936.8034   23725939.6274   23725936.9394
       224.000         181.000
 132567382.63448 103299244.33148  25226745.6964   25226748.0254   25226745.7554
       214.000         144.000
 117695098.39348  91710459.72648  22396637.7524   22396638.9604   22396637.7194
       240.000         205.000
 118769060.88848  92547311.41748  22601005.4374   22601009.1004   22601005.2594
       229.000         185.000
 121554220.42048  94717557.98448  23131012.1594   23131016.9644   23131012.0024
       228.000         184.000
 108801728.85648  84780555.40748  20704290.5774   20704292.3034   20704290.8814
       251.000         228.000
 137846953.25258  89620984.50658  24328479.9675   24328485.2725   24328479.4985
       193.000         126.000
 08  5 27  0 25  0.0000000  0  9G 6G21G29G30G31G 3G24G16G18
 112304129.28348  87509702.31548  21370772.4674   21370775.6244   21370772.2594
       243.000         215.000
 110119915.77748  85807721.45248  20955128.1864   20955129.6224   20955128.8014
       250.000         223.000
 124762713.16648  97217687.37048  23741563.2844   23741565.8504   23741562.6134
       228.000         182.000
 132671294.98548 103380214.93648  25246520.2684   25246522.9364   25246519.6184
       210.000         142.000
 117784259.21348  91779935.67948  22413604.2874   22413605.5194   22413604.3914
       239.000         204.000
 118690286.14248  92485928.49648  22586015.2894   22586018.2584   22586015.8134
       229.000         184.000
 121642866.53148  94786632.86648  23147881.0254   23147885.8334   23147881.0444
       226.000         185.000
 108760134.75848  84748144.42848  20696375.3944   20696377.1734   20696375.7784
       251.000         228.000
 137770863.03448  89561693.42848  24314001.7214   24314002.9664   24314001.7444
       193.000         127.000
 08  5 27  0 25 30.0000000  0  8G 6G21G29G31G 3G24G16G18
 112258419.67648  87474084.44648  21362074.5874   21362077.3634   21362074.5794
       243.000         214.000
 110130145.52048  85815692.68948  20957074.7474   20957076.0854   20957075.3254
       249.000         223.000
 124844865.12048  97281701.87348  23757196.2294   23757198.8354   23757196.2554
       226.000         179.000
 117873714.61448  91849641.17348  22430627.0994   22430628.3694   22430626.4774
       240.000         204.000
 118611690.83548  92424685.42648  22571058.4894   22571062.3284   22571059.3004
       228.000         184.000
 121731800.79448  94855932.27248  23164805.0824   23164809.3944   23164804.1694
       229.000         186.000
 108718869.46348  84715989.65748  20688522.8014   20688524.7344   20688523.2644
       250.000         228.000
 137694910.48548  89502509.67948  24299546.1714   24299549.4834   24299547.9864
       198.000         124.000
 08  5 27  0 26  0.0000000  0  8G 6G21G29G31G 3G24G16G18
 112212939.38648  87438645.26148  21353419.8334   21353422.4584   21353419.9804
       244.000         214.000
 110140873.21548  85824051.94348  20959116.1044   20959117.5534   20959116.5544
       249.000         223.000
 124927050.30548  97345742.28348  23772835.5714   23772837.7874   23772834.9734
       227.000         178.000
 117963461.15248  91919573.52948  22447705.3094   22447706.6194   22447704.8424
       239.000         203.000
 118533275.63648  92363582.69648  22556136.6314   22556140.0274   22556136.6824
       227.000         183.000
 121821019.99648  94925453.71748  23181782.7474   23181787.1304   23181783.0954
       228.000         185.000
 108677934.11848  84684091.98648  20680732.9514   20680734.9854   20680733.3274
       250.000         228.000
 137619097.99848  89443435.02048  24285119.6714   24285122.0664   24285121.9534
       194.000         122.000
 08  5 27  0 26 30.0000000  0  7G 6G21G29G31G 3G24G16
 112167688.93648  87403385.18148  21344808.8694   21344811.6164   21344809.2194
       243.000         214.000
 110152098.85948  85832799.20248  20961252.3704   20961253.6404   20961252.8974
       249.000         223.000
 125009268.29448  97409808.25048  23788481.1914   23788483.5374   23788481.3244
       227.000         179.000
 118053496.69148  91989731.08548  22464838.6094   22464839.8084   22464838.2954
       238.000         202.000
 118455041.07348  92302620.72548  22541249.1874   22541252.3544   22541249.7744
       230.000         184.000
 121910522.20248  94995195.70648  23198814.4504   23198818.7434   23198814.7914
       225.000         184.000
 108637330.70248  84652452.96948  20673006.3364   20673008.3534   20673006.6674
       250.000         228.000
 08  5 27  0 27  0.0000000  0  7G 6G21G29G31G 3G24G16
 112122667.56848  87368303.61248  21336241.4064   21336244.2744   21336241.6464
       244.000         214.000
 110163820.45748  85841932.92348  20963482.6244   20963484.3454   20963483.0574
       248.000         223.000
 125091518.25448  97473899.12648  23804132.7374   23804135.2214   23804132.7964
       225.000         177.000
 118143817.79248  92060111.16048  22482026.2364   22482027.4144   22482025.9254
       240.000         203.000
 118376987.37748  92241799.65348  22526396.2754   22526399.2604   22526396.2334
       231.000         186.000
 122000303.99848  95065155.53648  23215899.2004   23215903.7624   23215898.8044
       228.000         183.000
 108597060.27648  84621073.41848  20665343.3264   20665345.1864   20665343.7624
       250.000         228.000
 08  5 27  0 27 30.0000000  0  8G 6G21G29G31G 3G24G16G18
 112077875.88148  87333401.00148  21327718.0604   21327720.7654   21327718.3354
       244.000         215.000
 110176038.32948  85851453.34848  20965807.6964   20965809.3664   20965808.1514
       250.000         223.000
 125173800.21048  97538014.94548  23819790.6304   23819793.3314   23819790.3234
       224.000         176.000
 118234422.39848  92130712.13648  22499267.5264   22499269.1234   22499267.5854
       237.000         202.000
 118299115.28148  92181120.13848  22511578.0244   22511581.1794   22511578.5004
       232.000         188.000
 122090363.06648  95135331.42648  23233036.7214   23233041.5014   23233036.7414
       227.000         184.000
 108557125.11148  84589955.11048  20657743.9044   20657745.6474   20657744.3704
       250.000         228.000
 117392617.46058 109266976.69058  24242007.3625   24242009.2815   24242008.7565
       198.000         128.000
 08  5 27  0 28  0.0000000  0  8G 6G21G29G31G 3G24G16G18
 112033313.25248  87298676.88948  21319238.0864   21319240.9754   21319238.4044
       243.000         215.000
 110188751.12748  85861359.43348  20968227.0604   20968228.5324   20968227.6314
       249.000         223.000
 125256112.67448  97602154.53148  23835453.5384   23835456.4214   23835453.5154
       224.000         174.000
 118325306.77948  92201531.12348  22516562.2314   22516563.9244   22516561.8424
       239.000         202.000
 118221424.66648  92120582.02348  22496793.8514   22496796.7894   22496793.9604
       230.000         186.000
 122180696.45648  95205721.08748  23250226.7664   23250231.4964   23250227.7694
       228.000         183.000
 108517526.24448  84559098.85948  20650208.2854   20650210.2084   20650208.6634
       250.000         228.000
 117317393.96948 109208361.08748  24227692.0994   24227693.7964   24227696.5254
       186.000         126.000
 08  5 27  0 28 30.0000000  0  7G 6G21G29G31G 3G24G16
 111988980.75248  87264132.09348  21310801.9004   21310804.7404   21310801.7524
       244.000         215.000
 110201959.14548  85871651.40248  20970740.2244   20970741.8084   20970740.6054
       249.000         224.000
 125338456.34348  97666318.42348  23851123.6764   23851125.9854   23851123.9204
       222.000         174.000
 118416469.37448  92272566.89448  22533909.7564   22533911.4764   22533909.8594
       237.000         201.000
 118143917.20748  92060186.62148  22482044.4844   22482047.2954   22482044.4664
       230.000         186.000
