     2.10           OBSERVATION DATA    G (GPS)             RINEX VERSION / TYPE
teqc  2006Dec12     Administrateur RGP  20080604 11:22:26UTCPGM / RUN BY / DATE
Linux 2.4.20-8|Pentium IV|gcc|Linux|486/DX+                 COMMENT
teqc  2006Dec12     IGN-RGP             20080604 11:22:23UTCCOMMENT
teqc  2006Dec12     Administrateur RGP  20080604 11:22:18UTCCOMMENT
teqc  2005Dec16     SGN                 20080527 01:05:55UTCCOMMENT
MSXP|IAx86-PII|bcc32 5.0|MSWin95->XP|486/DX+                COMMENT
teqc  2005Dec16     SGN                 20080527 01:05:53UTCCOMMENT
BIT 2 OF LLI FLAGS DATA COLLECTED UNDER A/S CONDITION       COMMENT
SCOA                                                        MARKER NAME
10088M002                                                   MARKER NUMBER
Automatic           IGN                                     OBSERVER / AGENCY
UC2200303012        ASHTECH UZ-12       1A01                REC # / TYPE / VERS
655                 LEIAT504                                ANT # / TYPE
  4639940.9200  -136225.4900  4359552.0320                  APPROX POSITION XYZ
        0.0000        0.0000        0.0000                  ANTENNA: DELTA H/E/N
     1     1                                                WAVELENGTH FACT L1/2
     9    L1    L2    C1    P1    P2    D1    D2    S1    S2# / TYPES OF OBSERV
    30.0000                                                 INTERVAL
Forced Modulo Decimation to 1 seconds                       COMMENT
Version: Version:                                           COMMENT
Project: A__________________________                        COMMENT
 SNR is mapped to RINEX snr flag value [0-9]                COMMENT
  L1 & L2: min(max(int(snr_dBHz/6), 0), 9)                  COMMENT
teqc edited: all GLONASS satellites excluded                COMMENT
pseudorange smoothing corrections not applied               COMMENT
Forced Modulo Decimation to 30 seconds                      COMMENT
  2008     5    27     0     0    0.0000000     GPS         TIME OF FIRST OBS
                                                            END OF HEADER
 08  5 27  0  0  0.0000000  0  9G31G24G21G10G 6G16G30G 3G29
 -16796609.58948 -13018516.67647  21921431.8854   21921432.7674   21921432.8324
     -2548.6494                         51.0004         46.0004
 -15703040.36548 -12186924.01247  22094302.4194   22094302.4774   22094305.1194
     -2201.4904                         50.0004         44.0004
 -21172353.57048 -16441663.31647  20973151.4054   20973150.8064   20973152.1024
       775.1274                         53.0004         47.0004
   -838301.15946   -303967.73045  25027445.6224   25027444.0224   25027448.0644
     -1132.2944                         39.0004         33.0004
 -14743017.09248 -11430700.16547  22032773.6254   22032773.7384   22032775.2184
      2137.0224                         49.0004         44.0004
 -20247387.79948 -15735614.28647  21126485.8054   21126485.7594   21126486.5734
      1888.5564                         53.0004         47.0004
  -5833553.16547  -4482572.45446  24260718.0364   24260718.3954   24260720.6464
     -3433.9704                         42.0004         36.0004
  -6229347.81647  -4800812.56246  23610965.9734   23610965.5824   23610967.7964
      3075.7974                         43.0004         37.0004
 -12283699.67148  -9519580.71047  22676317.8704   22676318.3604   22676319.4034
     -2610.6764                         49.0004         44.0004
 08  5 27  0  0 30.0000000  0  9G31G24G21G10G 6G16G30G 3G29
 -16719940.63848 -12958774.64047  21936021.1684   21936021.6244   21936022.4734
     -2562.3964                         50.0004         45.0004
 -15636761.69748 -12135278.29847  22106914.8654   22106914.3494   22106917.7744
     -2217.0164                         50.0004         44.0004
 -21195345.72348 -16459579.26547  20968776.2074   20968775.2564   20968776.5164
       757.7864                         52.0004         47.0004
   -804052.531 6   -277280.45845  25033963.214                    25033965.8084
     -1150.871                          40.000          33.0004
 -14807001.03748 -11480557.76547  22020597.7824   22020597.6634   22020599.3114
      2128.8524                         49.0004         44.0004
 -20303893.12048 -15779644.39847  21115733.0264   21115732.5614   21115734.1564
      1878.4094                         53.0004         47.0004
  -5730458.89146  -4402239.25946  24280335.5464   24280335.4414   24280338.7784
     -3438.8334                         41.0004         36.0004
  -6321539.96747  -4872650.55646  23593421.5424   23593421.0924   23593424.6674
      3070.5744                         42.0004         37.0004
 -12205310.23648  -9458498.05647  22691234.2674   22691234.7094   22691236.3084
     -2615.3844                         48.0004         43.0004
 08  5 27  0  1  0.0000000  0  9G31G24G21G10G 6G16G30G 3G29
 -16642878.05648 -12898725.88347  21950685.6904   21950686.5224   21950687.1424
     -2575.0324                         50.0004         45.0004
 -15570045.78748 -12083291.87947  22119611.0044   22119610.2174   22119614.0314
     -2231.1684                         50.0004         44.0004
 -21217832.41048 -16477101.34147  20964497.0334   20964496.4724   20964497.4424
       741.1564                         53.0004         47.0004
   -769264.33246   -250172.72645  25040583.3844   25040581.1014   25040582.3024
     -1168.5504                         40.0004         33.0004
 -14870763.76748 -11530242.98847  22008463.5864   22008463.5454   22008466.1154
      2121.9134                         49.0004         44.0004
 -20360112.28948 -15823451.53247  21105034.9204   21105035.0934   21105035.9844
      1869.3604                         53.0004         47.0004
  -5627237.18347  -4321806.79046  24299978.5514   24299979.4624   24299980.4564
     -3442.6434                         42.0004         36.0004
  -6413594.47146  -4944381.30046  23575903.8594   23575903.5704   23575907.1494
      3066.3114                         41.0004         37.0004
 -12126808.90748  -9397328.22447  22706172.4174   22706171.9284   22706174.6684
     -2618.4024                         48.0004         43.0004
 08  5 27  0  1 30.0000000  0  9G31G24G21G10G 6G16G30G 3G29
 -16565424.50948 -12838372.47547  21965424.5404   21965424.7184   21965425.5244
     -2588.3624                         51.0004         45.0004
 -15502894.82548 -12030966.44747  22132388.8744   22132387.9934   22132392.1414
     -2245.6674                         50.0004         44.0004
 -21239813.31648 -16494229.30348  20960314.1934   20960313.9224   20960314.9134
       724.2494                         53.0004         48.0004
   -733937.47946   -222645.29745  25047304.7454   25047303.1354   25047306.7104
     -1186.5394                         40.0004         33.0004
 -14934304.98448 -11579755.60947  21996372.4274   21996371.7484   21996374.7844
      2114.2794                         49.0004         44.0004
 -20416043.84248 -15867034.55647  21094391.4694   21094391.4754   21094392.3794
      1859.5494                         53.0004         47.0004
  -5523889.28747  -4241275.90246  24319644.4434   24319645.2364   24319645.6794
     -3447.1274                         42.0004         36.0004
  -6505510.90247  -5016004.45246  23558412.8764   23558413.9574   23558416.1024
      3061.7044                         42.0004         37.0004
 -12048197.04548  -9336072.25547  22721132.9014   22721133.2064   22721134.2774
     -2622.1554                         49.0004         43.0004
 08  5 27  0  2  0.0000000  0  9G31G24G21G10G 6G16G30G 3G29
 -16487584.23248 -12777717.71347  21980237.3154   21980236.9744   21980238.3954
     -2600.9524                         50.0004         45.0004
 -15435313.12248 -11978305.38947  22145248.7614   22145249.2684   22145252.1374
     -2259.7554                         49.0004         44.0004
 -21261290.33848 -16510964.63148  20956227.3774   20956226.6474   20956227.4204
       707.4834                         53.0004         48.0004
   -698075.40146   -194700.82745  25054130.4194   25054130.4924   25054133.0684
     -1204.6134                         41.0004         34.0004
 -14997626.40348 -11629096.95747  21984322.9374   21984321.8664   21984325.3544
      2107.2154                         49.0004         44.0004
 -20471687.93648 -15910393.58147  21083802.8034   21083802.6354   21083803.7044
      1850.1204                         53.0004         47.0004
  -5420418.14246  -4160649.05146  24339334.2304   24339333.2834   24339337.2564
     -3450.9764                         41.0004         36.0004
  -6597290.09847  -5087520.66946  23540947.2344   23540948.0054   23540950.5844
      3056.9244                         42.0004         37.0004
 -11969477.98348  -9274732.74047  22736111.6084   22736112.3134   22736113.4224
     -2625.8564                         48.0004         43.0004
 08  5 27  0  2 30.0000000  0  9G31G24G21G10G 6G16G30G 3G29
 -16409357.53048 -12716761.83947  21995123.3834   21995123.2264   21995125.0934
     -2613.6684                         51.0004         45.0004
 -15367301.10048 -11925309.01847  22158191.6644   22158191.2774   22158195.1264
     -2274.1324                         50.0004         44.0004
 -21282260.88548 -16527305.30247  20952236.6884   20952236.6544   20952237.1584
       690.9384                         53.0004         47.0004
   -661676.07146   -166337.70045  25061056.1154   25061057.6484   25061058.7304
     -1221.6794                         39.0004         34.0004
 -15060725.29148 -11678264.89847  21972315.4314   21972315.5424   21972318.0234
      2099.8674                         49.0004         44.0004
 -20527040.65348 -15953525.56147  21073269.4984   21073269.3364   21073269.9944
      1840.4414                         53.0004         47.0004
  -5316822.56847  -4079925.28046  24359048.5904   24359047.9184   24359050.2284
     -3455.1414                         42.0004         36.0004
  -6688929.42147  -5158927.89146  23523509.2894   23523508.8464   23523512.4404
      3052.4194                         42.0004         37.0004
 -11890649.58648  -9213308.05147  22751112.0894   22751112.5424   22751114.8634
     -2629.0754                         48.0004         43.0004
 08  5 27  0  3  0.0000000  0  9G31G24G21G10G 6G16G30G 3G29
 -16330751.31048 -12655510.24147  22010081.5794   22010082.3064   22010083.0254
     -2626.7694                         50.0004         45.0004
 -15298865.39548 -11871982.49747  22171214.6914   22171213.9534   22171218.5054
     -2288.3254                         50.0004         44.0004
 -21302729.13348 -16543254.57448  20948341.6844   20948341.4104   20948342.2764
       673.6564                         52.0004         48.0004
   -624745.51246   -137560.68445  25068083.5444   25068084.6904   25068086.7984
     -1239.7354                         38.0004         34.0004
 -15123606.00748 -11727262.83447  21960349.4184   21960349.2504   21960351.8734
      2092.2394                         49.0004         44.0004
 -20582104.90848 -15996432.76947  21062791.1964   21062791.0834   21062792.1504
      1830.4924                         53.0004         47.0004
  -5213108.49546  -3999109.10946  24378784.1214   24378784.1774   24378787.3304
     -3459.2654                         41.0004         36.0004
  -6780432.48047  -5230228.93646  23506096.8834   23506096.7694   23506100.3634
      3047.5064                         43.0004         37.0004
 -11811717.67548  -9151802.70147  22766133.0034   22766132.9434   22766134.3854
     -2632.8034                         48.0004         43.0004
 08  5 27  0  3 30.0000000  0  9G31G24G21G10G 6G16G30G 3G29
 -16251763.69848 -12593961.46347  22025112.3864   22025113.0264   22025113.6564
     -2639.2434                         50.0004         45.0004
 -15230004.24948 -11818324.46547  22184318.1964   22184317.7444   22184321.3294
     -2302.4904                         49.0004         44.0004
 -21322689.73048 -16558808.27348  20944543.2934   20944543.1204   20944543.6944
       656.8484                         53.0004         48.0004
   -587280.67346   -108367.38145  25075213.6184   25075213.2474   25075214.2894
     -1257.9554                         38.0004         34.0004
 -15186264.12948 -11776087.33247  21948426.3474   21948425.8034   21948427.9024
      2084.8424                         49.0004         44.0004
 -20636874.86448 -16039110.64947  21052368.8314   21052368.4744   21052370.1144
      1820.6554                         53.0004         47.0004
  -5109272.62146  -3918197.98845  24398542.5454   24398544.7214   24398547.9134
     -3463.1924                         40.0004         35.0004
  -6871794.26947  -5301419.91246  23488711.2274   23488711.0504   23488714.4544
      3042.8694                         42.0004         37.0004
 -11732679.12448  -9090214.22247  22781173.5074   22781172.2774   22781175.1524
     -2636.5084                         48.0004         43.0004
 08  5 27  0  4  0.0000000  0  9G31G24G21G10G 6G16G30G 3G29
 -16172396.95848 -12532117.25347  22040215.3444   22040215.0124   22040216.0324
     -2651.4774                         50.0004         45.0004
 -15160719.87548 -11764336.65047  22197502.3484   22197501.3064   22197506.0824
     -2316.2114                         49.0004         44.0004
 -21342142.65848 -16573966.38448  20940841.6044   20940841.1314   20940841.9124
       640.4164                         53.0004         48.0004
   -549281.99646    -78758.05045  25082444.8874   25082442.3734   25082447.9354
     -1275.4224                         38.0004         34.0004
 -15248699.17348 -11824737.99247  21936545.0054   21936545.3174   21936547.7834
      2077.7484                         49.0004         44.0004
 -20691348.35648 -16081557.52347  21042002.8544   21042002.6204   21042003.8804
      1811.2344                         53.0004         47.0004
  -5005316.10747  -3837192.95946  24418326.0144   24418325.8904   24418328.6024
     -3466.7334                         42.0004         36.0004
  -6963013.79347  -5372500.03046  23471352.8534   23471351.8504   23471356.3644
      3038.7894                         43.0004         37.0004
 -11653534.74648  -9028543.28147  22796233.3714   22796233.2374   22796237.1324
     -2639.4804                         48.0004         43.0004
 08  5 27  0  4 30.0000000  0  9G31G24G21G 6G16G30G18G 3G29
 -16092656.19548 -12469981.59647  22055389.5384   22055390.0564   22055389.9024
     -2664.3894                         50.0004         45.0004
 -15091016.74748 -11710022.53847  22210766.7204   22210767.3944   22210769.5524
     -2330.6034                         50.0004         43.0004
 -21361089.81148 -16588730.38448  20937235.9504   20937235.4424   20937236.2614
       622.8794                         53.0004         48.0004
 -15310912.93748 -11873216.23247  21924706.0114   21924705.9794   21924708.7484
      2069.9364                         49.0004         44.0004
 -20745526.38248 -16123774.16247  21031693.2744   21031693.2834   21031694.0304
      1800.7214                         53.0004         47.0004
  -4901242.26147  -3756096.46746  24438130.9684   24438129.1084   24438134.6744
     -3471.3394                         42.0004         36.0004
   -235714.90646   -132835.55345  24978104.4654   24978105.6574   24978105.3554
      2816.4584                         38.0004         34.0004
  -7054093.14247  -5443470.89746  23454021.5244   23454020.9844   23454023.2794
      3033.4194                         43.0004         37.0004
 -11574287.66348  -8966792.29947  22811314.3644   22811314.6584   22811316.6644
     -2643.5564                         48.0004         43.0004
 08  5 27  0  5  0.0000000  0  9G31G24G21G 6G16G30G18G 3G29
 -16012542.56448 -12407555.39247  22070634.6364   22070635.1384   22070635.7494
     -2676.9894                         50.0004         45.0004
 -15020896.04748 -11655383.02047  22224110.5914   22224110.0574   22224113.5274
     -2344.8484                         50.0004         44.0004
 -21379529.79548 -16603099.19148  20933727.0264   20933726.4834   20933727.4194
       605.8564                         53.0004         48.0004
 -15372903.84348 -11921520.82047  21912909.5844   21912909.8684   21912912.4744
      2062.1784                         49.0004         44.0004
 -20799405.78048 -16165758.10547  21021440.3444   21021440.3284   21021441.1634
      1790.5524                         53.0004         47.0004
  -4797051.12646  -3674908.56645  24457957.2524   24457955.4254   24457960.2044
     -3475.3934                         41.0004         35.0004
   -320210.57346   -198676.36445  24962026.7734   24962025.0844   24962029.2074
      2816.3504                         41.0004         34.0004
  -7145029.55847  -5514330.40846  23436716.3444   23436715.1344   23436720.9034
      3028.6684                         43.0004         37.0004
 -11494937.64648  -8904961.11647  22826414.3054   22826414.2784   22826416.3854
     -2647.1364                         48.0004         43.0004
 08  5 27  0  5 30.0000000  0  9G31G24G21G 6G16G30G18G 3G29
 -15932058.91848 -12344840.86147  22085950.2634   22085950.6984   22085951.6434
     -2688.8304                         50.0004         45.0004
 -14950360.83948 -11600420.51747  22237532.7854   22237532.8224   22237536.7094
     -2358.0334                         50.0004         44.0004
 -21397463.37348 -16617073.39448  20930314.3674   20930314.2594   20930314.4304
       589.4614                         53.0004         48.0004
 -15434672.23848 -11969652.02247  21901155.5174   21901154.9424   21901157.5384
      2055.3304                         49.0004         44.0004
 -20852985.70148 -16207508.68547  21011244.3534   21011244.3084   21011244.9794
      1781.1844                         53.0004         47.0004
  -4692744.40047  -3593630.59346  24477805.7834   24477806.9044   24477806.8254
     -3478.5624                         42.0004         36.0004
   -404688.33646   -264503.23345  24945950.0554   24945950.1094   24945952.8294
      2815.1574                         40.0004         35.0004
  -7235823.54247  -5585078.93946  23419439.1954   23419438.4034   23419441.6804
      3024.1354                         44.0004         37.0004
 -11415486.24248  -8843050.93747  22841532.6244   22841533.4274   22841534.6284
     -2649.8394                         48.0004         43.0004
 08  5 27  0  6  0.0000000  0  9G31G24G21G 6G16G30G18G 3G29
 -15851207.88448 -12281840.05747  22101335.5324   22101335.6564   22101336.6534
     -2700.9194                         50.0004         45.0004
 -14879413.05948 -11545136.53947  22251033.6064   22251033.0004   22251036.7384
     -2371.4694                         50.0004         44.0004
 -21414888.68248 -16630651.54448  20926998.4374   20926998.0464   20926998.9424
       572.4684                         53.0004         48.0004
 -15496217.66548 -12017609.48047  21889443.7584   21889443.2774   21889445.6224
      2047.9924                         49.0004         44.0004
 -20906263.98248 -16249024.22547  21001105.6884   21001105.2124   21001107.0934
      1771.0274                         53.0004         47.0004
  -4588322.50046  -3512262.86746  24497677.4824   24497675.6304   24497680.9934
     -3482.4564                         41.0004         36.0004
   -489145.64446   -330314.06245  24929877.3184   24929877.4724   24929880.0314
      2815.9814                         40.0004         34.0004
  -7326474.23247  -5655715.79846  23402188.2264   23402187.2914   23402191.4444
      3019.8394                         42.0004         38.0004
 -11335934.03747  -8781062.20447  22856671.2074   22856671.0204   22856672.6944
     -2653.2554                         47.0004         43.0004
 08  5 27  0  6 30.0000000  0  9G31G24G21G 6G16G30G18G 3G29
 -15769997.76948 -12218559.46047  22116789.4354   22116789.9134   22116790.6234
     -2713.4844                         50.0004         45.0004
 -14808061.44548 -11489537.87947  22264611.4844   22264611.6004   22264615.3264
     -2385.5844                         49.0004         43.0004
 -21431812.02048 -16643838.55048  20923778.0544   20923777.5654   20923778.2754
       555.2724                         53.0004         48.0004
 -15557545.95848 -12065397.74947  21877773.3634   21877773.1324   21877775.8484
      2040.2464                         49.0004         44.0004
 -20959244.69248 -16290307.89047  20991023.9104   20991023.5734   20991024.9554
      1760.4854                         53.0004         47.0004
  -4483793.12247  -3430811.44546  24517568.9624   24517568.3274   24517573.9664
     -3487.2114                         42.0004         36.0004
   -573585.53846   -396111.39445  24913810.7874   24913811.5474   24913811.5904
      2814.2524                         40.0004         35.0004
  -7416986.78447  -5726245.04346  23384964.5724   23384963.8874   23384967.1284
      3014.0774                         43.0004         38.0004
 -11256288.20548  -8719000.51947  22871828.1044   22871827.3374   22871828.9324
     -2657.0364                         48.0004         43.0004
 08  5 27  0  7  0.0000000  0  9G31G24G21G 6G16G30G18G 3G29
 -15688418.02348 -12154990.83747  22132313.2754   22132314.0434   22132313.9704
     -2725.1704                         49.0004         45.0004
 -14736294.98348 -11433615.96747  22278268.6794   22278268.1634   22278270.8424
     -2398.9844                         50.0004         43.0004
 -21448220.39848 -16656624.28448  20920655.7294   20920654.8784   20920656.0844
       538.5304                         53.0004         48.0004
 -15618643.49448 -12113006.20947  21866146.8174   21866146.4594   21866149.2884
      2032.9444                         49.0004         44.0004
 -21011913.20648 -16331348.28648  20981001.4064   20981001.1014   20981002.1864
      1750.5974                         53.0004         48.0004
  -4379144.33947  -3349266.91545  24537481.8244   24537483.7554   24537485.0334
     -3490.1374                         42.0004         35.0004
   -657991.83746   -461882.55445  24897748.6534   24897746.9684   24897748.2914
      2813.4224                         40.0004         34.0004
  -7507347.15147  -5796655.67546  23367769.7924   23367768.4904   23367772.1824
      3009.9024                         43.0004         38.0004
 -11176536.32948  -8656856.21247  22887003.7454   22887003.5774   22887005.8704
     -2659.8464                         48.0004         43.0004
 08  5 27  0  7 30.0000000  0  9G31G24G21G 6G16G30G18G 3G29
 -15606480.22248 -12091143.20247  22147905.8754   22147905.4764   22147907.0424
     -2737.4604                         50.0004         45.0004
 -14664124.91648 -11377379.53547  22292001.7864   22292002.4944   22292004.9154
     -2412.6414                         49.0004         43.0004
 -21464122.25848 -16669015.33148  20917629.5114   20917628.6294   20917630.0384
       521.3514                         53.0004         48.0004
 -15679518.95548 -12160441.61247  21854562.5804   21854562.7864   21854564.4354
      2025.3394                         49.0004         44.0004
 -21064276.78148 -16372151.06648  20971036.9304   20971036.9164   20971038.0854
      1740.1664                         53.0004         48.0004
  -4274386.00646  -3267637.00246  24557415.8874   24557416.2544   24557419.6344
     -3494.2014                         40.0004         36.0004
   -742370.90146   -527632.46845  24881690.5264   24881690.9174   24881695.8694
      2811.7794                         39.0004         34.0004
  -7597563.12147  -5866953.81546  23350601.8984   23350601.5774   23350604.2064
      3004.7494                         43.0004         38.0004
 -11096688.41248  -8594637.05547  22902198.1904   22902198.2514   22902200.6034
     -2663.4904                         48.0004         43.0004
 08  5 27  0  8  0.0000000  0  9G31G24G21G 6G16G30G18G 3G29
 -15524183.19648 -12027015.65047  22163566.7204   22163565.5044   22163567.0764
     -2749.1694                         50.0004         44.0004
 -14591550.11448 -11320827.75147  22305812.0364   22305811.8904   22305814.3154
     -2425.9434                         49.0004         43.0004
 -21479513.96548 -16681008.86048  20914700.6644   20914699.7744   20914701.0494
       504.5714                         53.0004         48.0004
 -15740168.37448 -12207700.87847  21843021.4014   21843021.6764   21843024.3574
      2017.9284                         50.0004         44.0004
 -21116330.21248 -16412712.17248  20961131.6524   20961131.1244   20961132.8514
      1729.9354                         53.0004         48.0004
  -4169516.10546  -3185920.28746  24577372.2544   24577374.1274   24577375.7614
     -3497.0694                         41.0004         36.0004
   -826716.17947   -593355.91945  24865641.7474   24865640.8384   24865643.3964
      2811.2654                         42.0004         35.0004
  -7687630.79247  -5937136.36446  23333463.0574   23333462.2724   23333466.2474
      2999.7714                         43.0004         38.0004
 -11016741.59548  -8532340.83347  22917412.4314   22917412.3334   22917414.0364
     -2666.3914                         48.0004         43.0004
 08  5 27  0  8 30.0000000  0  9G31G24G21G 6G16G30G18G 3G29
 -15441533.04048 -11962612.93747  22179294.3244   22179293.9444   22179295.0524
     -2761.0284                         50.0004         45.0004
 -14518576.92248 -11263965.52747  22319698.7934   22319699.1194   22319699.9864
     -2439.2504                         49.0004         43.0004
 -21494398.98148 -16692607.56048  20911868.1184   20911867.6984   20911868.5614
       487.5254                         53.0004         48.0004
 -15800595.31748 -12254786.78747  21831522.7994   21831522.9804   21831524.9164
      2010.2964                         49.0004         44.0004
 -21168075.30148 -16453033.01548  20951284.7614   20951284.6554   20951285.6444
      1719.4264                         53.0004         48.0004
  -4064539.34647  -3104120.19845  24597350.8014   24597348.8264   24597353.6304
     -3501.4104                         42.0004         35.0004
   -911028.80646   -659054.03345  24849596.5714   24849595.9424   24849597.3954
      2809.1704                         41.0004         35.0004
  -7777553.50447  -6007205.98546  23316351.3074   23316351.5474   23316353.4494
      2994.7064                         43.0004         38.0004
 -10936700.40647  -8469971.07347  22932643.3194   22932643.8274   22932644.7284
     -2669.7564                         47.0004         43.0004
 08  5 27  0  9  0.0000000  0  9G31G24G21G 6G16G30G18G 3G29
 -15358529.07448 -11897934.52347  22195089.6324   22195089.5144   22195090.6814
     -2773.0924                         50.0004         45.0004
 -14445204.00348 -11206791.82447  22333661.2984   22333660.8804   22333663.9374
     -2452.9424                         49.0004         43.0004
 -21508773.17548 -16703808.22148  20909132.7384   20909132.2214   20909133.4804
       470.1314                         53.0004         48.0004
 -15860795.86548 -12301696.29847  21820066.9994   21820067.0264   21820069.1884
      2002.4654                         50.0004         44.0004
 -21219506.67948 -16493109.40848  20941497.6524   20941497.6044   20941499.0594
      1708.5974                         53.0004         48.0004
  -3959453.43246  -3022235.09045  24617346.1804   24617349.9374   24617349.9354
     -3505.5744                         39.0004         34.0004
   -995302.14646   -724721.59745  24833560.1254   24833559.7484   24833558.2554
      2807.9204                         40.0004         34.0004
  -7867326.49747  -6077158.93946  23299267.9904   23299268.7674   23299271.5604
      2989.5054                         44.0004         38.0004
 -10856562.26247  -8407525.75147  22947892.4344   22947893.0154   22947895.9044
     -2673.3414                         47.0004         43.0004
 08  5 27  0  9 30.0000000  0  9G31G24G21G 6G16G30G18G 3G29
 -15275176.75548 -11832984.67647  22210950.6784   22210951.5054   22210951.4734
     -2784.5264                         50.0004         45.0004
 -14371436.97548 -11149311.01647  22347698.1144   22347696.5074   22347700.9514
     -2465.7364                         49.0004         43.0004
 -21522639.81448 -16714613.38648  20906493.9774   20906493.5524   20906494.6904
       453.4364                         53.0004         48.0004
 -15920772.85348 -12348431.59647  21808653.7014   21808653.6224   21808656.0004
      1995.1574                         49.0004         44.0004
 -21270626.09148 -16532942.71148  20931770.0304   20931769.5024   20931770.7834
      1698.4834                         53.0004         48.0004
  -3854262.46346  -2940268.12845  24637363.9744   24637365.4144   24637365.8144
     -3508.8414                         41.0004         35.0004
  -1079536.71446   -790358.93145  24817532.2874   24817533.0204   24817531.8704
      2806.5534                         41.0004         35.0004
  -7956952.19247  -6146997.11846  23282212.3984   23282214.1184   23282216.1914
      2984.7614                         44.0004         38.0004
 -10776331.42148  -8345008.23247  22963160.4644   22963160.7714   22963161.9144
     -2676.2354                         48.0004         43.0004
 08  5 27  0 10  0.0000000  0  9G31G24G21G 6G16G30G18G 3G29
 -15191477.53548 -11767764.51047  22226877.9934   22226878.6184   22226879.6504
     -2795.7194                         50.0004         44.0004
 -14297276.86448 -11091523.91447  22361810.0844   22361809.7024   22361813.7634
     -2478.4934                         49.0004         43.0004
 -21535997.34348 -16725021.83948  20903952.2854   20903951.8384   20903952.6694
       436.7224                         53.0004         48.0004
 -15980524.58748 -12394991.37447  21797283.1584   21797283.0324   21797284.6684
      1987.9684                         49.0004         44.0004
 -21321430.30348 -16572530.40348  20922102.3494   20922101.9394   20922103.5534
      1688.2174                         53.0004         48.0004
  -3748966.35846  -2858219.24846  24657402.2414   24657399.6404   24657404.1804
     -3511.8384                         41.0004         36.0004
  -1163727.99946   -855962.47945  24801509.9794   24801509.4344   24801511.4764
      2805.6074                         40.0004         35.0004
  -8046428.92747  -6216719.22246  23265185.7374   23265185.4084   23265187.8464
      2979.9104                         44.0004         38.0004
 -10696006.97648  -8282417.75847  22978445.8694   22978446.3094   22978447.6044
     -2679.1164                         48.0004         42.0004
 08  5 27  0 10 30.0000000  0  9G31G24G21G 6G16G30G18G 3G29
 -15107432.53048 -11702274.89347  22242871.4514   22242871.7494   22242872.6454
     -2807.1674                         50.0004         44.0004
 -14222725.01948 -11033431.56747  22375997.4204   22375997.3894   22375999.4804
     -2491.6054                         49.0004         43.0004
 -21548844.28548 -16735032.42848  20901507.4134   20901507.1864   20901507.7294
       419.8304                         53.0004         48.0004
 -16040049.80548 -12441374.64347  21785955.8634   21785955.3364   21785958.3654
      1980.5144                         49.0004         44.0004
 -21371916.64148 -16611870.39748  20912495.0764   20912494.6854   20912496.2484
      1677.6424                         53.0004         48.0004
  -3643565.31446  -2776088.60645  24677457.4014   24677459.3974   24677460.4534
     -3515.3374                         40.0004         34.0004
  -1247872.17346   -921529.28645  24785497.7004   24785495.3594   24785499.5214
      2804.3764                         40.0004         34.0004
  -8135754.77047  -6286323.74946  23248187.2764   23248187.6594   23248189.7404
      2974.7584                         44.0004         38.0004
 -10615588.92347  -8219754.33447  22993748.3614   22993748.1294   22993750.3754
     -2681.9654                         47.0004         42.0004
 08  5 27  0 11  0.0000000  0  9G31G24G21G 6G16G30G18G 3G29
 -15023048.53448 -11636521.13847  22258929.1084   22258929.1274   22258930.1914
     -2818.7284                         50.0004         44.0004
 -14147787.76548 -10975038.90447  22390257.4654   22390256.9764   22390260.4414
     -2504.5534                         49.0004         43.0004
 -21561185.22548 -16744648.72948  20899159.0704   20899158.6104   20899159.0204
       402.6184                         53.0004         48.0004
 -16099351.81748 -12487583.98447  21774671.0664   21774670.8314   21774672.7484
      1972.6594                         49.0004         44.0004
 -21422086.97048 -16650964.15448  20902947.8654   20902947.3914   20902948.8224
      1666.7844                         53.0004         48.0004
  -3538063.64346  -2693879.53145  24697534.4994   24697535.1834   24697538.8634
     -3518.5724                         41.0004         35.0004
  -1331970.33746   -987060.29545  24769494.4114   24769493.2944   24769495.7494
      2802.5434                         40.0004         34.0004
  -8224932.51247  -6355812.85646  23231217.9434   23231216.6884   23231220.4314
      2969.8614                         44.0004         38.0004
 -10535081.89847  -8157021.59847  23009068.1714   23009069.1304   23009070.0744
     -2685.1704                         47.0004         42.0004
 08  5 27  0 11 30.0000000  0  9G31G24G21G 6G16G30G18G 3G29
 -14938323.16648 -11570501.37347  22275052.3354   22275052.5674   22275052.4954
     -2829.6744                         50.0004         44.0004
 -14072462.62848 -10916343.98847  22404591.2564   22404591.0504   22404593.5584
     -2517.0624                         49.0004         43.0004
 -21573014.23648 -16753866.12948  20896908.0004   20896907.7294   20896908.4934
       385.9804                         53.0004         48.0004
 -16158425.54348 -12533615.44147  21763429.5244   21763430.4254   21763432.0664
      1965.4874                         49.0004         44.0004
 -21471934.67748 -16689806.51748  20893462.1604   20893462.2814   20893462.9184
      1656.2974                         53.0004         48.0004
  -3432458.57746  -2611589.86446  24717631.4364   24717631.5924   24717633.7834
     -3521.7834                         40.0004         36.0004
  -1416014.63946  -1052549.30145  24753500.8814   24753500.4884   24753502.0384
      2800.5584                         39.0004         35.0004
  -8313956.72947  -6425182.34246  23214276.9094   23214276.9804   23214279.0584
      2965.1064                         44.0004         38.0004
 -10454481.87847  -8094216.38547  23024406.7844   23024405.9764   23024408.6594
     -2688.1274                         47.0004         42.0004
 08  5 27  0 12  0.0000000  0  9G31G24G21G 6G16G30G18G 3G29
 -14853263.54348 -11504221.15047  22291238.3224   22291238.3654   22291239.6614
     -2840.7944                         49.0004         44.0004
 -13996756.36848 -10857352.09247  22418997.3514   22418997.6144   22419000.0134
     -2529.9394                         49.0004         43.0004
 -21584336.29148 -16762688.49748  20894753.4984   20894753.5064   20894753.7534
       368.9964                         53.0004         48.0004
 -16217275.30248 -12579472.37547  21752230.9994   21752231.2284   21752232.9734
      1957.9044                         49.0004         44.0004
 -21521462.80148 -16728399.85548  20884037.2664   20884036.8914   20884038.2604
      1645.6934                         53.0004         48.0004
  -3326755.37846  -2529223.81645  24737745.1024   24737745.4674   24737749.7884
     -3525.0514                         39.0004         35.0004
  -1500007.16946  -1117997.94745  24737517.0124   24737517.4584   24737518.2794
      2799.0694                         40.0004         35.0004
  -8402830.84047  -6494434.87746  23197365.1034   23197364.1314   23197366.5074
      2960.0324                         44.0004         38.0004
 -10373794.20147  -8031342.87947  23039759.9974   23039760.1894   23039761.9664
     -2691.3014                         47.0004         42.0004
 08  5 27  0 12 30.0000000  0  9G31G24G21G 6G16G30G18G 3G29
 -14767868.45348 -11437679.52447  22307488.2654   22307488.7224   22307489.4734
     -2851.7874                         49.0004         44.0004
 -13920667.49348 -10798062.04947  22433477.2724   22433477.1964   22433479.7094
     -2542.3554                         49.0004         43.0004
 -21595147.02448 -16771112.43448  20892696.1724   20892696.0434   20892696.6794
       352.2144                         53.0004         48.0004
 -16275896.58648 -12625151.27847  21741075.5904   21741075.9564   21741078.7744
      1950.2794                         50.0004         44.0004
 -21570665.57648 -16766739.67148  20874674.2154   20874673.8314   20874675.1194
      1634.8434                         53.0004         48.0004
  -3220951.04446  -2446778.85645  24757879.4014   24757880.6464   24757882.8234
     -3528.0834                         41.0004         35.0004
  -1583940.53146  -1183400.44445  24721546.1814   24721547.8454   24721546.3514
      2796.7744                         41.0004         35.0004
  -8491550.55347  -6563567.09646  23180481.7084   23180481.3504   23180483.6194
      2955.0554                         44.0004         38.0004
 -10293015.75047  -7968398.62747  23055131.4434   23055131.5224   23055134.1014
     -2693.8944                         46.0004         42.0004
 08  5 27  0 13  0.0000000  0  9G31G24G21G 6G16G30G18G 3G29
 -14682135.60648 -11370874.71847  22323802.8334   22323802.4424   22323804.2284
     -2863.1224                         49.0004         44.0004
 -13844193.75348 -10738472.11447  22448029.4994   22448028.9844   22448033.4074
     -2555.3384                         50.0004         43.0004
 -21605442.52448 -16779134.89148  20890737.1684   20890736.4774   20890737.6124
       334.7154                         53.0004         48.0004
 -16334284.55948 -12670648.38647  21729964.8994   21729965.5244   21729967.5814
      1942.5744                         50.0004         44.0004
 -21619536.73948 -16804821.09148  20865374.4754   20865374.4464   20865375.5234
      1623.6714                         53.0004         48.0004
  -3115042.28946  -2364252.53645  24778033.8264   24778031.2754   24778035.1994
     -3531.7324                         40.0004         35.0004
  -1667807.23246  -1248751.12945  24705586.4994   24705586.6314   24705586.1484
      2795.0714                         41.0004         35.0004
  -8580110.34247  -6632574.69146  23163629.5914   23163629.1944   23163631.2634
      2949.6954                         44.0004         38.0004
 -10212142.85247  -7905380.78147  23070522.1504   23070523.0494   23070523.7024
     -2696.9864                         47.0004         42.0004
 08  5 27  0 13 30.0000000  0  9G31G24G21G 6G16G30G18G 3G29
 -14596085.17048 -11303822.42547  22340177.4314   22340177.2754   22340179.2454
     -2874.1114                         49.0004         44.0004
 -13767355.20648 -10678597.92547  22462650.9974   22462650.7654   22462653.2214
     -2567.8724                         49.0004         43.0004
 -21615238.90548 -16786768.42148  20888872.9314   20888872.3004   20888873.1564
       317.6604                         53.0004         48.0004
 -16392456.46148 -12715977.13447  21718895.1044   21718894.4534   21718897.1864
      1934.8964                         50.0004         45.0004
 -21668091.50548 -16842655.96948  20856134.6894   20856134.3784   20856136.0384
      1612.7004                         53.0004         48.0004
  -3009047.76846  -2281659.50545  24798202.2004   24798204.0414   24798207.6804
     -3534.8734                         40.0004         35.0004
  -1751622.03346  -1314061.39945  24689637.0924   24689636.1394   24689636.8684
      2792.2484                         40.0004         35.0004
  -8668527.00547  -6701470.76546  23146804.4854   23146804.1314   23146807.1934
      2944.1304                         45.0004         39.0004
 -10131193.39547  -7842303.28047  23085925.5094   23085925.9284   23085927.4394
     -2700.0654                         46.0004         42.0004
 08  5 27  0 14  0.0000000  0  9G31G24G21G 6G16G30G18G 3G29
 -14509704.45748 -11236512.79447  22356615.4954   22356616.4064   22356617.2554
     -2884.9394                         49.0004         44.0004
 -13690139.27548 -10618429.66547  22477345.1394   22477344.3624   22477347.4834
     -2580.2704                         49.0004         43.0004
 -21624521.89148 -16794001.90748  20887106.4194   20887106.0324   20887106.7494
       300.4704                         52.0004         48.0004
 -16450396.89848 -12761125.50247  21707869.4624   21707868.9634   21707872.0874
      1927.2234                         50.0004         45.0004
 -21716313.68448 -16880231.68248  20846958.3834   20846957.8554   20846959.3384
      1601.5944                         53.0004         48.0004
  -2902953.73146  -2198988.90445  24818392.8014   24818390.3444   24818395.2474
     -3538.5924                         41.0004         35.0004
  -1835367.08346  -1379317.20146  24673701.4104   24673701.6274   24673702.2974
      2790.1754                         41.0004         36.0004
  -8756784.60647  -6770242.88646  23130009.7954   23130010.0014   23130012.2484
      2938.8624                         45.0004         39.0004
 -10050153.51847  -7779155.33047  23101346.7204   23101346.5694   23101348.8144
     -2702.7314                         46.0004         42.0004
 08  5 27  0 14 30.0000000  0  9G31G24G21G 6G16G30G18G 3G29
 -14423002.61248 -11168952.91447  22373114.1414   22373115.1544   22373116.5614
     -2895.3994                         49.0004         44.0004
 -13612554.39948 -10557973.91447  22492109.2734   22492108.5454   22492111.1794
     -2592.3444                         49.0004         43.0004
 -21633297.81448 -16800840.27748  20885436.3724   20885435.7994   20885436.7064
       284.0104                         52.0004         48.0004
 -16508111.74348 -12806098.09647  21696886.7144   21696886.2984   21696888.7804
      1920.0494                         50.0004         45.0004
 -21764207.50248 -16917551.53148  20837844.3114   20837844.1804   20837845.7534
      1590.8304                         53.0004         48.0004
  -2796767.49446  -2116246.35545  24838598.3494   24838598.3654   24838602.9414
     -3541.3664                         39.0004         35.0004
  -1919046.02046  -1444521.53945  24657776.9254   24657774.4084   24657779.6584
      2788.2954                         40.0004         35.0004
  -8844888.84547  -6838895.51146  23113244.1664   23113244.1224   23113246.0844
      2933.9904                         45.0004         39.0004
  -9969030.12247  -7715942.30147  23116784.2694   23116784.1634   23116786.2464
     -2705.3914                         47.0004         42.0004
 08  5 27  0 15  0.0000000  0  9G31G24G21G 6G16G30G18G 3G29
 -14335980.89048 -11101143.79647  22389673.8354   22389673.6424   22389675.3944
     -2906.1904                         49.0004         44.0004
 -13534601.68748 -10497231.52947  22506942.7044   22506942.7614   22506944.3634
     -2604.6184                         49.0004         43.0004
 -21641564.72348 -16807282.01648  20883863.1664   20883862.4904   20883863.9784
       267.0784                         53.0004         48.0004
 -16565599.25148 -12850893.53847  21685947.0434   21685947.1604   21685948.1214
      1912.3724                         50.0004         45.0004
 -21811769.91448 -16954613.14348  20828793.5354   20828793.3444   20828794.8334
      1579.7214                         53.0004         48.0004
  -2690488.89846  -2033431.98045  24858823.8054   24858825.0354   24858826.9944
     -3544.1494                         40.0004         35.0004
  -2002654.11546  -1509670.67545  24641867.2084   24641864.5054   24641871.1964
      2785.6104                         40.0004         35.0004
  -8932837.59247  -6907426.97546  23096507.6754   23096508.3994   23096509.7284
      2928.8944                         45.0004         39.0004
  -9887822.51547  -7652663.66847  23132237.9764   23132237.8344   23132240.3274
     -2708.5664                         46.0004         42.0004
 08  5 27  0 15 30.0000000  0  9G31G24G21G 6G16G30G18G 3G29
 -14248639.78148 -11033085.79847  22406294.2184   22406294.4334   22406296.3134
     -2916.5784                         49.0004         44.0004
 -13456281.71448 -10436202.98347  22521846.3774   22521845.9704   22521850.3424
     -2616.6704                         49.0004         43.0004
 -21649320.77148 -16813325.68348  20882387.1534   20882386.8194   20882387.6664
       250.2094                         52.0004         48.0004
 -16622857.11548 -12895510.04647  21675051.0814   21675051.3064   21675052.9134
      1904.8514                         50.0004         45.0004
 -21858996.94048 -16991413.41348  20819806.6104   20819806.2554   20819807.6394
      1568.7664                         53.0004         48.0004
  -2584116.90046  -1950544.79346  24879064.6114   24879064.7454   24879067.3774
     -3547.2194                         41.0004         36.0004
  -2086186.52246  -1574760.89345  24625972.7074   24625972.0274   24625970.8694
      2783.3544                         41.0004         35.0004
  -9020627.96547  -6975835.02846  23079801.9574   23079801.8824   23079804.7484
      2923.7414                         45.0004         39.0004
  -9806529.41147  -7589318.41447  23147706.6064   23147708.3744   23147710.0784
     -2711.0584                         47.0004         42.0004
 08  5 27  0 16  0.0000000  0  9G31G24G21G 6G16G30G18G 3G29
 -14160984.92548 -10964783.31147  22422974.1944   22422974.6004   22422975.3454
     -2927.3904                         49.0004         44.0004
 -13377600.05648 -10374892.58947  22536819.3284   22536818.3884   22536823.0144
     -2628.7634                         49.0004         43.0004
 -21656569.01248 -16818973.65148  20881007.9854   20881007.3574   20881008.3324
       233.0734                         53.0004         48.0004
 -16679888.10048 -12939949.75247  21664198.5784   21664198.1984   21664201.0164
      1897.1784                         50.0004         45.0004
 -21905889.81648 -17027953.30848  20810883.2014   20810883.0474   20810884.1474
      1557.4284                         53.0004         48.0004
  -2477655.98946  -1867588.18345  24899325.0104   24899324.8624   24899328.0014
     -3550.1604                         39.0004         34.0004
  -2169643.31746  -1639792.13146  24610091.0284   24610090.5024   24610091.1834
      2780.5844                         40.0004         36.0004
  -9108262.32047  -7044121.51546  23063125.4524   23063125.1724   23063127.3494
      2918.3254                         44.0004         39.0004
  -9725154.64647  -7525909.52747  23163192.5614   23163192.7394   23163194.0914
     -2714.0884                         46.0004         42.0004
 08  5 27  0 16 30.0000000  0  9G31G24G21G 6G16G30G18G 3G29
 -14073017.32548 -10896237.13247  22439714.3444   22439715.8484   22439716.1094
     -2937.7574                         49.0004         44.0004
 -13298557.33348 -10313300.84647  22551860.8454   22551860.4204   22551862.0714
     -2641.1154                         49.0004         43.0004
 -21663307.94548 -16824224.75648  20879725.7004   20879725.1304   20879726.1804
       215.7754                         53.0004         48.0004
 -16736690.19448 -12984211.10947  21653389.6784   21653388.6164   21653391.2794
      1889.2584                         50.0004         45.0004
 -21952445.61248 -17064230.54648  20802023.8564   20802023.6674   20802024.8474
      1545.9284                         53.0004         48.0004
  -2371105.70646  -1784562.00745  24919600.1854   24919601.1284   24919602.8934
     -3553.1714                         41.0004         34.0004
  -2253020.10746  -1704760.99945  24594224.1324   24594223.2194   24594225.7454
      2777.4094                         40.0004         35.0004
  -9195738.32947  -7112284.61146  23046479.5694   23046478.0574   23046480.5534
      2912.9724                         45.0004         39.0004
  -9643697.33447  -7462436.29847  23178693.4344   23178693.9874   23178694.6904
     -2716.7824                         47.0004         42.0004
 08  5 27  0 17  0.0000000  0  9G31G24G21G 6G16G30G18G 3G29
 -13984740.40148 -10827449.91847  22456512.9514   22456513.5334   22456514.1244
     -2947.6274                         49.0004         44.0004
 -13219156.34448 -10251429.94247  22566969.8404   22566968.5474   22566972.1134
     -2652.5634                         48.0004         42.0004
 -21669538.33148 -16829079.59348  20878539.9174   20878539.8424   20878540.4904
       199.4514                         53.0004         48.0004
 -16793263.71248 -13028294.35247  21642624.0934   21642624.8184   21642626.4794
      1882.2514                         50.0004         45.0004
 -21998662.91548 -17100244.02348  20793228.7894   20793229.1124   20793229.7824
      1535.0374                         53.0004         48.0004
  -2264467.85147  -1701467.70746  24939893.3584   24939892.5894   24939897.3404
     -3555.8664                         42.0004         36.0004
  -2336314.62347  -1769665.83945  24578373.8274   24578373.0724   24578375.3974
      2775.1674                         42.0004         35.0004
  -9283055.27647  -7180323.75846  23029863.5514   23029862.9464   23029863.9014
      2908.0564                         45.0004         39.0004
  -9562158.61147  -7398899.63646  23194208.8294   23194209.4744   23194211.2734
     -2719.3424                         46.0004         41.0004
 08  5 27  0 17 30.0000000  0  9G31G24G21G 6G16G30G18G 3G29
 -13896157.97148 -10758424.65947  22473369.3774   22473369.9144   22473370.8674
     -2958.0864                         49.0004         44.0004
 -13139401.31148 -10189283.16947  22582146.8274   22582146.8384   22582149.8124
     -2664.7104                         48.0004         42.0004
 -21675261.91848 -16833539.51848  20877450.7234   20877450.4904   20877451.3344
       182.1084                         53.0004         48.0004
 -16849609.58148 -13072200.20547  21631901.7594   21631901.8034   21631904.1714
      1874.0844                         50.0004         45.0004
 -22044541.34048 -17135993.44048  20784498.6244   20784498.4314   20784499.5954
      1523.2964                         53.0004         48.0004
  -2157744.64146  -1618306.85745  24960200.6734   24960202.4944   24960202.8314
     -3559.3274                         38.0004         34.0004
  -2419524.88446  -1834505.05545  24562539.3634   24562539.8334   24562540.9404
      2772.1924                         41.0004         35.0004
  -9370213.90747  -7248239.54246  23013277.6374   23013276.7474   23013279.7914
      2902.3104                         45.0004         39.0004
  -9480540.77447  -7335301.35647  23209741.1274   23209741.3434   23209743.2804
     -2722.2364                         46.0004         42.0004
 08  5 27  0 18  0.0000000  0  9G31G24G21G 6G16G30G18G 3G29
 -13807271.40848 -10689162.40947  22490284.1304   22490283.1344   22490284.7864
     -2968.1194                         49.0004         44.0004
 -13059293.11648 -10126861.19847  22597391.2144   22597391.0824   22597393.9634
     -2676.1104                         48.0004         43.0004
 -21680476.95648 -16837603.17048  20876458.2114   20876457.9014   20876458.9784
       165.2734                         53.0004         48.0004
 -16905726.34348 -13115927.53747  21621222.9564   21621223.6604   21621225.1834
      1866.8004                         50.0004         45.0004
 -22090077.94048 -17171476.49648  20775833.2714   20775832.9494   20775834.4764
      1512.0494                         53.0004         48.0004
  -2050935.98846  -1535079.41945  24980526.9234   24980529.8064   24980527.6044
     -3562.2284                         41.0004         33.0004
  -2502647.05046  -1899275.58445  24546721.3434   24546722.0244   24546724.3064
      2769.3914                         39.0004         35.0004
  -9457212.20647  -7316030.38946  22996721.9834   22996722.5774   22996725.0534
      2897.0474                         45.0004         39.0004
  -9398843.27747  -7271640.98547  23225288.3374   23225288.5464   23225289.7234
     -2724.6234                         47.0004         42.0004
 08  5 27  0 18 30.0000000  0  9G31G24G21G 6G16G30G18G 3G29
 -13718082.50748 -10619664.57147  22507255.9624   22507256.3194   22507257.5184
     -2977.9934                         49.0004         43.0004
 -12978833.16448 -10064165.11947  22612701.8724   22612701.2624   22612704.3854
     -2688.1184                         48.0004         42.0004
 -21685182.52448 -16841269.83848  20875562.9044   20875562.4674   20875563.3764
       148.1734                         53.0004         48.0004
 -16961612.65348 -13159475.29947  21610588.0204   21610588.0044   21610590.6714
      1858.7814                         51.0004         45.0004
 -22135269.83848 -17206690.95848  20767233.4654   20767233.3084   20767234.6774
      1500.5554                         53.0004         48.0004
  -1944042.38746  -1451785.70046  25000867.4314   25000867.3194   25000870.7714
     -3564.4174                         40.0004         36.0004
  -2585676.89746  -1963974.18045  24530920.9724   24530922.8544   24530921.8014
      2765.8444                         41.0004         35.0004
  -9544048.83747  -7383695.25946  22980197.4944   22980198.1504   22980199.9264
      2891.5614                         45.0004         39.0004
  -9317065.87347  -7207918.34846  23240849.3754   23240849.3574   23240851.6574
     -2727.4884                         47.0004         41.0004
 08  5 27  0 19  0.0000000  0  9G31G24G21G 6G16G30G18G 3G29
 -13628595.61148 -10549934.53747  22524284.8584   22524285.3664   22524285.8694
     -2987.9244                         49.0004         44.0004
 -12898025.68448 -10001198.24747  22628078.6314   22628079.7304   22628082.9484
     -2699.3174                         48.0004         42.0004
 -21689380.84548 -16844541.24548  20874764.0104   20874763.7064   20874764.7694
       131.3064                         53.0004         48.0004
 -17017269.82948 -13202844.51847  21599996.9404   21599996.4234   21599999.1944
      1851.3554                         51.0004         45.0004
 -22180116.96148 -17241636.76048  20758699.3924   20758698.9744   20758700.5534
      1489.0434                         53.0004         48.0004
  -1837066.12746  -1368427.68245  25021224.3284   25021221.2614   25021231.8034
     -3567.7354                         39.0004         34.0004
  -2668613.31046  -2028600.02245  24515139.0864   24515137.8864   24515139.6404
      2763.0984                         41.0004         35.0004
  -9630724.50647  -7451234.70946  22963703.5254   22963703.3574   22963706.5754
      2886.4324                         45.0004         39.0004
  -9235210.92647  -7144135.29246  23256424.8914   23256425.5274   23256427.8364
     -2729.7344                         45.0004         41.0004
 08  5 27  0 19 30.0000000  0  9G31G24G21G 6G16G30G18G 3G29
 -13538813.79348 -10479974.68047  22541370.0134   22541370.5054   22541370.3084
     -2997.7984                         48.0004         43.0004
 -12816873.85348  -9937963.05647  22643522.0604   22643521.6654   22643524.1214
     -2711.0204                         48.0004         42.0004
 -21693072.37548 -16847417.74948  20874061.6194   20874061.1724   20874062.0794
       114.3984                         53.0004         48.0004
 -17072698.19948 -13246035.43847  21589449.3944   21589448.7214   21589450.6974
      1843.5504                         51.0004         45.0004
 -22224618.33448 -17276313.14748  20750230.9874   20750230.8634   20750231.8244
      1477.4954                         53.0004         48.0004
  -1730009.71246  -1285007.22345  25041596.3624   25041599.4834   25041597.2144
     -3570.3284                         40.0004         34.0004
  -2751453.93846  -2093151.11345  24499374.3314   24499372.9434   24499376.1294
      2759.4314                         40.0004         35.0004
  -9717238.67147  -7518648.31046  22947240.7574   22947240.4854   22947242.9734
      2881.0934                         45.0004         39.0004
  -9153279.99747  -7080293.02747  23272017.1514   23272017.8924   23272019.0554
     -2732.2944                         46.0004         42.0004
 08  5 27  0 20  0.0000000  0  9G31G24G21G 6G16G30G18G 3G29
 -13448739.64948 -10409787.04447  22558510.1684   22558509.3614   22558510.7564
     -3007.6954                         48.0004         43.0004
 -12735379.61348  -9874461.05047  22659029.9894   22659030.0294   22659032.3634
     -2722.2194                         48.0004         42.0004
 -21696257.14148 -16849899.37248  20873455.4474   20873455.1054   20873455.5414
        97.6824                         53.0004         48.0004
 -17127897.15748 -13289047.60147  21578945.5404   21578945.6284   21578947.8164
      1836.1014                         51.0004         45.0004
 -22268771.66848 -17310718.33848  20741829.1174   20741828.8404   20741829.8304
      1465.9854                         53.0004         48.0004
  -1622873.66446  -1201524.53645  25061984.1104   25061982.1274   25061987.0984
     -3572.7214                         39.0004         34.0004
  -2834195.60946  -2157625.11646  24483630.1634   24483629.9634   24483630.4514
      2756.1664                         41.0004         36.0004
  -9803590.85747  -7585935.70046  22930808.8554   22930808.6054   22930811.0284
      2875.5904                         45.0004         39.0004
  -9071273.13847  -7016391.60546  23287622.2634   23287621.9954   23287624.3294
     -2734.8764                         46.0004         41.0004
 08  5 27  0 20 30.0000000  0  9G31G24G21G 6G16G30G18G 3G29
 -13358373.61748 -10339371.96147  22575705.9554   22575707.0744   22575708.1734
     -3016.8114                         48.0004         43.0004
 -12653543.69748  -9810692.80347  22674602.1514   22674602.6404   22674604.0674
     -2733.4274                         48.0004         42.0004
 -21698933.86848 -16851985.12448  20872946.0724   20872945.8584   20872946.6954
        80.8324                         53.0004         48.0004
 -17182864.31948 -13331879.14147  21568485.2264   21568485.5404   21568487.6824
      1828.3614                         50.0004         45.0004
 -22312573.50048 -17344849.62748  20733493.8444   20733493.3614   20733494.5324
      1454.1734                         53.0004         48.0004
  -1515656.85246  -1117979.08045  25082387.6404   25082386.8904   25082392.5244
     -3575.9514                         38.0004         35.0004
  -2916833.85446  -2222018.58445  24467904.0834   24467903.5384   24467904.8844
      2752.7224                         41.0004         35.0004
  -9889777.97347  -7653094.45646  22914407.0184   22914406.8144   22914410.7234
      2870.1284                         44.0004         40.0004
  -8989189.11247  -6952430.06146  23303241.3554   23303242.3324   23303244.7014
     -2737.2574                         46.0004         41.0004
 08  5 27  0 21  0.0000000  0  9G31G24G21G 6G16G30G18G 3G29
 -13267720.71748 -10268733.35047  22592957.0874   22592958.2234   22592958.1794
     -3026.4244                         49.0004         43.0004
 -12571370.47948  -9746661.71847  22690239.7744   22690239.5694   22690242.1044
     -2744.7184                         48.0004         42.0004
 -21701103.80948 -16853675.98148  20872533.1244   20872532.5854   20872533.7684
        63.9524                         52.0004         48.0004
 -17237601.40248 -13374531.39547  21558069.1714   21558069.2714   21558071.4634
      1820.8214                         51.0004         45.0004
 -22356023.88648 -17378707.06748  20725225.4684   20725225.0184   20725226.5574
      1442.5494                         53.0004         48.0004
  -1408362.82546  -1034373.48845  25102804.2634   25102805.1514   25102805.6204
     -3577.4704                         40.0004         35.0004
