     2.10           OBSERVATION DATA    G (GPS)             RINEX VERSION / TYPE
teqc  2006Jul20     administrateur ccgps20080528 00:03:14UTCPGM / RUN BY / DATE
Solaris 5.9|UltraSparc IIi|cc -xarch=v9 SC5.5|=+-|*Sparc    COMMENT
teqc  2006Jul20     administrateur ccgps20080528 00:03:13UTCCOMMENT
teqc  2006Jul20     administrateur ccgps20080528 00:03:12UTCCOMMENT
teqc  2006Jul20     administrateur ccgps20080528 00:03:11UTCCOMMENT
teqc  2006Jul20     administrateur ccgps20080528 00:03:11UTCCOMMENT
teqc  2006Jul20     administrateur ccgps20080528 00:03:10UTCCOMMENT
teqc  2006Jul20     administrateur ccgps20080528 00:03:09UTCCOMMENT
teqc  2006Jul20     administrateur ccgps20080528 00:03:08UTCCOMMENT
teqc  2006Jul20     administrateur ccgps20080528 00:03:08UTCCOMMENT
teqc  2006Jul20     administrateur ccgps20080528 00:03:07UTCCOMMENT
teqc  2006Jul20     administrateur ccgps20080528 00:03:07UTCCOMMENT
teqc  2006Jul20     administrateur ccgps20080528 00:03:06UTCCOMMENT
teqc  2006Jul20     administrateur ccgps20080528 00:03:06UTCCOMMENT
teqc  2006Jul20     administrateur ccgps20080528 00:03:05UTCCOMMENT
teqc  2006Jul20     administrateur ccgps20080528 00:03:05UTCCOMMENT
teqc  2006Jul20     administrateur ccgps20080528 00:03:04UTCCOMMENT
teqc  2006Jul20     administrateur ccgps20080528 00:03:04UTCCOMMENT
teqc  2006Jul20     administrateur ccgps20080528 00:03:04UTCCOMMENT
teqc  2006Jul20     administrateur ccgps20080528 00:03:03UTCCOMMENT
teqc  2006Jul20     administrateur ccgps20080528 00:03:03UTCCOMMENT
teqc  2006Jul20     administrateur ccgps20080528 00:03:03UTCCOMMENT
teqc  2006Jul20     administrateur ccgps20080528 00:03:03UTCCOMMENT
teqc  2006Jul20     administrateur ccgps20080528 00:03:03UTCCOMMENT
teqc  2006Jul20     administrateur ccgps20080528 00:03:03UTCCOMMENT
teqc  2002Mar14     CNES                20080527 00:01:00UTCCOMMENT
MSWin2000|IAx86-PII|bcc32 5.0|MSWin95/98/NT/2000|486/DX+    COMMENT
teqc  2002Mar14                         20080527 00:01:00UTCCOMMENT
BIT 2 OF LLI FLAGS DATA COLLECTED UNDER A/S CONDITION       COMMENT
TLSE                                                        MARKER NAME
10003M009                                                   MARKER NUMBER
CARDALIAGUET        CNES                                    OBSERVER / AGENCY
30708               TRIMBLE 4000SSI     7.32                REC # / TYPE / VERS
227554              TRM29659.00     NONE                    ANT # / TYPE
  4627854.3231   119667.7959  4372995.7087                  APPROX POSITION XYZ
        1.0530        0.0000        0.0000                  ANTENNA: DELTA H/E/N
     1     1                                                WAVELENGTH FACT L1/2
     6    L1    L2    C1    P2    P1    D1                  # / TYPES OF OBSERV
    30.0000                                                 INTERVAL
 SNR is mapped to RINEX snr flag value [1-9]                COMMENT
  L1: 3 -> 1; 8 -> 5; 40 -> 9                               COMMENT
  L2: 1 -> 1; 5 -> 5; 60 -> 9                               COMMENT
  2008     5    27     0     0    0.0000000     GPS         TIME OF FIRST OBS
                                                            END OF HEADER
 08  5 27  0  0  0.0000000  0  9G31G18G16G 6G 3G24G30G29G21
 -15762376.18546 -12089738.67146  22297446.0364   22297445.1454
     -2539.9594
   -588517.44042   -287772.96243  25230434.8854   25230433.1154
      2885.3904
 -16574300.01646  -8652108.51046  21508890.4224   21508890.7504
      2006.0504
 -11600746.38145  -8241585.10246  22503100.8004   22503102.3594
      2227.8034
  -1701259.87542  -1053892.51544  24129473.5284   24129474.6064
      3111.1444
 -12457305.51746  -9506654.06646  22198454.3914   22198455.8914
     -2180.0004
  -4659378.73643  -1161071.77245  24336144.6864   24336146.1984
     -3459.4844
 -11283042.98645  -8563541.07546  22751848.8214   22751849.8874
     -2504.1504
 -21762195.84946 -15239860.70946  21171153.2764   21171152.8664
       823.4804
 08  5 27  0  0 30.0000000  0  9G31G18G16G 6G 3G24G30G29G21
 -15685982.65946 -12030211.24946  22311983.2734   22311982.5694
     -2552.9324
   -675076.81842                  25213963.3004
      2885.2434
 -16634338.31546  -8698891.59946  21497465.4824   21497465.3414
      1996.4904
 -11667480.49445  -8293585.68646  22490401.6804   22490402.1374
      2221.1264
  -1794536.46642  -1126575.64445  24111723.6334   24111723.5864
      3107.2964
 -12391688.15646  -9455523.65746  22210940.9174   22210942.1714
     -2194.4524
  -4555524.45643  -1080146.39845  24355906.9124   24355908.2024
     -3464.1504
 -11207856.11146  -8504953.92346  22766156.3104   22766156.8854
     -2508.3064
 -21786652.59646 -15258917.90546  21166499.3514   21166498.8824
       806.9214
 08  5 27  0  1  0.0000000  0  9G31G18G16G 6G 3G24G30G29G21
 -15609201.40846 -11970381.70446  22326594.3354   22326593.7614
     -2565.8104
   -761631.41341                  25197490.2134
      2885.0444
 -16694088.67246  -8745450.30546  21486095.2554   21486095.2434
      1986.8464
 -11734014.77745  -8345430.55746  22477740.2804   22477740.8424
      2214.4764
  -1887696.86341  -1199167.97845  24093996.7594   24093996.7944
      3103.4004
 -12325638.24546  -9404056.20346  22223510.1774   22223511.5494
     -2208.8584
  -4451530.83143   -999112.37845  24375696.6544   24375697.1824
     -3468.7684
 -11132544.68445  -8446269.69446  22780487.4374   22780487.9654
     -2512.4464
 -21810611.75946 -15277587.37546  21161940.1974   21161939.7404
       790.3374
 08  5 27  0  1 30.0000000  0  9G31G18G16G 6G 3G24G30G29G21
 -15532035.20646 -11910252.19246  22341278.2344   22341277.5194
     -2578.6004
   -848178.44542                  25181022.4794
      2884.7384
 -16753549.55646  -8791783.44146  21474780.2124   21474779.7794
      1977.1824
 -11800348.91545  -8397119.45946  22465117.8464   22465118.5024
      2207.8134
  -1980740.65341  -1271669.61744  24076290.4494   24076293.8844
      3099.4674
 -12259157.98046  -9352253.40246  22236161.0894   22236162.1804
     -2223.1824
  -4347399.29543   -917970.98245  24395512.1424   24395514.1934
     -3473.3484
 -11057109.98445  -8387489.42846  22794842.1784   22794842.5414
     -2516.5394
 -21834073.03446 -15295868.87946  21157475.5584   21157474.9374
       773.7524
 08  5 27  0  2  0.0000000  0  9G31G18G16G 6G 3G24G30G29G21
 -15454486.36446 -11849824.53146  22356035.5114   22356035.3824
     -2591.3234
   -934715.20542                  25164554.9574
      2884.3304
 -16812719.02646  -8837889.52246  21463520.5694   21463519.7494
      1967.4404
 -11866482.60345  -8448652.18346  22452532.6424   22452533.7204
      2201.1124
  -2073666.81741  -1344079.53745  24058607.3244   24058615.0374
      3095.5534
 -12192249.73246  -9300117.10146  22248892.7304   22248894.0314
     -2237.3944
  -4243130.80343   -836722.84045  24415353.1604   24415354.0394
     -3477.8794
 -10981553.36645  -8328614.14346  22809219.8744   22809220.6484
     -2520.5944
 -21857036.40446 -15313762.40846  21153105.5964   21153105.0924
       757.1524
 08  5 27  0  2 30.0000000  0  9G31G18G16G 6G 3G24G30G29G21
 -15376557.55146 -11789100.79046  22370864.7624   22370864.3874
     -2603.9414
  -1021239.12642                  25148088.7064
      2883.8734
 -16871595.37346  -8883767.18446  21452316.6004   21452316.1084
      1957.6294
 -11932415.41045  -8500028.35846  22439986.0554   22439987.7084
      2194.4094
  -2166474.83242                  24040948.0694
      3091.6394
 -12124916.20346  -9247649.40346  22261706.4104   22261708.0394
     -2251.5244
  -4138726.72243   -755369.03045  24435220.9224   24435223.4074
     -3482.3694
 -10905874.85145  -8269643.88446  22823620.9994   22823621.0584
     -2524.6394
 -21879501.56546 -15331267.71446  21148830.5294   21148830.0834
       740.5404
 08  5 27  0  3  0.0000000  0  9G31G18G16G 6G 3G24G30G29G21
 -15298251.31246 -11728082.94746  22385765.8914   22385765.1054
     -2616.4684
  -1107747.23142                  25131628.8664
      2883.3334
 -16930176.94746  -8929415.14746  21441168.9654   21441168.9764
      1947.7934
 -11998147.15745  -8551247.88846  22427477.7644   22427479.0424
      2187.7014
  -2259163.97542                  24023307.9184
      3087.6604
 -12057159.55546  -9194852.02746  22274599.8814   22274601.7334
     -2265.5694
  -4034188.54443   -673910.62645  24455114.2064   24455114.1714
     -3486.8464
 -10830075.80345  -8210579.71646  22838045.5424   22838045.6944
     -2528.6144
 -21901468.29946 -15348384.64146  21144650.4984   21144650.0644
       723.8914
 08  5 27  0  3 30.0000000  0  9G31G18G16G 6G 3G24G30G29G21
 -15219570.03346 -11666772.86446  22400738.4404   22400737.7954
     -2628.9354
  -1194236.70742                  25115168.6894
      2882.6384
 -16988461.99746  -8974832.06346  21430077.7164   21430077.5874
      1937.8684
 -12063677.62745  -8602310.56346  22415007.7254   22415008.8864
      2180.9804
  -2351733.43042                  24005692.7564
      3083.6224
 -11988982.29046  -9141726.87946  22287573.6274   22287574.9984
     -2279.5594
  -3929517.30043   -592348.67645  24475032.0554   24475034.2594
     -3491.2624
 -10754157.20345  -8151422.36046  22852492.1884   22852492.6454
     -2532.5924
 -21922935.48346 -15365112.30946  21140565.3494   21140564.9274
       707.2454
 08  5 27  0  4  0.0000000  0  9G31G18G16G 6G 3G24G30G29G21
 -15140516.12346 -11605172.41646  22415782.3254   22415782.1024
     -2641.3164
  -1280705.04042                  25098714.5564
      2881.9084
 -17046448.35946  -9020016.23246  21419043.1284   21419042.7064
      1927.8764
 -12129006.34745  -8653216.04146  22402575.7464   22402576.7894
      2174.2474
  -2444182.40842                  23988099.9354
      3079.5794
 -11920386.65546  -9088275.71846  22300627.0474   22300628.6064
     -2293.4834
  -3824714.27043   -510683.91745  24494974.4314   24494973.9164
     -3495.6254
 -10678119.90345  -8092172.53046  22866961.5904   22866961.6954
     -2536.5464
 -21943903.19546 -15381450.77546  21136575.4184   21136575.0664
       690.5894
 08  5 27  0  4 30.0000000  0  9G31G18G16G 6G 3G24G30G29G21
 -15061092.52646 -11543283.89746  22430895.9664   22430895.0754
     -2653.5774
  -1367149.74742                  25082263.7904
      2881.0434
 -17104134.65746  -9064966.57846  21408065.7424   21408066.2934
      1917.8524
 -12194132.85945  -8703963.96246  22390182.4784   22390182.9824
      2167.5294
  -2536510.61643    -52747.85045  23970532.1914   23970533.4454
      3075.5804
 -11851374.92946  -9034500.35046  22313759.2774   22313760.9184
     -2307.3014
  -3719780.78443   -428917.53445  24514943.7364   24514944.4404
     -3499.9274
 -10601964.76045  -8032830.86146  22881453.4644   22881453.9914
     -2540.4564
 -21964371.12146 -15397399.80546  21132680.9324   21132680.3934
       673.9394
 08  5 27  0  5  0.0000000  0  9G31G18G16G 6G 3G24G30G29G21
 -14981301.90946 -11481109.41046  22446079.6154   22446079.4864
     -2665.7784
  -1453567.44542    -65091.99345  25065821.0214   25065820.0954
      2880.0934
 -17161519.11146  -9109681.72346  21397146.0534   21397145.9474
      1907.7674
 -12259057.00545  -8754554.18846  22377827.6834   22377827.8004
      2160.7624
  -2628716.83242   -124596.79645  23952984.1954   23952982.1794
      3071.4984
 -11781949.73246  -8980402.81746  22326970.5304   22326971.4564
     -2321.0334
  -3614718.30843   -347050.68245  24534936.1994   24534934.4884
     -3504.2134
 -10525692.81345  -7973398.20646  22895968.0544   22895968.6874
     -2544.3324
 -21984339.32146 -15412959.43246  21128880.9864   21128880.6224
       657.2894
 08  5 27  0  5 30.0000000  0  9G31G18G16G 6G 3G24G30G29G21
 -14901146.47946 -11418650.63446  22461332.3254   22461331.8914
     -2677.8944
  -1539955.26942   -132407.09944  25049380.7134   25049374.2074
      2879.0374
 -17218600.02246  -9154160.34146  21386283.7694   21386283.0664
      1897.6194
 -12323778.39545  -8804986.43046  22365511.6664   22365512.2524
      2153.9944
  -2720800.90343   -196350.56645  23935462.8544   23935464.6134
      3067.4264
 -11712113.41846  -8925984.88646  22340260.0334   22340261.8384
     -2334.7024
  -3509527.98643   -265084.13345  24554953.7694   24554954.4614
     -3508.4834
 -10449304.86045  -7913875.13746  22910503.5614   22910503.9244
     -2548.1714
 -22003807.88946 -15428129.73946  21125175.9804   21125175.4294
       640.6004
 08  5 27  0  6  0.0000000  0  9G31G18G16G 6G 3G24G30G29G21
 -14820629.28846 -11355909.96646  22476654.3554   22476653.7924
     -2689.9064
  -1626310.91242                  25032948.8554
      2877.9584
 -17275375.51746  -9198400.98646  21375479.6644   21375479.4884
      1887.3914
 -12388296.87445  -8855260.54146  22353234.6524   22353235.4494
      2147.2094
  -2812762.30843   -268008.76045  23917963.0894   23917966.7704
      3063.3244
 -11641868.27346  -8871248.41646  22353627.0764   22353628.1084
     -2348.2974
  -3404210.74643   -183018.75845  24574994.9924   24574996.9384
     -3512.6744
 -10372801.80645  -7854262.40346  22925062.1414   22925062.9384
     -2552.0204
 -22022775.34646 -15442909.56746  21121566.5964   21121566.2094
       623.8944
 08  5 27  0  6 30.0000000  0  9G31G18G16G 6G 3G24G30G29G21
 -14739752.61546 -11292889.18146  22492044.3194   22492043.8384
     -2701.8284
  -1712631.34842                  25016521.7104
      2876.7074
 -17331843.43546  -9242401.95446  21364734.5284   21364734.3054
      1877.1394
 -12452612.12745  -8905376.32146  22340995.4714   22340996.4324
      2140.4624
  -2904600.17143   -339570.68445  23900485.9384   23900485.5514
      3059.1854
 -11571216.91846  -8816195.41546  22367071.6314   22367072.8274
     -2361.7794
  -3298768.27942   -100855.77745  24595059.6244   24595059.3314
     -3516.7954
 -10296184.64345  -7794560.71146  22939641.6604   22939641.7424
     -2555.7964
 -22041241.88546 -15457299.07246  21118052.5494   21118052.1154
       607.2204
 08  5 27  0  7  0.0000000  0  9G31G18G16G 6G 3G24G30G29G21
 -14658519.22446 -11229590.44346  22507502.7824   22507502.0904
     -2713.7164
  -1798913.95542                  25000102.1874
      2875.4214
 -17388002.30446  -9286162.10246  21354047.5524   21354047.3294
      1866.7724
 -12516723.73345  -8955333.39046  22328795.7334   22328796.4604
      2133.6304
  -2996313.61743   -411035.67645  23883034.4264   23883035.0594
      3055.0144
 -11500161.57946  -8760827.62946  22380592.8584   22380594.0664
     -2375.2194
  -3193202.04443    -18596.34945  24615149.2844   24615147.9364
     -3520.9534
 -10219454.11345  -7734770.71146  22954242.8564   22954243.4774
     -2559.5774
 -22059207.81846 -15471298.48646  21114633.4274   21114633.1574
       590.5064
 08  5 27  0  7 30.0000000  0  9G31G18G16G 6G 3G24G30G29G21
 -14576931.72346 -11166015.76746  22523028.0864   22523027.5824
     -2725.4564
  -1885155.63642                  24983691.7174
      2874.0254
 -17443850.23746  -9329679.96546  21343420.0994   21343419.6304
      1856.3954
 -12580631.30045  -9005131.46146  22316634.5084   22316635.5984
      2126.8644
  -3087901.43444   -482402.75445  23865604.6324   23865606.7544
      3050.8084
 -11428704.49846  -8705146.78146  22394190.9974   22394192.8374
     -2388.5884
  -3087512.88742     63758.84745  24635260.6034   24635264.7414
     -3524.9954
 -10142611.19445  -7674893.13046  22968865.6544   22968865.3034
     -2563.3104
 -22076672.53946 -15484907.35546  21111310.2054   21111310.0174
       573.7994
 08  5 27  0  8  0.0000000  0  9G31G18G16G 6G 3G24G30G29G21
 -14494992.83346 -11102167.29246  22538620.6694   22538620.3874
     -2737.1344
  -1971353.93342    -31338.61445  24967286.8924   24967287.4784
      2872.5194
 -17499385.74946  -9372954.38246  21332852.3384   21332852.3854
      1845.9634
 -12644334.72245  -9054770.47146  22304512.3514   22304512.6444
      2120.0284
  -3179363.65343   -553671.98945  23848200.1074   23848203.6824
      3046.6474
 -11356848.37346  -8649154.99846  22407864.8374   22407866.4674
     -2401.8264
  -2981702.76543    146208.32645  24655395.0424   24655398.9574
     -3529.0144
 -10065656.75445  -7614928.64946  22983509.3164   22983509.8084
     -2566.9944
 -22093636.29146 -15498125.85346  21108081.8684   21108081.5404
       557.1124
 08  5 27  0  8 30.0000000  0  9G31G18G16G 6G 3G24G30G29G21
 -14412705.03945 -11038046.93246  22554279.4284   22554278.7134
     -2748.7064
  -2057506.27542    -98470.26445  24950893.2494   24950891.3624
      2870.9314
 -17554606.90646  -9415983.85646  21322343.7444   21322343.5334
      1835.4564
 -12707833.79545  -9104250.24846  22292428.6344   22292429.2324
      2113.2204
  -3270699.85743   -624843.01845  23830820.2274   23830821.4004
      3042.4234
 -11284595.84546  -8592854.31746  22421613.6374   22421615.7354
     -2415.0044
  -2875772.85943    228751.14145  24675553.1034   24675555.3074
     -3532.9494
  -9988591.54145  -7554877.86246  22998175.1854   22998175.1854
     -2570.6644
 -22110098.89046 -15510953.83946  21104949.5804   21104949.0764
       540.3904
 08  5 27  0  9  0.0000000  0  9G31G18G16G 6G 3G24G30G29G21
 -14330071.19945 -10973656.92546  22570004.3724   22570003.9734
     -2760.2024
  -2143609.29242   -165563.52245  24934509.4214   24934512.5634
      2869.2694
 -17609511.65946  -9458766.77846  21311895.7684   21311895.8034
      1824.8704
 -12771128.00245  -9153570.40046  22280383.8954   22280385.0324
      2106.3974
  -3361908.85243   -695914.93645  23813462.8794   23813464.8364
      3038.1444
 -11211949.05946  -8536246.43546  22435437.9794   22435440.2304
     -2428.1014
  -2769724.45743    311386.19645  24695733.0244   24695735.1694
     -3536.9194
  -9911416.48945  -7494741.47446  23012860.8484   23012861.2474
     -2574.3194
 -22126059.65746 -15523390.79646  21101912.1324   21101911.6984
       523.6714
 08  5 27  0  9 30.0000000  0  9G31G18G16G 6G 3G24G30G29G21
 -14247093.87346 -10908999.29446  22585794.9664   22585794.5324
     -2771.6084
  -2229660.54843   -232616.33845  24918134.3804   24918132.0244
      2867.4774
 -17664098.68546  -9501302.12646  21301508.2184   21301508.0534
      1814.2584
 -12834217.20645  -9202730.78546  22268379.1224   22268379.7904
      2099.5364
  -3452990.02443   -766887.20845  23796130.4214   23796136.1534
      3033.9104
 -11138910.67646  -8479333.41846  22449336.5554   22449338.4314
     -2441.1044
  -2663558.83442    394112.60445  24715936.3304   24715936.7054
     -3540.7684
  -9834132.67445  -7434520.34146  23027567.5884   23027567.5994
     -2577.9364
 -22141518.94346 -15535436.98846  21098970.2294   21098969.7364
       506.9444
 08  5 27  0 10  0.0000000  0  9G31G18G16G 6G 3G24G30G29G21
 -14163776.00546 -10844076.27246  22601649.6814   22601649.5284
     -2782.9084
  -2315657.29042   -299626.85645  24901769.1264   24901765.6214
      2865.6134
 -17718366.09846  -9543588.41846  21291181.6104   21291181.2944
      1803.5754
 -12897101.06845  -9251731.18846  22256411.7694   22256412.4254
      2092.7114
  -3543943.14143   -837759.80845  23778822.8314   23778825.7384
      3029.6634
 -11065483.12046  -8422117.13546  22463309.6384   22463310.6814
     -2454.0354
  -2557277.25043    476929.44945  24736161.5194   24736157.1004
     -3544.6194
  -9756740.63245  -7374214.87646  23042295.3424   23042294.4044
     -2581.5154
 -22156476.63546 -15547092.32246  21096124.0424   21096123.5384
       490.2384
 08  5 27  0 10 30.0000000  0  9G31G18G16G 6G 3G24G30G29G21
 -14080119.62445 -10778889.49346  22617568.3124   22617567.7264
     -2794.1594
  -2401596.29343   -366592.39645  24885415.4374   24885413.5734
      2863.6164
 -17772311.99846  -9585624.17746  21280916.0324   21280915.6104
      1792.8144
 -12959779.16745  -9300571.25146  22244484.5334   22244485.3424
      2085.8344
  -3634767.23743   -908531.73745  23761539.8824   23761541.7344
      3025.2924
 -10991668.64246  -8364599.35746  22477355.4364   22477357.1944
     -2466.8984
  -2450881.05443    559835.58845  24756407.8234   24756406.5104
     -3548.4474
  -9679241.18245  -7313825.71246  23057042.1314   23057042.8934
     -2585.0964
 -22170932.15346 -15558356.35646  21093373.2774   21093372.7854
       473.4914
 08  5 27  0 11  0.0000000  0  9G31G18G16G 6G 3G24G30G29G21
 -13996128.18345 -10713441.61446  22633551.8374   22633550.8874
     -2805.2894
  -2487475.07443   -433510.85145  24869074.0084   24869070.7384
      2861.5694
 -17825934.70046  -9627408.09846  21270712.0164   21270711.6054
      1782.0064
 -13022251.31845  -9349250.82646  22232596.7564   22232598.0924
      2078.9734
  -3725461.60043   -979202.62845  23744280.5444   23744286.4524
      3020.9574
 -10917470.07046  -8306782.28446  22491475.5804   22491477.1044
     -2479.6664
  -2344371.09943    642830.33145  24776674.6244   24776682.8884
     -3552.2134
  -9601635.46945  -7253353.73246  23071810.7324   23071810.6264
     -2588.6304
 -22184886.63346 -15569229.97646  21090717.5554   21090717.2384
       456.7524
 08  5 27  0 11 30.0000000  0  9G31G18G16G 6G 3G24G30G29G21
 -13911803.89546 -10647734.37046  22649598.3144   22649597.5644
     -2816.3254
  -2573290.67342   -500380.16045  24852743.2534   24852745.6104
      2859.4364
 -17879232.04346  -9668938.50246  21260570.0644   21260569.6544
      1771.1344
 -13084516.96945  -9397769.49946  22220748.0474   22220748.7624
      2072.0944
  -3816025.41743  -1049771.82445  23727047.1304   23727045.9584
      3016.6174
 -10842889.54346  -8248667.60346  22505667.7074   22505670.1224
     -2492.3704
  -2237749.29542    725912.29245  24796965.2074   24796969.8614
     -3555.9114
  -9523923.94745  -7192799.32446  23086597.6344   23086598.0804
     -2592.1274
 -22198338.73846 -15579712.12746  21088157.8794   21088157.5044
       440.0644
 08  5 27  0 12  0.0000000  0  9G31G18G16G 6G 3G24G30G29G21
 -13827149.63346 -10581770.02546  22665707.6694   22665706.8494
     -2827.2714
  -2659040.44643   -567198.08945  24836426.1994   24836426.0934
      2857.2234
 -17932202.63546  -9710214.28246  21250489.8534   21250489.7824
      1760.2194
 -13146576.04445  -9446127.20946  22208938.7154   22208939.3364
      2065.1844
  -3906457.79543  -1120238.59845  23709838.0474   23709841.3764
      3012.2164
 -10767929.47046  -8190257.16146  22519931.9404   22519934.0034
     -2504.9644
  -2131016.97743    809080.31945  24817274.4274   24817272.8564
     -3559.5664
  -9446107.56945  -7132163.20746  23101406.2104   23101406.0464
     -2595.6164
 -22211289.14046 -15589803.33846  21085693.7524   21085693.1204
       423.3034
 08  5 27  0 12 30.0000000  0  9G31G18G16G 6G 3G24G30G29G21
 -13742168.43246 -10515550.90546  22681878.6234   22681878.3894
     -2838.1314
  -2744721.50043   -633962.61845  24820121.7964   24820118.3964
      2854.8434
 -17984844.78446  -9751234.13746  21240472.3524   21240472.0124
      1749.2354
 -13208428.18745  -9494323.66646  22197168.2104   22197169.1254
      2058.2734
  -3996758.59243  -1190602.81345  23692654.8234   23692654.9524
      3007.8084
 -10692592.49146  -8131553.01246  22534268.2204   22534270.7644
     -2517.4874
  -2024175.26242    892333.52645  24837606.1704   24837608.7494
     -3563.1704
  -9368187.33245  -7071446.15546  23116234.3314   23116234.8824
     -2599.0664
 -22223737.64646 -15599503.46646  21083324.8524   21083324.0904
       406.6144
 08  5 27  0 13  0.0000000  0  9G31G18G16G 6G 3G24G30G29G21
 -13656862.58245 -10449078.82746  22698111.7654   22698111.3664
     -2848.8834
  -2830330.56142   -700670.85244  24803829.4434   24803829.0214
      2852.4294
 -18037156.68046  -9791996.64946  21230517.7174   21230517.3894
      1738.2144
 -13270073.04745  -9542358.60346  22185438.2994   22185439.4014
      2051.3644
  -4086926.90043  -1260863.78045  23675496.9994   23675501.7234
      3003.4124
 -10616880.91046  -8072556.97546  22548675.9204   22548677.6554
     -2529.9354
  -1917225.15843    975671.30945  24857959.3484   24857962.3604
     -3566.7704
  -9290164.06645  -7010648.82246  23131080.8374   23131081.2014
     -2602.4954
 -22235684.91146 -15608813.01946  21081051.3974   21081050.5764
       389.8694
 08  5 27  0 13 30.0000000  0  9G31G18G16G 6G 3G24G30G29G21
 -13571235.11745 -10382356.12946  22714406.4714   22714404.8654
     -2859.5834
  -2915865.19043   -767321.14745  24787553.3604   24787549.4804
      2849.8804
 -18089136.22746  -9832500.18946  21220626.1984   21220625.7414
      1727.1044
 -13331510.57245  -9590231.99846  22173746.7914   22173747.3774
      2044.4624
  -4176962.20343  -1331021.14745  23658364.1104   23658364.9194
      2998.9434
 -10540797.61946  -8013271.30346  22563153.8744   22563155.3634
     -2542.2824
  -1810168.83842   1059091.89945  24878331.2784   24878332.4034
     -3570.3064
  -9212038.36945  -6949771.68746  23145947.5634   23145948.1134
     -2605.8804
 -22247129.85746 -15617731.15146  21078873.6504   21078873.1584
       373.1364
 08  5 27  0 14  0.0000000  0  9G31G18G16G 6G 3G24G30G29G21
 -13485288.37946 -10315384.65046  22730761.2704   22730760.1794
     -2870.1824
  -3001322.85442   -833911.64245  24771292.7154   24771291.8004
      2847.2554
 -18140782.12146  -9872743.74546  21210798.5944   21210798.2544
      1715.9404
 -13392740.35945  -9637943.50546  22162094.7984   22162095.8294
      2037.5184
  -4266863.62443  -1401074.20645  23641255.6464   23641256.1384
      2994.4744
 -10464344.97745  -7953697.80646  22577701.9984   22577703.8044
     -2554.5564
  -1703007.08243   1142594.56445  24898723.3094   24898720.3664
     -3573.7834
  -9133811.29745  -6888815.52246  23160833.6394   23160834.3544
     -2609.2524
 -22258073.20846 -15626258.43546  21076790.7014   21076790.0684
       356.4084
 08  5 27  0 14 30.0000000  0  9G31G18G16G 6G 3G24G30G29G21
 -13399025.19946 -10248166.58446  22747177.0244   22747175.9344
     -2880.6664
  -3086700.61442   -900439.66345  24755043.2434   24755044.6264
      2844.5814
 -18192092.07746  -9912725.51546  21201034.4924   21201034.5274
      1704.7174
 -13453761.75845  -9685492.63146  22150483.2874   22150484.2954
      2030.5714
  -4356630.39043  -1471022.26745  23624173.4974   23624174.0944
      2989.9624
 -10387524.97946  -7893838.07546  22592320.8284   22592322.4234
     -2566.7594
  -1595741.23542   1226178.29145  24919135.7214   24919135.9084
     -3577.2134
  -9055483.29845  -6827780.73746  23175739.6644   23175739.6994
     -2612.5864
 -22268514.88046 -15634394.80046  21074804.0514   21074803.3834
       339.6874
 08  5 27  0 15  0.0000000  0  9G31G18G16G 6G 3G24G30G29G21
 -13312448.69446 -10180704.38746  22763651.8264   22763651.2054
     -2891.0774
  -3171995.51742   -966903.18345  24738812.9734   24738818.4714
      2841.7774
 -18243064.78746  -9952444.51246  21191334.8594   21191334.5194
      1693.4534
 -13514574.84845  -9732879.44346  22138910.9984   22138911.8664
      2023.6174
  -4446262.24743  -1540865.21745  23607116.7384   23607116.3744
      2985.4764
 -10310340.61446  -7833694.41846  22607008.0794   22607009.7434
     -2578.8634
  -1488373.03042   1309842.04145  24939566.8584   24939569.3194
     -3580.5974
  -8977055.46145  -6766668.13946  23190663.5164   23190663.9274
     -2615.9154
 -22278454.80046 -15642140.18046  21072912.4444   21072912.1044
       322.9854
 08  5 27  0 15 30.0000000  0  9G31G18G16G 6G 3G24G30G29G21
 -13225561.47346 -10113000.05846  22780186.2814   22780185.5664
     -2901.3884
  -3257204.63842  -1033299.90145  24722597.9284   24722596.4984
      2838.8344
 -18293698.20846  -9991899.12446  21181699.3974   21181699.1634
      1682.1074
 -13575179.30245  -9780103.67446  22127377.9044   22127379.1474
      2016.6564
  -4535758.37243  -1610602.43145  23590086.8274   23590089.4884
      2980.9204
 -10232794.47446  -7773268.85346  22621764.9454   22621765.9654
     -2590.8634
  -1380903.64942   1393584.33944  24960016.2894   24960017.7314
     -3583.9664
  -8898528.52145  -6705478.36646  23205606.4324   23205606.4794
     -2619.2044
 -22287893.15246 -15649494.73146  21071116.1634   21071115.7534
       306.2414
 08  5 27  0 16  0.0000000  0  9G31G18G16G 6G 3G24G30G29G21
 -13138366.17446 -10045055.66746  22796778.4884   22796777.9734
     -2911.6134
  -3342325.17443  -1099627.61545  24706400.8504   24706400.1584
      2835.8094
 -18343990.40546 -10031087.84246  21172128.8154   21172128.6984
      1670.6844
 -13635574.73446  -9827165.03946  22115885.4324   22115886.1704
      2009.6834
  -4625118.08043  -1680233.36945  23573081.4434   23573082.2174
      2976.3634
 -10154889.01045  -7712563.30146  22636589.9084   22636592.6744
     -2602.8274
  -1273334.62842   1477404.34044  24980487.7984   24980487.8454
     -3587.2564
  -8819903.15545  -6644211.86446  23220568.7204   23220567.8644
     -2622.4864
 -22296829.93946 -15656458.45346  21069415.4524   21069415.1124
       289.5224
 08  5 27  0 16 30.0000000  0  9G31G18G16G 6G 3G24G30G29G21
 -13050865.46446  -9976873.30546  22813429.6234   22813428.5914
     -2921.7514
  -3427354.38842  -1165884.14045  24690219.2974   24690219.4374
      2832.7804
 -18393940.00146 -10070009.60146  21162623.8994   21162623.3484
      1659.2694
 -13695760.74746  -9874063.20946  22104431.9454   22104432.5314
      2002.7224
  -4714340.66943  -1749757.43645  23556103.3234   23556103.5574
      2971.8014
 -10076626.53246  -7651579.55646  22651483.0884   22651484.8004
     -2614.6634
  -1165667.21942   1561301.02745  25000975.9634   25000977.6394
     -3590.5264
  -8741180.01145  -6582869.17745  23235549.4704   23235549.9284
     -2625.7274
 -22305265.30746 -15663031.46546  21067810.2094   21067809.6824
       272.8364
 08  5 27  0 17  0.0000000  0  9G31G18G16G 6G 3G24G30G29G21
 -12963062.51346  -9908455.42146  22830138.4314   22830137.3064
     -2931.7724
  -3512289.50243  -1232067.20045  24674058.9034   24674055.9144
      2829.5584
 -18443545.14746 -10108662.95946  21153184.5434   21153183.8164
      1647.7354
 -13755737.26846  -9920798.16046  22093019.3224   22093019.1344
      1995.7134
  -4803425.10844  -1819173.83945  23539151.3704   23539152.8934
      2967.1504
  -9998009.49145  -7590319.51546  22666442.7694   22666443.7894
     -2626.4564
  -1057902.77942   1645273.23145  25021482.0394   25021484.4664
     -3593.7614
  -8662359.97345  -6521450.99246  23250548.3374   23250548.4194
     -2628.9444
 -22313199.68446 -15669214.08946  21066300.5594   21066300.0664
       256.1274
 08  5 27  0 17 30.0000000  0  9G31G18G16G 6G 3G24G30G29G21
 -12874959.81146  -9839803.97146  22846903.1284   22846902.0854
     -2941.7254
  -3597127.31243  -1298174.60145  24657914.1564   24657914.0154
      2826.2834
 -18492803.95946 -10147046.44646  21143810.7444   21143810.7094
      1636.1664
 -13815503.77446  -9967369.45946  22081645.6794   22081645.9374
      1988.7124
  -4892370.69044  -1888482.09245  23522225.3464   23522225.1934
      2962.5284
  -9919040.64945  -7528785.35146  22681470.8144   22681472.6434
     -2638.1384
   -950042.41642   1729320.30945  25042005.9534   25041999.9634
     -3596.9524
  -8583443.77045  -6459957.89946  23265566.0274   23265565.9574
     -2632.1414
 -22320633.46146 -15675006.63746  21064886.1904   21064885.9094
       239.4364
 08  5 27  0 18  0.0000000  0  9G31G18G16G 6G 3G24G30G29G21
 -12786560.28046  -9770921.21146  22863725.3194   22863724.1704
     -2951.5674
  -3681865.29942  -1364204.24645  24641787.7314   24641785.5034
      2822.9264
 -18541714.91146 -10185158.86846  21134503.3214   21134503.3564
      1624.5474
 -13875060.23646 -10013777.07946  22070312.7374   22070313.4994
      1981.7004
  -4981176.97045  -1957681.69945  23505326.2494   23505330.2354
      2957.8764
  -9839722.44045  -7466978.96646  22696564.0054   22696565.5414
     -2649.7494
   -842087.68442   1813440.79945  25062550.6314   25062552.0614
     -3600.0544
  -8504432.36045  -6398390.53346  23280601.3924   23280601.1814
     -2635.2914
 -22327566.38846 -15680408.90146  21063566.8024   21063566.2054
       222.7554
 08  5 27  0 18 30.0000000  0  9G31G18G16G 6G 3G24G30G29G21
 -12697866.71946  -9701809.35846  22880603.0004   22880602.1334
     -2961.3234
  -3766500.36943  -1430153.56345  24625682.9304   24625679.0974
      2819.4074
 -18590275.92546 -10222998.61546  21125262.5494   21125262.3974
      1612.8544
 -13934406.17246 -10060020.66246  22059020.0594   22059020.3174
      1974.6734
  -5069843.48144  -2026772.52345  23488453.7704   23488454.2034
      2953.2144
  -9760057.15445  -7404902.11546  22711723.7304   22711725.4414
     -2661.2654
   -734040.07042   1897633.77544  25083112.1874   25083115.2344
     -3603.1334
  -8425326.33245  -6336749.51445  23295654.4944   23295654.8814
     -2638.4434
 -22333998.46046 -15685420.90946  21062342.7134   21062342.2094
       206.0624
 08  5 27  0 19  0.0000000  0  9G31G18G16G 6G 3G24G30G29G21
 -12608882.04546  -9632470.67246  22897536.3304   22897535.3694
     -2970.9864
  -3851029.80843  -1496020.73145  24609597.4974   24609590.1824
      2815.8654
 -18638485.40446 -10260564.43546  21116088.5534   21116088.3194
      1601.1044
 -13993541.37646 -10106100.02846  22047766.4554   22047766.8884
      1967.6544
  -5158369.42544  -2095753.70245  23471607.2704   23471610.1074
      2948.5074
  -9680047.53445  -7342556.96546  22726949.0814   22726950.3244
     -2672.7024
   -625900.69842   1981898.10445  25103690.2824   25103690.1644
     -3606.1594
  -8346126.59545  -6275035.44346  23310725.6944   23310725.1904
     -2641.5364
 -22339930.49846 -15690043.27246  21061213.7974   21061213.3994
       189.3864
 08  5 27  0 19 30.0000000  0  9G31G18G16G 6G 3G24G30G29G21
 -12519608.73445  -9562907.05246  22914524.6764   22914524.3834
     -2980.5434
  -3935450.82842  -1561803.37445  24593531.8454   24593531.6584
      2812.2104
 -18686341.62746 -10297854.98946  21106981.9874   21106981.8114
      1589.3094
 -14052465.51446 -10152014.91846  22036553.4394   22036554.0844
      1960.6434
  -5246753.75344  -2164624.58945  23454788.7904   23454789.5874
      2943.8124
  -9599696.15745  -7279945.48446  22742239.9674   22742241.7374
     -2684.0374
   -517671.19142   2066232.82245  25124283.0784   25124279.2224
     -3609.1584
  -8266833.95645  -6213248.97845  23325814.8694   23325814.9394
     -2644.6174
 -22345362.28446 -15694275.83946  21060180.2134   21060179.9094
       172.7314
 08  5 27  0 20  0.0000000  0  9G31G18G16G 6G 3G24G30G29G21
 -12430049.95446  -9493121.00346  22931566.9304   22931566.0504
     -2990.0304
  -4019760.44742  -1627499.18345  24577487.9994   24577488.4214
      2808.4464
 -18733842.67546 -10334868.78546  21097942.5284   21097942.0834
      1577.4364
 -14111178.36546 -10197765.17546  22025381.1104   22025381.9424
      1953.5404
  -5334996.36544  -2233385.04745  23437996.2004   23437998.9314
      2939.0364
  -9519005.36345  -7217069.56646  22757594.1754   22757595.8514
     -2695.3114
   -409352.75942   2150636.90545  25144897.6494   25144897.3914
     -3612.1034
  -8187448.97645  -6151390.59545  23340920.4644   23340921.1444
     -2647.6954
 -22350294.32046 -15698118.98046  21059241.7784   21059241.2624
       156.0654
 08  5 27  0 20 30.0000000  0  9G31G18G16G 6G 3G24G30G29G21
 -12340208.12945  -9423114.38546  22948662.8164   22948662.4534
     -2999.4074
  -4103956.23543  -1693106.27845  24561466.1914   24561468.0904
      2804.6124
 -18780986.97546 -10371604.59546  21088971.4224   21088971.4574
      1565.5034
 -14169679.44246 -10243350.43546  22014248.5594   22014249.0514
      1946.5124
  -5423096.13944  -2302034.17445  23421231.2054   23421231.1934
      2934.2574
  -9437977.90445  -7153931.25245  22773013.6804   22773014.6774
     -2706.4974
   -300946.66341   2235109.14045  25165524.0004   25165524.8684
     -3614.9854
  -8107972.25945  -6089460.69745  23356044.8264   23356045.6944
     -2650.7384
 -22354727.33446 -15701573.28146  21058398.0334   21058397.7054
       139.4214
 08  5 27  0 21  0.0000000  0  9G31G18G16G 6G 3G24G30G29G21
 -12250086.40945  -9352889.68646  22965812.6654   22965812.5484
     -3008.6854
  -4188035.04443  -1758622.31245  24545467.6624   24545468.2484
      2800.6584
 -18827772.52846 -10408060.85746  21080068.3334   21080068.0634
      1553.5234
 -14227968.49046 -10288770.45646  22003156.7824   22003157.4274
      1939.4304
  -5511052.41944  -2370571.50545  23404494.3654   23404494.6934
      2929.4974
  -9356616.15745  -7090532.50145  22788495.9444   22788496.6714
     -2717.6004
   -192454.24242   2319648.78745  25186172.3184   25186178.0034
     -3617.8184
  -8028404.57245  -6027459.94245  23371185.6894   23371185.8184
     -2653.7634
 -22358660.60146 -15704638.16246  21057649.6034   21057648.9114
       122.7894
 08  5 27  0 21 30.0000000  0  9G31G18G16G 6G 3G24G30G29G21
 -12159687.64145  -9282449.10446  22983015.0434   22983013.8124
     -3017.8894
  -4271993.52143  -1824044.32845  24529490.0924   24529489.1784
      2796.5944
 -18874197.85246 -10444236.42946  21071233.5114   21071233.5004
      1541.4864
 -14286045.26046 -10334025.06446  21992105.1774   21992106.0214
      1932.3434
  -5598864.74344  -2438996.63145  23387783.6214   23387786.0594
      2924.6744
  -9274922.74445  -7026875.27845  22804042.0264   22804044.2774
     -2728.6284
    -83877.13742   2404254.17243  25206832.9664   25206833.4934
     -3620.6214
  -7948746.67445  -5965388.87245  23386344.9924   23386345.4144
     -2656.7544
 -22362094.81646 -15707314.17946  21056995.8974   21056995.3104
       106.1654
 08  5 27  0 22  0.0000000  0  9G31G18G16G 6G 3G24G30G29G21
 -12069014.22545  -9211794.50846  23000269.6304   23000269.4544
     -3026.9804
  -4355829.17842  -1889370.92345  24513537.2394   24513533.9694
      2792.4584
 -18920261.13346 -10480129.88646  21062468.4694   21062468.1294
      1529.3974
 -14343909.38446 -10379113.98246  21981093.5494   21981094.2174
      1925.2694
  -5686532.43744  -2507309.07845  23371102.0054   23371105.1584
      2919.8584
  -9192899.84145  -6962961.34346  22819650.1994   22819651.8644
     -2739.5524
     24783.02242   2488924.49443  25227510.5214   25227514.2724
     -3623.3814
  -7868999.27445  -5903248.07145  23401520.2234   23401521.0094
     -2659.7134
 -22365030.34446 -15709601.60146  21056437.5024   21056437.1394
        89.5364
 08  5 27  0 22 30.0000000  0  9G31G18G16G 6G 3G24G30G29G21
 -11978069.33445  -9140928.34446  23017575.9724   23017574.7654
     -3035.9854
  -4439539.42943  -1954599.62745  24497608.1734   24497605.4544
      2788.2004
 -18965960.54946 -10515739.81046  21053772.2884   21053772.0304
      1517.2314
 -14401560.61146 -10424037.02446  21970123.3644   21970124.0794
      1918.1164
  -5774054.74145  -2575508.27045  23354445.7384   23354446.6294
      2914.9604
  -9110550.30245  -6898792.84545  22835321.0484   22835322.5604
     -2750.4084
    133525.30142   2573658.66445  25248203.0844   25248201.7484
     -3626.0954
  -7789163.22545  -5841038.19245  23416712.4724   23416712.7184
     -2662.6854
 -22367467.47446 -15711500.67246  21055973.8004   21055973.1794
        72.9344
 08  5 27  0 23  0.0000000  0  9G31G18G16G 6G 3G24G30G29G21
 -11886856.07045  -9069853.10046  23034933.3434   23034932.4994
     -3044.8894
  -4523121.32543  -2019728.44145  24481702.1944   24481703.9404
      2783.8754
 -19011294.43546 -10551064.91646  21045145.7394   21045145.4814
      1505.0164
 -14458998.93246 -10468794.13446  21959192.7664   21959193.2814
      1911.0534
  -5861430.52844  -2643593.27545  23337818.8824   23337819.2454
      2910.0684
  -9027876.57845  -6834371.79445  22851053.2274   22851054.0364
     -2761.1714
    242347.94941   2658455.56344  25268910.3314   25268906.8034
     -3628.7784
  -7709239.14345  -5778759.71745  23431921.3524   23431921.6104
     -2665.6094
 -22369406.89946 -15713011.91746  21055604.8984   21055604.4174
        56.3594
 08  5 27  0 23 30.0000000  0  9G31G18G16G 6G 3G24G30G29G21
 -11795376.80145  -8998570.55446  23052340.7584   23052339.7034
     -3053.6744
  -4606571.76643  -2084754.70645  24465823.3634   24465827.3484
      2779.4864
 -19056261.04246 -10586103.82546  21036588.4944   21036588.2484
      1492.7624
 -14516223.68946 -10513384.84346  21948303.4294   21948303.9224
      1903.9444
  -5948659.61044  -2711563.96245  23321220.1004   23321221.0384
      2905.2044
  -8944881.17545  -6769700.04645  22866847.2854   22866848.1874
     -2771.8274
    351250.04242   2743314.27345  25289635.7494   25289634.4834
     -3631.3654
  -7629227.76245  -5716413.20545  23447147.7174   23447147.0734
     -2668.4714
 -22370848.69846 -15714135.39846  21055330.4024   21055329.8044
        39.7924
 08  5 27  0 24  0.0000000  0  9G31G18G16G 6G 3G24G30G29G21
 -11703634.70845  -8927083.22646  23069798.9594   23069797.0724
     -3062.4214
  -4689888.30543  -2149676.70145  24449967.3324   24449968.4454
      2774.9474
 -19100858.75546 -10620855.28246  21028101.8004   21028101.8704
      1480.4324
 -14573234.64546 -10557808.96846  21937454.2484   21937454.9164
      1896.8024
  -6035741.25444  -2779419.77345  23304649.1614   23304650.2874
      2900.2624
  -8861566.73045  -6704779.71345  22882701.4654   22882702.6374
     -2782.4334
    460229.84242   2828233.65345  25310372.6354   25310373.2454
     -3633.9514
  -7549129.71545  -5653999.14845  23462389.7434   23462389.6724
     -2671.3724
 -22371793.09546 -15714871.29446  21055150.8684   21055150.3884
        23.1964
 08  5 27  0 24 30.0000000  0  9G31G18G16G 6G 3G24G30G29G21
 -11611632.50245  -8855393.22045  23087305.7884   23087305.1084
     -3071.0294
  -4773067.70043  -2214491.76145  24434139.9874   24434137.1154
      2770.3504
 -19145085.67146 -10655317.80446  21019685.6944   21019685.7414
      1468.0364
 -14630031.59346 -10602066.31746  21926646.0814   21926646.8664
      1889.6714
  -6122674.79745  -2847160.19545  23288105.9054   23288106.6094
      2895.2894
  -8777935.68945  -6639612.64645  22898615.4784   22898616.2404
     -2792.9564
    569285.93442   2913212.44245  25331126.1124   25331123.6854
     -3636.4754
  -7468945.48945  -5591517.95345  23477648.2074   23477648.9224
     -2674.2174
 -22372240.65546 -15715220.04246  21055065.5964   21055065.0104
         6.6464
 08  5 27  0 25  0.0000000  0  9G31G18G16G 6G 3G24G30G29G21
 -11519373.06745  -8783502.75245  23104862.8924   23104861.7904
     -3079.5754
  -4856107.09643  -2279197.88145  24418337.8784   24418333.4354
      2765.6174
 -19188940.21446 -10689490.17346  21011340.3424   21011339.9554
      1455.5904
 -14686614.20146 -10646156.64046  21915879.3694   21915879.8734
      1882.4954
  -6209459.21245  -2914784.37145  23271592.1744   23271593.1124
      2890.3564
  -8693990.66145  -6574200.94345  22914589.5634   22914591.2634
     -2803.3854
    678416.70141   2998249.23145  25351891.6224   25351892.0444
     -3638.9254
  -7388676.18245  -5528970.46745  23492922.6384   23492924.5604
     -2677.0694
 -22372191.85946 -15715182.02046  21055075.0554   21055074.6564
        -9.9014
 08  5 27  0 25 30.0000000  0  9G31G18G16G 6G 3G24G30G29G21
 -11426859.22845  -8711414.05345  23122467.1264   23122467.1034
     -3087.9994
  -4939003.73843  -2343792.61245  24402562.1374   24402562.3834
      2760.8264
 -19232420.57646 -10723370.97446  21003066.5724   21003066.1384
      1443.0954
 -14742982.20146 -10690079.75446  21905152.7854   21905153.8054
      1875.3534
  -6296094.47645  -2982292.33645  23255105.8114   23255104.9434
      2885.3704
  -8609734.10445  -6508546.48445  22930622.9064   22930624.5474
     -2813.7214
    787621.26143   3083343.73745  25372674.2044   25372667.6744
     -3641.3444
  -7308322.07745  -5466356.90345  23508213.2554   23508214.6264
     -2679.8724
 -22371647.46946 -15714757.81746  21055178.0774   21055177.4214
       -26.4034
 08  5 27  0 26  0.0000000  0  9G31G18G16G 6G 3G24G30G29G21
 -11334094.00445  -8639129.45545  23140120.2394   23140119.5244
     -3096.3354
  -5021754.76943  -2408273.84445  24386815.5444   24386818.0174
      2755.9054
 -19275524.99846 -10756958.82846  20994863.7404   20994863.6934
      1430.5344
 -14799135.18646 -10733835.31646  21894466.9204   21894468.1744
      1868.1774
  -6382579.13245  -3049682.96245  23238647.8934   23238646.8974
      2880.3034
  -8525168.55945  -6442651.24145  22946714.8154   22946716.6794
     -2823.9764
    896898.01542   3168494.54944  25393469.0844   25393467.3844
     -3643.7634
  -7227884.06045  -5403677.92345  23523519.3804   23523520.2364
     -2682.6704
 -22370607.57746 -15713947.50546  21055376.0874   21055375.4784
       -42.9214
 08  5 27  0 26 30.0000000  0  9G31G18G16G 6G 3G24G30G29G21
 -11241080.20745  -8566651.18546  23157819.9544   23157819.1694
     -3104.5944
  -5104357.08643  -2472639.32445  24371096.8204   24371094.4054
      2750.8744
 -19318251.99946 -10790252.58346  20986733.3914   20986733.1104
      1417.9034
 -14855072.90946 -10777423.14546  21883822.7034   21883823.2664
      1861.0024
  -6468913.06044  -3116956.13845  23222219.0874   23222220.7754
      2875.2404
  -8440296.45145  -6376517.14845  22962866.0594   22962868.0524
     -2834.1704
   1006245.31742   3253700.30844  25414277.1104   25414271.2134
     -3646.0844
  -7147363.23545  -5340934.44445  23538842.9024   23538844.6374
     -2685.4284
 -22369072.59346 -15712751.40846  21055668.4834   21055668.1904
       -59.4214
 08  5 27  0 27  0.0000000  0  9G31G18G16G 6G 3G24G30G29G21
 -11147820.56345  -8493981.37246  23175566.6544   23175565.4704
     -3112.7474
  -5186808.09443  -2536886.71045  24355406.4714   24355407.5494
      2745.8144
 -19360599.60747 -10823250.71846  20978674.7894   20978674.2744
      1405.2424
 -14910795.01646 -10820842.95846  21873218.8854   21873219.2494
      1853.8004
  -6555094.98445  -3184110.87045  23205818.3194   23205818.6834
      2870.1794
  -8355120.35245  -6310146.15345  22979074.6014   22979075.5744
     -2844.2414
   1115662.18542   3338960.30943  25435097.9164   25435105.3954
     -3648.3664
  -7066759.59145  -5278126.46045  23554181.0394   23554179.9254
     -2688.1644
 -22367043.38946 -15711170.20446  21056054.6164   21056054.1364
       -75.8884
 08  5 27  0 27 30.0000000  0  8G31G18G16G 6G 3G24G29G21
 -11054317.83545  -8421122.08745  23193360.2784   23193360.0554
     -3120.7654
  -5269104.90143  -2601014.12245  24339746.2534   24339742.7014
      2740.6564
 -19402566.10246 -10855951.87646  20970688.6994   20970688.2424
      1392.5104
 -14966301.21446 -10864094.54146  21862656.5544   21862657.4334
      1846.6114
  -6641124.52545  -3251146.81045  23189448.3564   23189448.8834
      2865.1184
  -8269643.13045  -6243540.53145  22995340.0314   22995341.0984
     -2854.2254
  -6986073.79945  -5215254.44045  23569534.9404   23569535.5384
     -2690.8824
 -22364520.08846 -15709203.98746  21056534.4004   21056533.8374
       -92.3434
 08  5 27  0 28  0.0000000  0  9G31G18G16G 6G 3G24G25G29G21
 -10960575.24045  -8348075.93245  23211197.8834   23211196.4184
     -3128.7254
  -5351244.82143  -2665019.24345  24324116.3214   24324118.5484
      2735.3674
 -19444149.73946 -10888354.71146  20962775.6134   20962775.4724
      1379.7144
 -15021591.16846 -10907177.60746  21852135.2234   21852136.3254
      1839.4004
  -6727001.03745  -3318063.59445  23173106.2404   23173105.9584
      2859.9834
  -8183867.01145  -6176701.99345  23011662.9354   23011665.3034
     -2864.1544
    -28286.10641                  25497465.2004
      2354.9534
  -6905306.76945  -5152319.12545  23584904.7094   23584905.1424
     -2693.5924
 -22361503.16646 -15706853.13246  21057108.9314   21057108.1924
      -108.7794
 08  5 27  0 28 30.0000000  0  9G31G18G16G 6G 3G24G25G29G21
 -10866595.69345  -8274845.14945  23229081.6074   23229081.8534
     -3136.5484
  -5433224.56843  -2728899.46945  24308514.2004   24308514.0834
      2729.9834
 -19485348.92946 -10920457.96046  20954935.8234   20954935.5654
      1366.8864
 -15076664.76246 -10950092.07946  21841654.7614   21841655.6414
      1832.1854
  -6812723.89244  -3384860.55645  23156793.0234   23156794.8754
      2854.8694
  -8097794.64345  -6109632.58845  23028041.9314   23028043.8414
     -2873.9844
    -98753.20242                  25484056.9564
      2342.8904
  -6824459.12545  -5089320.95845  23600289.6314   23600289.2794
     -2696.2584
 -22357993.31446 -15704118.17746  21057776.7124   21057776.3024
      -125.1964
 08  5 27  0 29  0.0000000  0  9G31G18G16G 6G 3G24G25G29G21
 -10772381.83345  -8201431.74745  23247010.9504   23247010.3644
     -3144.3534
  -5515041.36743  -2792652.77245  24292946.9764   24292949.2034
      2724.4984
 -19526161.91746 -10952260.28646  20947169.3844   20947168.9744
      1353.9934
 -15131521.47146 -10992837.57246  21831216.0294   21831216.4634
      1824.9494
  -6898291.78645  -3451536.78345  23140510.4774   23140511.9774
      2849.7034
  -8011428.13945  -6042334.04245  23044477.0694   23044479.0034
     -2883.7434
   -168858.21741                  25470716.0994
      2330.7684
  -6743531.23745  -5026260.27045  23615690.0484   23615690.7394
     -2698.8984
 -22353990.84346 -15700999.35646  21058538.3224   21058537.7944
      -141.6084
 08  5 27  0 29 30.0000000  0  9G31G18G16G 6G 3G24G25G29G21
 -10677936.49345  -8127838.01645  23264982.9644   23264981.9214
     -3151.9724
  -5596692.64244  -2856277.11145  24277408.5714   24277408.6774
      2718.9254
 -19566587.51846 -10983760.75146  20939476.7004   20939475.8804
      1341.0534
 -15186161.06946 -11035413.86246  21820818.3394   21820819.3244
      1817.6974
  -6983704.49245  -3518092.14145  23124256.6354   23124256.8344
      2844.4714
  -7924770.27145  -5974808.43445  23060967.1484   23060969.4334
     -2893.4034
   -238599.39541                  25457443.1994
      2318.6214
  -6662523.92545  -4963137.72045  23631105.2334   23631105.4214
     -2701.5564
 -22349496.50846 -15697497.26046  21059393.4804   21059392.9874
      -157.9894
 08  5 27  0 30  0.0000000  0  9G31G18G16G 6G 3G24G25G29G21
 -10583262.80145  -8054066.28445  23282998.7144   23282998.1754
     -3159.5624
  -5678175.66743  -2919770.33645  24261902.4184   24261898.0814
      2713.2594
 -19606623.73946 -11014957.79946  20931857.6254   20931857.1564
      1328.0154
 -15240583.47246 -11077820.91746  21810462.0594   21810462.5404
      1810.4344
  -7068961.37045  -3584526.06545  23108033.3584   23108033.4874
      2839.2704
  -7837823.90645  -5907058.00045  23077512.5774   23077514.5114
     -2903.0204
   -307974.50442    -17986.19444  25444243.7224   25444244.5084
      2306.3744
  -6581438.15845  -4899954.02845  23646534.6354   23646533.8974
     -2704.1464
 -22344511.47346 -15693612.80646  21060342.0094   21060341.3524
      -174.3544
 08  5 27  0 30 30.0000000  0  9G31G18G16G 6G 3G24G25G29G21
 -10488363.44945  -7980118.77145  23301057.5704   23301057.5114
     -3167.0594
  -5759487.06143  -2983129.82445  24246428.1914   24246427.6874
      2707.5114
 -19646268.57046 -11045849.87546  20924313.7774   20924313.6244
      1314.9504
 -15294788.04646 -11120058.22546  21800146.9894   21800147.7754
      1803.1944
  -7154061.48445  -3650837.83345  23091839.2234   23091840.8874
      2834.0544
  -7750591.14245  -5839084.41545  23094112.1504   23094112.8414
     -2912.5044
   -376981.32042    -71757.64745  25431111.8334   25431113.8504
      2294.0484
  -6500274.06945  -4836709.30045  23661980.2934   23661981.2554
     -2706.7644
 -22339035.59046 -15689345.87046  21061384.1224   21061383.3614
      -190.7134
 08  5 27  0 31  0.0000000  0  9G31G18G16G 6G 3G24G25G29G21
 -10393241.44845  -7905997.74545  23319158.7864   23319158.0244
     -3174.4134
  -5840624.27844  -3046353.65345  24230990.2704   24230989.7434
      2701.6304
 -19685520.70146 -11076435.94346  20916844.3764   20916844.1074
      1301.8354
 -15348774.63146 -11162125.67746  21789873.8254   21789874.8104
      1795.9364
  -7239004.36645  -3717027.03745  23075675.0594   23075676.3134
      2828.8084
  -7663074.70545  -5770889.80745  23110766.4784   23110768.6704
     -2921.9094
   -445618.09242   -125240.95545  25418049.7184   25418053.4934
      2281.7114
  -6419032.72645  -4773404.38445  23677439.5474   23677440.3794
     -2709.3374
 -22333069.67446 -15684697.09046  21062519.4294   21062518.8084
      -207.0354
 08  5 27  0 31 30.0000000  0  9G31G18G16G 6G 3G24G25G29G21
 -10297899.85145  -7831705.59845  23337301.8764   23337301.3254
     -3181.7054
  -5921584.11843  -3109439.28445  24215582.6894   24215586.6044
      2695.6794
 -19724378.19246 -11106714.50746  20909450.0434   20909449.4694
      1288.6424
 -15402542.87546 -11204023.00646  21779642.1234   21779643.0024
      1788.6324
  -7323789.19645  -3783093.10745  23059541.8784   23059540.7884
      2823.5144
  -7575277.34445  -5702476.27045  23127474.3374   23127475.8384
     -2931.2544
   -513882.47642   -178433.86044  25405060.0014   25405058.6414
      2269.2304
  -6337714.41045  -4710039.49545  23692914.4564   23692915.3584
     -2711.9024
 -22326614.10046 -15679666.76246  21063747.7164   21063747.3764
      -223.3504
 08  5 27  0 32  0.0000000  0  9G31G18G16G 6G 3G24G25G29G21
 -10202341.67045  -7757244.68845  23355486.0254   23355486.2714
     -3188.8704
  -6002364.24443  -3172384.76945  24200211.7354   24200214.5954
      2689.6384
 -19762839.55846 -11136684.39346  20902130.6894   20902130.2204
      1275.4204
 -15456092.72046 -11245750.15246  21769451.7714   21769452.5564
      1781.3514
  -7408415.46045  -3849035.62745  23043437.6734   23043437.7674
      2818.2114
  -7487201.40345  -5633845.69745  23144233.6904   23144235.8234
     -2940.4864
   -581772.71443   -231335.41645  25392141.5514   25392143.2154
      2256.7464
  -6256320.03145  -4646615.32445  23708402.6014   23708403.2234
     -2714.4234
 -22319670.02546 -15674255.77846  21065069.1874   21065068.5424
      -239.6134
 08  5 27  0 32 30.0000000  0  9G31G18G16G 6G 3G24G25G29G21
 -10106569.38045  -7682616.96845  23373710.4984   23373709.5374
     -3195.9534
  -6082961.63043  -3235187.94545  24184873.4894   24184874.4624
      2683.5364
 -19800903.15146 -11166344.33446  20894887.4034   20894887.0634
      1262.1394
 -15509423.52246 -11287306.60146  21759303.4034   21759303.8604
      1774.0434
  -7492882.04545  -3914853.75045  23027363.8004   23027364.9724
      2812.9034
  -7398849.02945  -5564999.67645  23161047.2824   23161048.7364
     -2949.6364
   -649286.52743   -283943.64844  25379293.3054   25379299.9394
      2244.1964
  -6174849.82045  -4583132.06045  23723906.8744   23723907.8594
     -2716.9244
 -22312237.94446 -15668464.54146  21066483.6384   21066483.0764
      -255.8634
 08  5 27  0 33  0.0000000  0  9G31G18G16G 6G 3G24G25G29G21
 -10010585.75545  -7607824.53545  23391975.6634   23391974.9594
     -3202.9374
  -6163373.23444  -3297846.25745  24169573.0654   24169572.1974
      2677.2444
 -19838567.20146 -11195692.94146  20887720.2354   20887720.1534
      1248.7874
 -15562534.97746 -11328692.14046  21749196.6994   21749197.7434
      1766.7494
  -7577188.88245  -3980547.35845  23011321.0604   23011323.4874
      2807.5454
  -7310223.07645  -5495940.50445  23177911.7704   23177914.6774
     -2958.7394
   -716422.01042   -336256.92045  25366518.1194   25366519.1984
      2231.5234
  -6093304.30545  -4519590.14345  23739424.4514   23739424.9314
     -2719.4324
 -22304318.28446 -15662293.35746  21067990.4064   21067989.8204
      -272.1074
 08  5 27  0 33 30.0000000  0  9G31G18G16G 6G 3G24G25G29G21
  -9914394.20045  -7532870.06945  23410280.3104   23410279.5954
     -3209.8454
  -6243596.43244  -3360357.83245  24154306.7854   24154304.1834
      2670.9094
 -19875830.09746 -11224728.96846  20880629.3854   20880629.2324
      1235.3954
 -15615427.11846 -11369906.79046  21739131.6914   21739132.3824
      1759.3964
  -7661334.72145  -4046115.51745  22995308.5114   22995309.0624
      2802.1674
  -7221326.19645  -5426670.20445  23194828.0284   23194829.2354
     -2967.7174
   -783177.14342   -388273.81045  25353814.7264   25353817.0474
      2218.7974
  -6011684.49445  -4455990.30845  23754955.2354   23754956.3484
     -2721.8994
 -22295911.86546 -15655742.89046  21069590.1264   21069589.4584
      -288.3204
 08  5 27  0 34  0.0000000  0  9G31G18G16G 6G 3G24G25G29G21
  -9817997.30345  -7457755.62045  23428624.0664   23428624.2894
     -3216.6474
  -6323628.21844  -3422720.25945  24139077.3924   24139078.5994
      2664.4864
 -19912690.30646 -11253451.20346  20873615.3334   20873615.0524
      1221.9344
 -15668099.36046 -11410950.10046  21729108.2804   21729109.0544
      1752.0644
  -7745318.76145  -4111557.58945  22979325.6554   22979326.9794
      2796.7624
  -7132160.64845  -5357190.58045  23211795.7524   23211797.8154
     -2976.6324
   -849549.90042   -439993.02143  25341184.4494   25341182.9374
      2206.0214
  -5929990.75945  -4392332.86145  23770501.0864   23770502.5874
     -2724.3484
 -22287019.54446 -15648813.80246  21071282.5534   21071281.9674
      -304.4974
 08  5 27  0 34 30.0000000  0  9G31G18G16G 6G 3G24G25G29G21
  -9721398.30645  -7382483.70145  23447006.3294   23447006.4584
     -3223.3204
  -6403465.85643  -3484931.36945  24123884.7474   24123884.8174
      2658.0014
 -19949146.28446 -11281858.46846  20866677.7064   20866677.6594
      1208.4534
 -15720551.50946 -11451821.88946  21719127.2614   21719128.1404
      1744.7414
  -7829140.64745  -4176873.31145  22963375.2474   22963375.5284
      2791.3634
  -7042729.10845  -5287503.67045  23228814.6184   23228814.8404
     -2985.4574
   -915538.31842   -491412.46745  25328627.0424   25328629.5044
      2193.2034
  -5848223.95144  -4328618.49345  23786060.5904   23786062.2664
     -2726.7804
 -22277642.04746 -15641506.64546  21073067.0134   21073066.3104
      -320.6654
 08  5 27  0 35  0.0000000  0  9G31G18G16G 6G 3G24G25G29G21
  -9624600.00545  -7307056.45745  23465426.5714   23465425.1764
     -3229.8914
  -6483106.50244  -3546989.03645  24108729.1504   24108730.3814
      2651.3614
 -19985196.50646 -11309949.54446  20859817.7734   20859817.8084
      1194.8924
 -15772783.15146 -11492521.85746  21709187.8514   21709188.2034
      1737.3704
  -7912799.61245  -4242062.09245  22947455.6214   22947458.4224
      2785.9214
  -6953033.99745  -5217611.38245  23245882.5564   23245884.4554
     -2994.1924
   -981140.42342   -542531.12344  25316144.2854   25316138.4834
      2180.3094
  -5766384.40044  -4264847.42445  23801634.6704   23801634.5294
     -2729.1814
 -22267780.28046 -15633822.13946  21074943.6274   21074942.9124
      -336.7944
 08  5 27  0 35 30.0000000  0  9G31G18G16G 6G 3G24G25G29G21
  -9527605.07945  -7231475.99345  23483884.1974   23483883.5644
     -3236.3964
  -6562547.06544  -3608890.68645  24093612.2854   24093611.8404
      2644.6454
 -20020838.94846 -11337722.88146  20853035.5754   20853035.5294
      1181.2554
 -15824793.93346 -11533049.72946  21699290.6194   21699291.1234
      1730.0154
  -7996295.15545  -4307123.54545  22931567.1064   22931567.9974
      2780.4484
  -6863077.87145  -5147515.71345  23263000.9244   23263002.6584
     -3002.8604
  -1046354.11742   -593346.95545  25303734.2604   25303734.3544
      2167.2694
  -5684472.61245  -4201020.10145  23817222.8694   23817223.4554
     -2731.5994
 -22257434.34446 -15625760.35046  21076912.1944   21076911.7614
      -352.9244
 08  5 27  0 36  0.0000000  0  9G31G18G16G 6G 3G24G25G29G21
  -9430416.47445  -7155744.63945  23502377.9864   23502377.4704
     -3242.7994
  -6641784.98944  -3670634.52745  24078534.1524   24078532.2774
      2637.8764
 -20056072.11646 -11365177.30046  20846330.6734   20846330.2514
      1167.6024
 -15876583.77646 -11573405.42946  21689435.2774   21689435.9804
      1722.6354
  -8079625.89145  -4372056.53645  22915709.9444   22915711.1994
      2774.9344
  -6772863.14945  -5077218.54345  23280167.7554   23280169.6784
     -3011.4394
  -1111177.55743   -643858.67145  25291397.9414   25291396.0664
      2154.2704
  -5602489.48645  -4137137.16445  23832823.1264   23832821.8254
     -2733.9714
 -22246605.40346 -15617322.18646  21078972.9374   21078972.5734
      -369.0074
 08  5 27  0 36 30.0000000  0  9G31G18G16G 6G 3G24G25G29G21
  -9333037.64345  -7079865.03645  23520908.9054   23520906.5494
     -3249.1114
  -6720817.37444  -3732218.17445  24063494.6874   24063496.0934
      2630.9284
 -20090894.42146 -11392311.56146  20839704.0284   20839703.3954
