     2.10           OBSERVATION DATA    G (GPS)             RINEX VERSION / TYPE
teqc  2002Mar14                         20050121 01:02:50UTCPGM / RUN BY / DATE
HP-UX 10.20|PA-RISC|cc A.10.32.03|=+|=|                     COMMENT
teqc  2002Mar14     GRD/NGS/NOAA        20050121 00:54:28UTCCOMMENT
teqc  2002Mar14     GRD/NGS/NOAA        20050120 01:02:11UTCCOMMENT
BIT 2 OF LLI FLAGS DATA COLLECTED UNDER A/S CONDITION       COMMENT
USNO                                                        MARKER NAME
40451S003                                                   MARKER NUMBER
USNO                USNO                                    OBSERVER / AGENCY
RT919994503         ASHTECH Z-XII3T     1L01-1D04           REC # / TYPE / VERS
309                 AOAD/M_T        NONE                    ANT # / TYPE
  1112189.9031 -4842955.0319  3985352.2376                  APPROX POSITION XYZ
        0.0000        0.0000        0.0000                  ANTENNA: DELTA H/E/N
     1     1                                                WAVELENGTH FACT L1/2
     7    C1    L1    L2    P1    P2    D1    D2            # / TYPES OF OBSERV
    30.0000                                                 INTERVAL
 SNR is mapped to RINEX snr flag value [1-9]                COMMENT
  L1: 1 -> 1;  90 -> 5; 210 -> 9                            COMMENT
  L2: 1 -> 1; 150 -> 5; 250 -> 9                            COMMENT
Forced Modulo Decimation to 30 seconds                      COMMENT
  2005     1    20     0     0    0.0000000     GPS         TIME OF FIRST OBS
                                                            END OF HEADER
 05  1 20  0  0  0.0000000  0 10G30G 6G17G27G 2G 8G26G29G21G10
  25128562.1364    4545549.90249   3555415.16945  25128562.4674   25128572.0884
     -2694.6624      -2099.7404
  21453377.6314  -18821415.41049 -14641666.63648  21453377.6524   21453383.0924
       957.0514        745.7544
  20636631.4414  -26210159.33049 -20402628.01248  20636630.9184   20636636.8604
      -408.5724       -318.3724
  25422813.4284    -876260.55548     -1490.04444
        54.5964         43.7264
  21945656.4674  -18794404.52949 -14605938.86647  21945656.1254   21945659.2064
     -2359.6874      -1838.7184
  25014611.6624    -968730.01649   -746502.64445  25014611.9784   25014620.4564
      1484.7814       1156.9704
  21348900.4714  -17227655.33549 -13115418.92547  21348900.4884   21348906.2674
      3206.9014       2498.8814
  20957557.7284  -22996005.41749 -17868683.97948  20957557.6194   20957563.4264
      1898.3654       1479.2414
  24252299.8924   -3196525.12049  -2237654.61945  24252299.1474   24252302.6724
      3062.2034       2386.1264
  20823923.9814  -20246470.93149 -15754394.42648  20823923.0264   20823928.7234
     -1734.9424      -1351.9034
 05  1 20  0  0 30.0000000  0 10G30G 6G17G27G 2G 8G26G29G21G10
  25143943.7494    4626385.90149   3618404.29145  25143943.3214   25143951.7164
     -2694.2904      -2099.4444
  21447964.9034  -18849859.79749 -14663831.05848  21447964.7404   21447970.4584
       938.9424        731.6344
  20638993.7034  -26197744.17149 -20392953.85048  20638993.6344   20638999.4084
      -419.1724       -326.6314
  25422542.9034    -877690.81848     -2639.37244
        40.4914         32.6874
  21959152.5244  -18723478.40049 -14550671.77347  21959152.7364   21959155.7834
     -2368.7294      -1845.7704
  25006175.7094   -1013080.15249   -781061.21245  25006175.0964   25006180.9664
      1471.9004       1146.9364
  21330633.0034  -17323651.59649 -13190221.15647  21330633.3854   21330638.7594
      3192.7784       2487.8754
  20946769.7454  -23052698.53049 -17912860.39548  20946769.6254   20946774.9974
      1881.1984       1465.8664
  24234812.1924   -3288402.16149  -2309246.95145  24234812.6744   24234819.3444
      3062.8464       2386.6284
  20833852.0714  -20194295.18649 -15713737.98848  20833851.6734   20833857.3044
     -1743.4564      -1358.5424
 05  1 20  0  1  0.0000000  0 10G30G 6G17G27G 2G 8G26G29G21G10
  25159327.3604    4707205.96849   3681381.06645  25159326.0824   25159331.8434
     -2693.6624      -2098.9634
  21442654.9974  -18877760.05749 -14685571.49148  21442655.3104   21442661.3054
       920.7884        717.4974
  20641417.4924  -26185010.00349 -20383031.10748  20641416.7324   20641422.4204
      -429.8264       -334.9294
  25422350.090

  21972701.4744  -18652281.02849 -14495193.29747  21972701.0314   21972703.6634
     -2377.7674      -1852.8104
  24997810.2244   -1057043.49349   -815318.30845  24997808.6354   24997811.8904
      1458.9824       1136.8714
  21312446.6474  -17419222.47849 -13264691.92047  21312446.5964   21312452.0364
      3178.5754       2476.8114
  20936079.9524  -23108876.56449 -17956635.44948  20936079.3374   20936084.3104
      1864.0624       1452.5154
  24217326.5464   -3380297.61749  -2380853.67145  24217325.3814   24217331.5554
      3063.4764       2387.1124
  20843829.6864  -20141864.50849 -15672882.88748  20843828.8334   20843834.6284
     -1751.9084      -1365.1224
 05  1 20  0  1 30.0000000  0  9G30G 6G17G 2G 8G26G29G21G10
  25174704.7344    4788007.24449   3744343.19045  25174703.1574   25174710.6634
     -2693.0334      -2098.4654
  21437451.1684  -18905115.12149 -14706887.09348  21437450.3964   21437455.8114
       902.5984        703.3224
  20643901.3154  -26171955.85349 -20372859.03148  20643900.6494   20643906.9254
      -440.4804       -343.2344
  21986299.9444  -18580813.20049 -14439504.08947  21986300.2784   21986303.9624
     -2386.7724      -1859.8234
  24989518.1184   -1100617.63349   -849272.19245  24989518.0374   24989522.4094
      1445.9484       1126.7194
  21294341.2904  -17514364.80549 -13338828.74147  21294341.4714   21294347.0244
      3164.2284       2465.6244
  20925487.6564  -23164538.08449 -18000008.03348  20925487.8344   20925492.5754
      1846.7734       1439.0394
  24199835.0654   -3472210.24849  -2452473.81045  24199836.2154   24199841.0304
      3064.0244       2387.5524
  20853854.8404  -20089180.27949 -15631830.23048  20853854.2144   20853860.0764
     -1760.3404      -1371.7014
 05  1 20  0  2  0.0000000  0  9G30G 6G17G 2G 8G26G29G21G10
  25190072.7374    4868786.93849   3807288.42345  25190072.9564   25190080.2984
     -2692.1854      -2097.8094
  21432348.9774  -18931924.02549 -14727777.12548  21432348.7364   21432354.2404
       884.3914        689.1404
  20646446.9574  -26158581.04149 -20362437.09048  20646446.3214   20646451.8964
      -451.2014       -351.5864
  21999951.7424  -18509075.20349 -14383604.34847  21999951.5334   21999955.8124
     -2395.7564      -1866.8234
  24981301.6494   -1143800.55549   -882921.24945  24981300.9274   24981306.1804
      1432.8924       1116.5394
  21276318.3334  -17609075.53849 -13412629.25647  21276318.6784   21276323.8144
      3149.7874       2454.3804
  20914994.3994  -23219681.18949 -18042976.64948  20914994.0954   20914998.9414
      1829.5034       1425.5864
  24182343.6274   -3564139.35149  -2524106.80045  24182342.7274   24182347.3334
      3064.5824       2387.9824
  20863929.0634  -20036244.37349 -15590581.45948  20863927.7424   20863933.0844
     -1768.6984      -1378.2074
 05  1 20  0  2 30.0000000  0  9G30G 6G17G 2G 8G26G29G21G10
  25205441.3774    4949542.18649   3870214.61345  25205439.9744   25205447.6374
     -2691.4474      -2097.2304
  21427351.0734  -18958185.44149 -14748240.53448  21427351.1054   21427356.5594
       866.1114        674.8854
  20649052.6334  -26144884.58749 -20351764.51848  20649052.0884   20649057.9254
      -461.9494       -359.9624
  22013655.4084  -18437067.25249 -14327494.27147  22013654.7224   22013658.2594
     -2404.7744      -1873.8524
  24973157.6574   -1186589.31949   -916263.07245  24973156.5824   24973162.1274
      1419.6764       1106.2394
  21258378.6264  -17703351.62549 -13486091.09747  21258378.3414   21258383.9074
      3135.2504       2443.0504
  20904600.1264  -23274304.28349 -18085540.06348  20904599.4684   20904604.4544
      1812.1394       1412.0534
  24164846.7984   -3656084.19949  -2595751.99245  24164845.5664   24164850.3194
      3065.0744       2388.3654
  20874049.3424  -19983058.48849 -15549137.89848  20874048.7904   20874054.5494
     -1777.0284      -1384.6964
 05  1 20  0  3  0.0000000  0  9G30G 6G17G 2G 8G26G29G21G10
  25220802.6194    5030270.05949   3933119.47445  25220800.6164   25220810.6214
     -2690.3364      -2096.3764
  21422458.4034  -18983898.46749 -14768276.62648  21422458.3094   21422463.5664
       847.8044        660.6254
  20651720.3964  -26130865.72349 -20340840.71748  20651720.1124   20651725.3384
      -472.7214       -368.3594
  22027408.9624  -18364789.96749 -14271174.32447  22027408.8874   22027411.8954
     -2413.7294      -1880.8204
  24965089.4714   -1228982.00449   -949296.29745  24965089.5334   24965094.8654
      1406.4584       1095.9414
  21240520.3624  -17797190.10749 -13559211.92947  21240521.1974   21240527.4544
      3120.6394       2431.6564
  20894304.2164  -23328405.94949 -18127697.17048  20894304.2014   20894309.3714
      1794.6894       1398.4534
  24147348.2894   -3748043.81849  -2667408.73345  24147347.2594   24147352.4984
      3065.4994       2388.6994
  20884217.6824  -19929624.31349 -15507500.86348  20884217.0604   20884222.7554
     -1785.2694      -1391.1234
 05  1 20  0  3 30.0000000  0  8G 6G17G 2G 8G26G29G21G10
  21417669.9294  -19009062.10749 -14787884.62748  21417670.0394   21417675.1894
       829.4754        646.3434
  20654450.1834  -26116523.47949 -20329664.93048  20654449.3944   20654454.8554
      -483.4974       -376.7534
  22041214.6734  -18292243.95949 -14214644.94947  22041213.8874   22041217.3804
     -2422.6924      -1887.8144
  24957099.6524   -1270976.21849   -982019.02645  24957099.0394   24957103.4834
      1393.2094       1085.6204
  21222748.5304  -17890587.78649 -13631989.29647  21222748.4084   21222753.5354
      3105.8644       2420.1554
  20884109.2094  -23381984.46649 -18169446.63848  20884108.6384   20884113.6044
      1777.2414       1384.8604
  24129843.2834   -3840017.29549  -2739076.24545  24129843.2794   24129849.4554
      3065.9414       2389.0404
  20894432.6974  -19875943.56449 -15465671.68648  20894432.2314   20894437.6834
     -1793.4614      -1397.5014
 05  1 20  0  4  0.0000000  0  8G 6G17G 2G 8G26G29G21G10
  21412986.6064  -19033675.24949 -14807063.66848  21412985.9944   21412991.2974
       811.0984        632.0224
  20657239.9504  -26101856.97449 -20318236.46948  20657239.6674   20657246.1164
      -494.3374       -385.1974
  22055070.8174  -18219429.42449 -14157906.35647  22055070.6064   22055073.1064
     -2431.6274      -1894.7734
  24949184.7934   -1312569.15949  -1014429.07945  24949184.0874   24949190.1954
      1379.6294       1075.0344
  21205060.2124  -17983541.87849 -13704421.01147  21205060.2804   21205065.6294
      3091.0234       2408.5834
  20874012.5184  -23435038.35849 -18210787.29648  20874012.5924   20874018.1114
      1759.7414       1371.2224
  24112340.2534   -3932003.63749  -2810753.81345  24112340.2014   24112344.7104
      3066.3984       2389.3964
  20904694.3144  -19822017.56649 -15423651.40848  20904693.5664   20904699.5904
     -1801.6184      -1403.8604
 05  1 20  0  4 30.0000000  0  9G18G 6G17G 2G 8G26G29G21G10
  25402857.2904    -346075.98649   -251487.40745  25402860.7434   25402870.9874
      2921.4434       2276.4394
  21408406.9384  -19057736.72649 -14825812.83748  21408407.0394   21408412.3914
       792.7094        617.6894
  20660093.5194  -26086865.15149 -20306554.51948  20660092.8294   20660098.6274
      -505.1674       -393.6404
  22068978.1134  -18146346.97649 -14100958.99447  22068977.8254   22068980.5214
     -2440.5474      -1901.7314
  24941347.2074   -1353759.08449  -1046525.09645  24941346.0564   24941351.4384
      1366.2844       1064.6384
  21187456.9634  -18076049.19749 -13776504.58447  21187456.8644   21187461.8254
      3076.1184       2396.9714
  20864017.0914  -23487565.92149 -18251717.83148  20864017.1594   20864022.0944
      1742.1814       1357.5424
  24094832.1314   -4024001.95949  -2882440.69545  24094833.5014   24094837.5724
      3066.7354       2389.6564
  20915002.4634  -19767848.16349 -15381441.47248  20915002.0004   20915007.1994
     -1809.6694      -1410.1384
 05  1 20  0  5  0.0000000  0  9G18G 6G17G 2G 8G26G29G21G10
  25386194.3774    -433672.77349   -319744.48445  25386194.2904   25386202.8694
      2918.3054       2273.9934
  21403933.8324  -19081245.88749 -14844131.63048  21403933.3564   21403938.7034
       774.3144        603.3604
  20663008.3634  -26071547.45449 -20294618.63548  20663007.6274   20663013.8114
      -516.0634       -402.1294
  22082935.4174  -18072997.20549 -14043803.31147  22082935.3014   22082939.1794
     -2449.4294      -1908.6474
  24933584.2534   -1394543.94749  -1078305.52245  24933583.5704   24933589.5534
      1352.7844       1054.1164
  21169938.5564  -18168106.84749 -13848237.76547  21169938.6694   21169943.5374
      3061.0584       2385.2354
  20854121.5804  -23539565.62249 -18292237.04548  20854122.0134   20854126.9894
      1724.5224       1343.7784
  24077324.2904   -4116011.08249  -2954136.01745  24077324.2834   24077329.9494
      3067.1604       2389.9834
  20925356.1964  -19713437.15149 -15339043.25748  20925355.4594   20925361.5154
     -1817.7064      -1416.3954
 05  1 20  0  5 30.0000000  0  9G18G 6G17G 2G 8G26G29G21G10
  25369546.0834    -521175.75049   -387928.40545  25369541.8814   25369551.8354
      2915.2364       2271.5994
  21399565.4144  -19104201.44549 -14862019.05448  21399565.1394   21399570.4694
       755.8284        588.9574
  20665985.2524  -26055903.08449 -20282428.20548  20665984.5924   20665990.6634
      -526.9704       -410.6284
  22096943.2944  -17999380.51149 -13986439.67447  22096943.7364   22096946.4344
     -2458.3304      -1915.5824
  24925900.9084   -1434920.70849  -1109767.88845  24925901.1974   24925905.2624
      1339.0924       1043.4494
  21152506.8594  -18259711.73249 -13919618.14947  21152506.3124   21152511.8154
      3045.9264       2373.4464
  20844327.5394  -23591036.02149 -18332343.81848  20844327.1644   20844332.4094
      1706.8634       1330.0224
  24059816.3904   -4208030.24849  -3025839.13845  24059813.9024   24059818.3354
      3067.4064       2390.1884
  20935756.6374  -19658786.27949 -15296458.15348  20935755.6834   20935761.1664
     -1825.6734      -1422.6024
 05  1 20  0  6  0.0000000  0  9G18G 6G17G 2G 8G26G29G21G10
  25352911.0734    -608584.24349   -456038.67245  25352909.9854   25352919.9274
      2912.0434       2269.1184
  21395302.1304  -19126602.61649 -14879474.48148  21395301.9884   21395307.7164
       737.3314        574.5424
  20669024.8044  -26039930.87349 -20269982.31648  20669024.1004   20669029.9364
      -537.9024       -419.1474
  22111003.8644  -17925497.43149 -13928868.46347  22111003.7134   22111007.1674
     -2467.2014      -1922.4904
  24918298.2954   -1474887.61249  -1140910.94945  24918296.7764   24918301.8144
      1325.3904       1032.7704
  21135160.3274  -18350861.01749 -13990643.51247  21135160.9384   21135166.4074
      3030.6954       2361.5784
  20834633.5524  -23641975.67849 -18372037.03048  20834633.6134   20834638.8544
      1689.1744       1316.2394
  24042301.6234   -4300058.67549  -3097549.48345  24042300.8024   24042306.0584
      3067.7414       2390.4404
  20946201.3264  -19603896.98049 -15253687.25248  20946200.4894   20946206.2274
     -1833.6024      -1428.7834
 05  1 20  0  6 30.0000000  0  9G18G 6G17G 2G 8G26G29G21G10
  25336296.7684    -695897.63749   -524074.94745  25336296.4064   25336303.4714
      2908.7984       2266.5944
  21391145.4794  -19148448.40249 -14896497.13948  21391145.0764   21391150.7074
       718.7804        560.0884
  20672126.0054  -26023630.35649 -20257280.60048  20672125.6564   20672131.8794
      -548.8494       -427.6774
  22125114.4274  -17851348.55449 -13871090.13347  22125114.1474   22125116.4464
     -2476.0714      -1929.4034
  24910766.2514   -1514442.26348  -1171732.70445  24910767.0464   24910773.8614
      1311.5314       1021.9694
  21117903.6694  -18441551.78549 -14061311.60347  21117903.3064   21117908.3574
      3015.3554       2349.6274
  20825042.2464  -23692383.00149 -18411315.43148  20825041.8854   20825046.6964
      1671.3854       1302.3754
  24024788.2454   -4392095.04549  -3169265.99845  24024786.3934   24024791.1804
      3067.9244       2390.5864
  20956691.5204  -19548771.08349 -15210731.98448  20956690.5734   20956696.2294
     -1841.4574      -1434.9024
 05  1 20  0  7  0.0000000  0  9G18G 6G17G 2G 8G26G29G21G10
  25319700.1754    -783115.13449   -592036.48245  25319699.8214   25319705.9324
      2905.6514       2264.1414
  21387093.1714  -19169737.93749 -14913086.35848  21387093.4614   21387099.4594
       700.2104        545.6134
  20675291.3084  -26007000.42149 -20244322.19748  20675290.6724   20675296.7044
      -559.8544       -436.2524
  22139274.0464  -17776934.24349 -13813104.98147  22139274.3014   22139277.9524
     -2484.9134      -1936.3014
  24903323.6674   -1553582.29449  -1202231.42245  24903323.0134   24903327.1614
      1297.7354       1011.2264
  21100733.7284  -18531780.85749 -14131619.91647  21100733.4204   21100738.9264
      2999.9184       2337.5924
  20815551.3864  -23742256.67449 -18450178.00948  20815550.8424   20815556.1244
      1653.6014       1288.5164
  24007271.8714   -4484138.19149  -3240987.81645  24007271.7784   24007276.8404
      3068.1884       2390.7854
  20967226.0294  -19493410.06049 -15167593.50848  20967225.2244   20967231.0364
     -1849.2694      -1440.9944
 05  1 20  0  7 30.0000000  0  9G18G 6G17G 2G 8G26G29G21G10
  25303120.8504    -870236.66249   -659923.24145  25303119.3534   25303126.6394
      2902.5024       2261.6844
  21383148.9264  -19190470.35349 -14929241.44948  21383148.3654   21383154.1504
       681.6604        531.1644
  20678518.3594  -25990040.26949 -20231106.48148  20678518.1754   20678523.7734
      -570.8764       -444.8404
  22153485.6674  -17702255.02349 -13754913.37747  22153485.3714   22153488.2874
     -2493.7154      -1943.1554
  24895951.5304   -1592306.05149  -1232405.75945  24895951.1774   24895956.7504
      1283.8204       1000.3834
  21083651.0564  -18621545.42749 -14201566.29247  21083651.7754   21083657.0494
      2984.3744       2325.4884
  20806162.1014  -23791595.35049 -18488623.70348  20806161.9424   20806167.0024
      1635.7244       1274.5904
  23989754.2844   -4576187.49849  -3312714.43645  23989754.5204   23989760.5494
      3068.3814       2390.9444
  20977805.6064  -19437815.62149 -15124273.15048  20977804.7624   20977810.5334
     -1857.0004      -1447.0104
 05  1 20  0  8  0.0000000  0  9G18G 6G17G 2G 8G26G29G21G10
  25286559.6674    -957261.65049   -727734.83545  25286560.9914   25286565.2374
      2899.2344       2259.1414
  21379308.9444  -19210644.84949 -14944961.81148  21379309.0644   21379315.0694
       663.0224        516.6404
  20681808.8964  -25972749.05649 -20217632.79748  20681808.3224   20681814.4054
      -581.9414       -453.4604
  22167746.6784  -17627311.37249 -13696515.72347  22167746.4264   22167749.8574
     -2502.5384      -1950.0324
  24888659.4504   -1630610.99849  -1262253.77245  24888659.3864   24888667.9924
      1269.8054        989.4554
  21066658.8334  -18710842.43049 -14271148.32047  21066658.8074   21066664.4214
      2968.7364       2313.2934
  20796875.1704  -23840397.48249 -18526651.31248  20796875.0524   20796880.3914
      1617.7914       1260.6144
  23972238.7734   -4668241.71449  -3384444.84745  23972237.2604   23972242.7664
      3068.5114       2391.0424
  20988428.6214  -19381989.46549 -15080772.22748  20988427.9194   20988433.6234
     -1864.7244      -1453.0294
 05  1 20  0  8 30.0000000  0  9G18G 6G17G 2G 8G26G29G21G10
  25270014.6584   -1044189.74249   -795470.90245  25270015.0884   25270020.8494
      2896.0054       2256.6214
  21375577.4534  -19230260.56549 -14960246.75348  21375576.7094   21375582.2224
       644.3984        502.1304
  20685162.5784  -25955125.93349 -20203900.48248  20685161.9524   20685167.3864
      -593.0244       -462.1004
  22182059.4314  -17552103.82849 -13637912.43847  22182058.2424   22182060.9024
     -2511.3194      -1956.8674
  24881454.4154   -1668494.77849  -1291773.59645  24881452.8124   24881459.4504
      1255.7394        978.5024
  21049755.3984  -18799669.18049 -14340363.92047  21049755.7984   21049760.8674
      2953.0104       2301.0464
  20787691.1054  -23888661.65249 -18564259.72848  20787690.9014   20787695.4794
      1599.8384       1246.6244
  23954719.0804   -4760300.04649  -3456178.50945  23954719.8704   23954725.6894
      3068.6324       2391.1404
  20999095.9744  -19325933.08349 -15037091.91448  20999095.4374   20999100.6354
     -1872.3634      -1458.9834
 05  1 20  0  9  0.0000000  0  9G18G 6G17G 2G 8G26G29G21G10
  25253492.9954   -1131020.22349   -863130.83945  25253492.2684   25253500.5334
      2892.7394       2254.0784
  21371950.5524  -19249316.63349 -14975095.61548  21371950.7844   21371955.8084
       625.7304        487.5834
  20688579.1704  -25937170.16749 -20189908.96048  20688578.8204   20688584.7794
      -604.1114       -470.7334
  22196419.9394  -17476632.90849 -13579103.92547  22196419.9654   22196423.2384
     -2520.0784      -1963.6934
  24874326.5984   -1705955.41049  -1320963.67145  24874326.5024   24874327.1374
      1241.6244        967.4954
  21032942.7874  -18888022.71749 -14409210.79247  21032942.9834   21032947.8474
      2937.1814       2288.7104
  20778609.1344  -23936386.64049 -18601447.99948  20778608.9694   20778614.2734
      1581.8434       1232.6004
  23937200.5424   -4852361.29249  -3527914.42945  23937200.8244   23937205.3134
      3068.7994       2391.2604
  21009806.6544  -19269648.16349 -14993233.51348  21009805.7644   21009811.7904
     -1879.9724      -1464.9124
 05  1 20  0  9 30.0000000  0  9G18G 6G17G 2G 8G26G29G21G10
  25236987.3924   -1217752.81849   -930714.49845  25236988.3324   25236995.7934
      2889.4554       2251.5194
  21368431.1624  -19267812.20449 -14989507.72748  21368431.1174   21368436.3854
       607.0234        473.0084
  20692060.1174  -25918880.88449 -20175657.55948  20692059.2334   20692064.8344
      -615.2464       -479.4094
  22210830.9204  -17400899.33049 -13520090.74647  22210831.0334   22210834.3864
     -2528.8214      -1970.5054
  24867279.5034   -1742990.84949  -1349822.37045  24867277.9964   24867282.6774
      1227.3794        956.3994
  21016220.0454  -18975900.06549 -14477686.59847  21016220.0314   21016225.0064
      2921.2794       2276.3264
  20769630.6344  -23983570.97449 -18638214.98948  20769630.5604   20769635.0574
      1563.7964       1218.5424
  23919682.3604   -4944424.34149  -3599651.80145  23919682.1854   23919685.7744
      3068.7704       2391.2474
  21020560.4134  -19213136.13149 -14949198.15248  21020559.4784   21020565.1604
     -1887.5034      -1470.7794
 05  1 20  0 10  0.0000000  0  9G18G 6G17G 2G 8G26G29G21G10
  25220501.4604   -1304387.05849   -998221.54145  25220499.2334   25220506.2164
      2886.1484       2248.9384
  21365017.6964  -19285746.64549 -15003482.58648  21365017.9574   21365023.6024
       588.3284        458.4344
  20695603.7694  -25900257.27349 -20161145.64348  20695603.2644   20695608.7614
      -626.4004       -488.1064
  22225292.8704  -17324903.73749 -13460873.40147  22225292.6504   22225295.5284
     -2537.5564      -1977.3174
  24860310.8604   -1779598.66249  -1378347.97345  24860311.6204   24860317.0954
      1213.1164        945.2844
  20999588.5054  -19063298.45549 -14545789.19047  20999588.6454   20999594.3044
      2905.2654       2263.8424
  20760754.5904  -24030213.46549 -18674559.75148  20760754.5604   20760759.3024
      1545.7574       1204.4864
  23902161.6134   -5036488.63549  -3671390.07845  23902161.6164   23902167.0474
      3068.8234       2391.2934
  21031357.1884  -19156398.93949 -14904987.33248  21031356.7774   21031361.9524
     -1894.9704      -1476.6014
 05  1 20  0 10 30.0000000  0  9G18G 6G17G 2G 8G26G29G21G10
  25204035.1184   -1390922.19549  -1065651.29645  25204037.0344   25204040.1514
      2882.8694       2246.3764
  21361712.8724  -19303119.23249 -15017019.63648  21361711.8814   21361717.8254
       569.5744        443.8274
  20699211.4114  -25881298.55649 -20146372.60848  20699210.7744   20699216.6094
      -637.5754       -496.8104
  22239805.7214  -17248646.39249 -13401452.10347  22239804.2774   22239807.4264
     -2546.2464      -1984.0894
  24853429.1814   -1815776.85849  -1406538.73145  24853427.0254   24853431.5554
      1198.7594        934.1024
  20983049.0694  -19150214.92949 -14613516.26447  20983049.0994   20983054.0684
      2889.1624       2251.2984
  20751982.0624  -24076312.71849 -18710481.22448  20751982.0524   20751987.1724
      1527.6134       1190.3494
  23884645.3064   -5128552.73049  -3743128.26145  23884643.5624   23884646.7674
      3068.7924       2391.2754
  21042197.0844  -19099438.02349 -14860602.18548  21042195.9404   21042201.2674
     -1902.3934      -1482.3854
 05  1 20  0 11  0.0000000  0  9G18G 6G17G 2G 8G26G29G21G10
  25187585.6024   -1477358.09349  -1133003.76145  25187585.9774   25187592.2634
      2879.5084       2243.7594
  21358513.0974  -19319929.19649 -15030118.27548  21358513.3574   21358518.9414
       550.7954        429.1904
  20702883.1624  -25862003.87849 -20131337.77848  20702882.4014   20702888.2104
      -648.8014       -505.5544
  22254365.4534  -17172128.02949 -13341827.41547  22254364.9554   22254368.4594
     -2555.0024      -1990.9024
  24846624.3784   -1851523.42349  -1434393.17945  24846622.8614   24846630.4874
      1184.3164        922.8414
  20966601.5764  -19236646.83849 -14680865.74547  20966601.8624   20966606.4694
      2872.9404       2238.6554
  20743313.2134  -24121867.53649 -18745978.45048  20743312.9694   20743318.3744
      1509.4544       1176.1964
  23867125.5984   -5220615.64749  -3814865.52646  23867124.7554   23867127.8504
      3068.7584       2391.2274
  21053078.5224  -19042255.09049 -14816044.03948  21053077.4454   21053082.7574
     -1909.7984      -1488.1564
 05  1 20  0 11 30.0000000  0  9G18G 6G17G 2G 8G26G29G21G10
  25171159.1154   -1563694.23649  -1200278.40545  25171157.4314   25171165.6984
      2876.1984       2241.1814
  21355422.4864  -19336175.70849 -15042777.86448  21355421.8454   21355427.0294
       531.9994        414.5474
  20706618.4364  -25842372.66249 -20116040.71748  20706617.7804   20706623.7024
      -660.0334       -514.3104
  22268975.6404  -17095349.09449 -13281999.67647  22268975.4004   22268978.9914
     -2563.6464      -1997.6474
  24839902.5134   -1886836.48549  -1461909.81545  24839903.8024   24839909.4614
      1169.9064        911.6194
  20950246.8524  -19322591.22649 -14747835.35247  20950247.0684   20950251.9874
      2856.6574       2225.9664
  20734748.4154  -24166876.48049 -18781050.32948  20734748.2944   20734753.2994
      1491.2014       1161.9764
  23849606.5584   -5312676.37649  -3886601.07446  23849605.4144   23849610.6614
      3068.6474       2391.1534
  21064001.2154  -18984851.65549 -14771314.07248  21064001.0324   21064006.5134
     -1917.1064      -1493.8484
 05  1 20  0 12  0.0000000  0  9G18G 6G17G 2G 8G26G29G21G10
  25154748.8104   -1649930.13849  -1267474.98745  25154748.4254   25154756.5454
      2872.9364       2238.6464
  21352438.0924  -19351858.22049 -15054997.98748  21352437.6104   21352442.4954
       513.2094        399.9054
  20710418.3194  -25822403.80649 -20100480.55448  20710417.9604   20710424.0074
      -671.2684       -523.0624
  22283635.9164  -17018310.37149 -13221969.50947  22283635.6634   22283639.0434
     -2572.3234      -2004.4084
  24833268.1134   -1921713.62549  -1489086.85045  24833267.5664   24833272.6144
      1155.3184        900.2544
  20933985.2104  -19408045.29649 -14814422.89347  20933985.0614   20933990.8564
      2840.2504       2213.1804
  20726287.7814  -24211338.62549 -18815696.12348  20726287.6184   20726292.4884
      1472.9564       1147.7594
  23832089.2974   -5404733.69549  -3958333.97946  23832088.6054   23832092.6834
      3068.4764       2391.0184
  21074967.0644  -18927229.47749 -14726413.65548  21074965.9954   21074971.5304
     -1924.3664      -1499.5014
 05  1 20  0 12 30.0000000  0  9G18G 6G17G 2G 8G26G29G21G10
  25138358.5294   -1736065.81649  -1334593.49945  25138357.2614   25138363.1194
      2869.5004       2235.9664
  21349560.3804  -19366975.98249 -15066778.02648  21349560.4324   21349565.6934
       494.3814        385.2294
  20714283.2244  -25802096.73649 -20084656.85048  20714282.6834   20714288.5734
      -682.5684       -531.8694
  22298345.9114  -16941012.21449 -13161737.18947  22298345.1274   22298348.2264
     -2580.9154      -2011.1024
  24826713.3614   -1956153.18149  -1515922.82245  24826711.8154   24826715.2524
      1140.7434        888.8844
  20917817.2764  -19493006.25349 -14880626.18347  20917817.4974   20917823.2334
      2823.7954       2200.3574
  20717930.6604  -24255252.55849 -18849914.74048  20717930.5754   20717935.5184
      1454.7094       1133.5344
  23814570.5664   -5496786.45049  -4030063.32246  23814570.7784   23814576.3724
      3068.3534       2390.9214
  21085973.3214  -18869389.83849 -14681343.78948  21085972.4184   21085978.2084
     -1931.5694      -1505.1194
 05  1 20  0 13  0.0000000  0  9G18G 6G17G 2G 8G26G29G21G10
  25121984.4664   -1822100.32149  -1401633.11445  25121984.6104   25121990.9534
      2866.1854       2233.3834
  21346791.4574  -19381528.42849 -15078117.57448  21346791.3564   21346796.7114
       475.5254        370.5374
  20718211.6694  -25781450.58949 -20068568.93248  20718211.3324   20718217.1454
      -693.8764       -540.6814
  22313104.1254  -16863455.24649 -13101303.20547  22313103.5444   22313106.2774
     -2589.5544      -2017.8314
  24820244.3004   -1990152.61149  -1542415.85445  24820244.2204   24820249.6414
      1125.9494        877.3614
  20901743.9204  -19577471.29449 -14946443.04747  20901744.2614   20901749.9614
      2807.2064       2187.4334
  20709679.0794  -24298617.24149 -18883705.37548  20709679.0404   20709683.7394
      1436.3944       1119.2704
  23797055.6424   -5588833.64349  -4101788.37246  23797054.6494   23797058.3834
      3068.1574       2390.7734
  21097021.5084  -18811334.55949 -14636105.89548  21097020.1934   21097025.8524
     -1938.7524      -1510.7164
 05  1 20  0 13 30.0000000  0  9G18G 6G17G 2G 8G26G29G21G10
  25105631.8074   -1908033.24949  -1468593.64645  25105631.1444   25105637.6974
      2862.7424       2230.7024
  21344128.8444  -19395514.97449 -15089016.14748  21344129.2614   21344135.1534
       456.6264        355.8144
  20722204.9964  -25760464.62249 -20052216.21748  20722204.5484   20722210.4314
      -705.2574       -549.5504
  22327910.7664  -16785640.14649 -13040668.03747  22327911.1434   22327914.2474
     -2598.1394      -2024.5194
  24813858.1674   -2023710.21149  -1568564.64445  24813856.9754   24813863.4414
      1111.1824        865.8604
  20885766.2284  -19661437.75249 -15011871.40848  20885766.2874   20885771.1524
      2790.5214       2174.4274
  20701531.4084  -24341431.60949 -18917067.19048  20701531.4224   20701536.4894
      1417.9844       1104.9214
  23779542.7594   -5680874.24049  -4173508.25246  23779540.2634   23779544.9224
      3067.8944       2390.5744
  21108108.6754  -18753065.18349 -14590701.17448  21108108.2804   21108113.6614
     -1945.8614      -1516.2514
 05  1 20  0 14  0.0000000  0  9G18G 6G17G 2G 8G26G29G21G10
  25089302.0954   -1993864.23649  -1535474.67145  25089299.7214   25089305.4974
      2859.3114       2228.0264
  21341576.2324  -19408935.00149 -15099473.28548  21341576.1824   21341581.4944
       437.7424        341.1044
  20726263.7104  -25739137.94549 -20035598.02148  20726263.1294   20726268.9604
      -716.5824       -558.3734
  22342768.6614  -16707567.55549 -12979832.26447  22342768.3364   22342771.6794
     -2606.7054      -2031.1964
  24807556.0744   -2056823.59849  -1594367.25545  24807556.9014   24807563.2094
      1096.3164        854.2764
  20869883.9204  -19744902.74849 -15076909.02348  20869883.8434   20869888.5834
      2773.7574       2161.3744
  20693489.4344  -24383694.21349 -18949999.06948  20693489.0404   20693494.1224
      1399.5754       1090.5834
  23762026.1804   -5772906.84049  -4245221.88846  23762026.5044   23762031.5654
      3067.6084       2390.3504
  21119238.6674  -18694583.20949 -14545130.78848  21119237.5444   21119242.8964
     -1952.9224      -1521.7594
 05  1 20  0 14 30.0000000  0  9G18G 6G17G 2G 8G26G29G21G10
  25072985.0454   -2079592.85549  -1602275.96745  25072983.2624   25072991.8694
      2855.8904       2225.3714
  21339130.3404  -19421787.95249 -15109488.54148  21339130.0074   21339135.2554
       418.8274        326.3594
  20730386.7994  -25717470.12349 -20018713.98648  20730386.1834   20730392.0314
      -727.9844       -567.2634
  22357674.8744  -16629237.85549 -12918796.14647  22357674.2084   22357676.4844
     -2615.2564      -2037.8624
  24801340.6554   -2089491.27949  -1619822.62045  24801340.0784   24801343.9614
      1081.4684        842.7024
  20854096.6034  -19827863.61549 -15141553.80448  20854096.3944   20854101.4074
      2756.8934       2148.2284
  20685551.6994  -24425404.06349 -18982500.22248  20685551.6534   20685556.8974
      1381.0944       1076.1774
  23744515.9694   -5864930.65649  -4316928.73046  23744514.8764   23744518.7054
      3067.2964       2390.0974
  21130406.5654  -18635890.21349 -14499395.97248  21130405.9664   21130411.4374
     -1959.9634      -1527.2444
 05  1 20  0 15  0.0000000  0  9G18G 6G17G 2G 8G26G29G21G10
  25056687.8734   -2165218.52149  -1668997.15745  25056689.0214   25056696.6394
      2852.4324       2222.6694
  21336791.9424  -19434073.23349 -15119061.45948  21336792.1424   21336797.7104
       399.8754        311.5884
  20734575.1034  -25695459.95549 -20001563.19348  20734574.6674   20734580.4874
      -739.4144       -576.1704
  22372629.3974  -16550651.71649 -12857560.20247  22372628.8174   22372630.9304
     -2623.8064      -2044.5294
  24795210.0884   -2121710.63649  -1644928.58445  24795210.5444   24795214.4904
      1066.4684        831.0124
  20838405.5214  -19910317.66949 -15205803.66848  20838406.0904   20838411.0174
      2739.9814       2135.0494
  20677720.8144  -24466560.00749 -19014569.76048  20677720.2524   20677725.0624
      1362.6674       1061.8214
  23727004.5854   -5956944.76549  -4388627.94246  23727004.3494   23727009.9404
      3067.0324       2389.8834
  21141616.1594  -18576987.57649 -14453497.79348  21141614.6654   21141620.5954
     -1966.9054      -1532.6524
 05  1 20  0 15 30.0000000  0  9G18G 6G17G 2G 8G26G29G21G10
  25040414.5794   -2250741.17749  -1735637.99545  25040413.9764   25040421.1784
      2849.0444       2220.0234
  21334562.3384  -19445790.27149 -15128191.59148  21334562.3034   21334567.8064
       380.9524        296.8454
  20738828.9954  -25673106.96249 -19984145.26348  20738828.2714   20738834.1554
      -750.8564       -585.0814
  22387632.0754  -16471809.89849 -12796125.01847  22387631.7734   22387633.8644
     -2632.3444      -2051.1694
  24789164.1044   -2153480.49549  -1669684.29545  24789164.1794   24789169.4924
      1051.4534        819.3144
  20822812.0834  -19992262.09849 -15269656.42748  20822812.2594   20822817.3084
      2722.9494       2121.7774
  20669993.9244  -24507161.31349 -19046207.11248  20669994.1304   20669999.0064
      1344.1244       1047.3704
  23709498.3734   -6048947.52049  -4460318.33946  23709498.1504   23709501.7994
      3066.5924       2389.5594
  21152864.3064  -18517876.92349 -14407437.53148  21152863.2154   21152868.6974
     -1973.8044      -1538.0254
 05  1 20  0 16  0.0000000  0  9G18G 6G17G 2G 8G26G29G21G10
  25024163.3144   -2336160.12649  -1802198.02945  25024161.5714   25024166.5784
      2845.5594       2217.3124
  21332441.5634  -19456938.65649 -15136878.62248  21332441.1724   21332446.3584
       361.9834        282.0654
  20743147.8324  -25650410.44749 -19966459.65248  20743147.3744   20743153.4544
      -762.3264       -594.0194
  22402683.7364  -16392712.89449 -12734490.99447  22402683.2074   22402686.3194
     -2640.7924      -2057.7674
  24783204.8304   -2184798.71849  -1694088.12545  24783204.7924   24783208.6424
      1036.4704        807.6354
  20807316.3654  -20073694.34749 -15333110.07648  20807316.1994   20807321.6614
      2705.8364       2108.4474
  20662373.3624  -24547206.56049 -19077411.17348  20662373.4514   20662378.5544
      1325.5784       1032.9194
  23691993.1554   -6140938.04549  -4531999.20546  23691992.4674   23691996.1724
      3066.1814       2389.2284
  21164151.5294  -18458560.11849 -14361216.62648  21164150.6344   21164156.2544
     -1980.6494      -1543.3604
 05  1 20  0 16 30.0000000  0  9G18G 6G17G 2G 8G26G29G21G10
  25007925.9604   -2421474.83249  -1868676.82545  25007926.5674   25007931.3314
      2842.1354       2214.6454
  21330427.6404  -19467517.94449 -15145122.20748  21330427.9374   21330433.0424
       343.0254        267.2964
  20747532.0774  -25627369.56049 -19948505.70448  20747531.5664   20747537.4304
      -773.8084       -602.9654
  22417782.7434  -16313361.29849 -12672658.59947  22417782.3844   22417785.8894
     -2649.3144      -2064.3984
  24777331.6294   -2215662.98749  -1718138.16645  24777330.4404   24777336.5314
      1021.2704        795.7934
  20791917.4964  -20154611.69449 -15396162.51348  20791917.7654   20791923.6854
      2688.6324       2095.0394
  20654859.4794  -24586694.84449 -19108181.24148  20654859.1464   20654864.0874
      1306.9974       1018.4404
  23674490.4654   -6232914.84249  -4603669.38646  23674488.6104   23674493.8324
      3065.6294       2388.7984
  21175478.0434  -18399038.55549 -14314836.17048  21175476.9864   21175482.8414
     -1987.4634      -1548.6684
 05  1 20  0 17  0.0000000  0  9G18G 6G17G 2G 8G26G29G21G10
  24991711.8124   -2506685.24649  -1935074.43845  24991710.0794   24991716.1944
      2838.6434       2211.9294
  21328522.7124  -19477527.62149 -15152921.92448  21328523.0454   21328528.3994
       324.0294        252.4924
  20751982.8734  -25603983.44349 -19930282.74748  20751982.1374   20751987.7784
      -785.3334       -611.9464
  22432932.1424  -16233755.81249 -12610628.35447  22432930.7774   22432934.6134
     -2657.7644      -2070.9884
  24771543.5414   -2246072.04949  -1741833.50845  24771543.1854   24771548.4174
      1006.0194        783.9084
  20776618.5844  -20235011.35249 -15458811.55748  20776618.6584   20776623.8474
      2671.3044       2081.5404
  20647451.3514  -24625625.23949 -19138516.58448  20647451.2984   20647455.9984
      1288.4054       1003.9564
  23656988.9134   -6324876.84049  -4675328.00846  23656989.9244   23656994.7094
      3065.1364       2388.4124
  21186843.2264  -18339313.63649 -14268297.26848  21186842.6444   21186848.3254
     -1994.2134      -1553.9314
 05  1 20  0 17 30.0000000  0  9G18G 6G17G 2G 8G26G29G21G10
  24975516.4814   -2591790.96349  -2001390.43745  24975516.0344   24975521.2254
      2835.1284       2209.1854
  21326727.0224  -19486967.31449 -15160277.50448  21326726.6524   21326732.1994
       305.0064        237.6694
  20756498.9174  -25580251.54749 -19911790.34948  20756498.3794   20756503.8854
      -796.8514       -620.9214
  22448128.3124  -16153897.03649 -12548400.75547  22448127.9424   22448131.0074
     -2666.1814      -2077.5464
  24765842.8964   -2276023.50449  -1765172.30145  24765844.1094   24765849.7644
       990.7654        772.0294
  20761418.1064  -20314890.84449 -15521055.26948  20761418.1014   20761422.8194
      2653.9334       2068.0044
  20640149.5914  -24663996.76449 -19168416.44648  20640149.5104   20640154.1864
      1269.7754        989.4354
  23639494.4044   -6416823.07849  -4746974.38346  23639493.3754   23639496.8174
      3064.5954       2387.9974
  21198246.5104  -18279387.01949 -14221601.18748  21198246.1574   21198251.3284
     -2000.8954      -1559.1344
 05  1 20  0 18  0.0000000  0  9G18G 6G17G 2G 8G26G29G21G10
  24959342.2254   -2676791.42249  -2067624.43245  24959342.2034   24959348.2234
      2831.6124       2206.4494
  21325038.7484  -19495836.67749 -15167188.67348  21325039.0384   21325044.5184
       285.9664        222.8314
  20761080.6144  -25556173.20549 -19893027.99948  20761080.0914   20761085.8264
      -808.4334       -629.9494
  22463372.4114  -16073785.65449 -12485976.25447  22463372.2884   22463375.9954
     -2674.5804      -2084.0904
  24760234.8264   -2305515.37849  -1788153.05345  24760233.0364   24760237.6874
       975.3684        760.0264
  20746316.7074  -20394247.66449 -15582891.70848  20746316.6454   20746321.8194
      2636.4864       2054.4044
  20632954.1394  -24701808.34749 -19197879.99048  20632953.8684   20632958.7884
      1251.0904        974.8734
  23622000.9574   -6508752.16549  -4818607.36646  23621999.6804   23622003.9404
      3064.0134       2387.5444
  21209689.1144  -18219260.34849 -14174749.21748  21209688.3534   21209693.4714
     -2007.5274      -1564.3114
 05  1 20  0 18 30.0000000  0  9G18G 6G17G 2G 8G26G29G21G10
  24943185.5034   -2761686.30049  -2133776.12445  24943185.4484   24943191.2114
      2828.1154       2203.7214
  21323459.2524  -19504135.13049 -15173654.97548  21323459.3004   21323465.1724
       266.9464        208.0124
  20765728.4574  -25531747.44249 -19873994.92848  20765728.0644   20765733.6594
      -820.0244       -638.9744
  22478666.5094  -15993422.24949 -12423355.43847  22478666.1284   22478669.1984
     -2682.9814      -2090.6364
  24754709.8364   -2334546.22449  -1810774.36845  24754709.1954   24754711.5294
       959.9914        748.0384
  20731315.6594  -20473079.06749 -15644318.73048  20731315.9644   20731320.7484
      2618.9314       2040.7284
  20625865.3474  -24739059.01649 -19226906.46248  20625865.0814   20625870.4514
      1232.3944        960.3094
  23604509.7214   -6600663.07049  -4890226.19146  23604509.1264   23604513.1594
      3063.3714       2387.0414
  21221168.5204  -18158934.82849 -14127742.30848  21221167.3804   21221173.3054
     -2014.1374      -1569.4564
 05  1 20  0 19  0.0000000  0  9G18G 6G17G 2G 8G26G29G21G10
  24927051.9554   -2846475.10049  -2199845.17145  24927051.2474   24927056.2764
      2824.5594       2200.9534
  21321989.2434  -19511862.52749 -15179676.30248  21321989.2204   21321994.4594
       247.9174        193.1834
  20770443.1514  -25506973.74449 -19854690.73948  20770442.5074   20770448.1534
      -831.6294       -648.0204
  22494006.0594  -15912807.60949 -12360538.86147  22494005.8024   22494008.8174
     -2691.3284      -2097.1384
  24749270.4704   -2363113.87749  -1833034.87745  24749269.7554   24749278.6424
       944.5194        735.9894
  20716415.1004  -20551382.38749 -15705334.26648  20716415.1824   20716419.9494
      2601.2884       2026.9794
  20618883.4154  -24775748.14849 -19255495.36948  20618883.5984   20618888.1784
      1213.6354        945.6924
  23587023.9474   -6692554.32749  -4961829.69146  23587022.6934   23587026.6674
      3062.7164       2386.5324
  21232685.2384  -18098411.94149 -14080581.61248  21232684.7084   21232690.1294
     -2020.6934      -1574.5654
 05  1 20  0 19 30.0000000  0  9G18G 6G17G 2G 8G26G29G21G10
  24910935.7194   -2931157.75849  -2265831.59245  24910935.3674   24910939.8604
      2820.9744       2198.1604
  21320627.5824  -19519018.32249 -15185252.22548  21320627.3744   21320632.3124
       228.8634        178.3374
  20775223.5234  -25481851.41249 -19835114.89148  20775222.9854   20775228.5914
      -843.2464       -657.0724
  22509394.6864  -15831942.34349 -12297527.00347  22509394.0954   22509396.6574
     -2699.6904      -2103.6584
  24743923.5504   -2391216.72249  -1854933.16445  24743922.7374   24743928.2184
       928.9794        723.8794
  20701615.3164  -20629155.27249 -15765936.46448  20701615.5374   20701620.5314
      2583.5554       2013.1564
  20612009.2194  -24811874.68949 -19283645.89648  20612008.9054   20612013.8454
      1194.8774        931.0754
  23569540.3604   -6784425.09149  -5033417.24046  23569540.4204   23569544.9334
      3062.0374       2386.0024
  21244239.4884  -18037693.25849 -14033268.33247  21244238.8434   21244244.0944
     -2027.2064      -1579.6414
 05  1 20  0 20  0.0000000  0  9G18G 6G17G 2G 8G26G29G21G10
  24894841.8254   -3015733.61149  -2331734.67445  24894841.2954   24894848.2904
      2817.4304       2195.3934
  21319374.7324  -19525602.44149 -15190382.67948  21319374.3264   21319379.6434
       209.8014        163.4844
  20780071.1034  -25456379.63849 -19815266.74348  20780070.4674   20780075.6024
      -854.9294       -666.1774
  22524829.9414  -15750827.16149 -12234320.35147  22524829.5134   22524832.7354
     -2708.0044      -2110.1234
  24738666.1864   -2418852.95449  -1876467.88345  24738664.8964   24738671.5564
       913.4274        711.7634
  20686917.1824  -20706394.91449 -15826123.16348  20686917.3114   20686922.0114
      2565.7314       1999.2714
  20605241.5234  -24847437.79849 -19311357.38048  20605241.4174   20605246.0264
      1176.0834        916.4314
  23552063.7984   -6876274.03949  -5104987.77646  23552061.7874   23552066.4744
      3061.2474       2385.3934
  21255831.3854  -17976780.37749 -13985803.72848  21255830.4174   21255835.6944
     -2033.6524      -1584.6614
 05  1 20  0 20 30.0000000  0  9G18G 6G17G 2G 8G26G29G21G10
  24878765.9984   -3100202.45449  -2397554.42445  24878766.3664   24878773.9094
      2813.8214       2192.5804
  21318230.0854  -19531614.40949 -15195067.30948  21318230.4634   21318235.8844
       190.7184        148.6074
  20784984.3134  -25430557.73749 -19795145.77148  20784983.9254   20784989.8144
      -866.5734       -675.2514
  22540312.8174  -15669462.62249 -12170919.43247  22540312.7224   22540316.4074
     -2716.3104      -2116.6044
  24733493.2214   -2446021.12949  -1897637.87945  24733492.7934   24733500.7524
       897.7984        699.5874
  20672320.6614  -20783099.14449 -15885892.65448  20672320.7464   20672325.6914
      2547.8264       1985.3164
  20598581.0664  -24882436.66749 -19338629.20348  20598581.1224   20598586.1414
      1157.2524        901.7544
  23534587.0204   -6968099.67349  -5176540.15946  23534587.3424   23534591.9464
      3060.4384       2384.7434
  21267459.3714  -17915674.57249 -13938188.80147  21267458.1654   21267463.7704
     -2040.0474      -1589.6484
 05  1 20  0 21  0.0000000  0  9G18G 6G17G 2G 8G26G29G21G10
  24862715.8794   -3184563.59549  -2463290.28545  24862715.5374   24862719.7144
      2810.2374       2189.7864
  21317195.8884  -19537054.15849 -15199306.04948  21317195.6164   21317200.5204
       171.6334        133.7414
  20789964.9884  -25404385.15849 -19774751.54948  20789964.4464   20789970.1934
      -878.3164       -684.4014
  22555843.6274  -15587849.39149 -12107324.68547  22555843.3084   22555846.8844
     -2724.5804      -2123.0594
  24728414.9434   -2472719.13749  -1918441.52845  24728413.4244   24728417.0164
       882.0574        687.3184
  20657826.6764  -20859264.97249 -15945242.61348  20657827.0264   20657831.9964
      2529.8514       1971.3114
  20592029.1144  -24916870.32749 -19365460.59748  20592028.8364   20592033.6844
      1138.3814        887.0564
  23517120.3394   -7059900.62849  -5248073.30846  23517118.8644   23517124.0144
      3059.6154       2384.1174
  21279122.7974  -17854377.37049 -13890424.73147  21279122.3424   21279128.2444
     -2046.4094      -1594.6044
 05  1 20  0 21 30.0000000  0  9G18G 6G17G 2G 8G26G29G21G10
  24846679.4774   -3268816.94449  -2528942.12945  24846679.9054   24846685.7914
      2806.6334       2186.9774
  21316269.3544  -19541921.27549 -15203098.58648  21316269.0594   21316274.3214
       152.5494        118.8724
  20795012.3684  -25377861.26949 -19754083.57548  20795011.8654   20795017.2374
      -890.0304       -693.5314
  22571421.0904  -15505988.37649 -12043536.91047  22571421.3014   22571423.9384
     -2732.8294      -2129.4734
  24723423.5134   -2498945.17349  -1938877.34745  24723424.0774   24723428.4724
       866.3034        675.0404
  20643435.5934  -20934890.47749 -16004171.54448  20643435.5304   20643441.1164
      2511.8024       1957.2514
  20585584.2044  -24950738.19249 -19391851.11248  20585583.7834   20585588.8614
      1119.5244        872.3554
  23499654.8624   -7151676.07249  -5319586.56046  23499654.3234   23499659.5164
      3058.7224       2383.4234
  21290824.3784  -17792890.59449 -13842512.94247  21290823.2524   21290828.6864
     -2052.7114      -1599.5164
 05  1 20  0 22  0.0000000  0  9G18G 6G17G 2G 8G26G29G21G10
  24830670.4834   -3352962.02949  -2594509.54845  24830669.7994   24830672.9394
      2803.0474       2184.1864
  21315451.7904  -19546215.59949 -15206444.79848  21315452.1174   21315457.2554
       133.4414        103.9834
  20800126.8984  -25350985.20949 -19733141.18948  20800125.9384   20800131.8054
      -901.7874       -702.6904
  22587046.9224  -15423880.12349 -11979556.45847  22587046.2584   22587048.7204
     -2741.0794      -2135.9064
  24718522.1714   -2524697.71249  -1958944.24945  24718521.3464   24718529.2744
       850.4624        662.6974
  20629148.0344  -21009972.69349 -16062677.13848  20629148.0024   20629152.9734
      2493.6454       1943.1004
  20579246.4814  -24984039.55349 -19417800.20848  20579246.8264   20579251.7064
      1100.6334        857.6384
  23482196.7734   -7243424.43849  -5391078.74546  23482195.3924   23482199.5804
      3057.8074       2382.7034
  21302560.8104  -17731215.66849 -13794454.54147  21302560.0404   21302564.6994
     -2058.9464      -1604.3754
 05  1 20  0 22 30.0000000  0  9G18G 6G17G 2G 8G26G29G21G10
  24814678.4994   -3436998.37149  -2659992.23945  24814677.2264   24814683.0694
      2799.3574       2181.3134
  21314744.1334  -19549936.98649 -15209344.54748  21314743.7794   21314748.9164
       114.3724         89.1154
  20805308.0604  -25323756.48149 -19711923.99348  20805307.5304   20805313.1244
      -913.5564       -711.8644
  22602717.3494  -15341525.34749 -11915383.90347  22602717.3754   22602720.3974
     -2749.2844      -2142.2974
  24713713.5354   -2549975.02049  -1978640.86045  24713713.3264   24713717.9214
       834.6614        650.3764
  20614964.6424  -21084509.18249 -16120757.48748  20614964.4204   20614969.0284
      2475.4254       1928.9024
  20573017.7744  -25016773.53049 -19443307.17448  20573017.6774   20573022.5534
      1081.7014        842.8834
  23464741.4034   -7335145.00649  -5462549.25846  23464741.6184   23464745.9914
      3056.9104       2382.0084
  21314332.5774  -17669353.65149 -13746250.36247  21314331.7174   21314336.9984
     -2065.1764      -1609.2344
 05  1 20  0 23  0.0000000  0  9G18G 6G17G 2G 8G26G29G21G10
  24798705.0974   -3520925.82349  -2725390.08845  24798705.7134   24798711.6594
      2795.7874       2178.5354
  21314144.9344  -19553085.26549 -15211797.73348  21314144.6494   21314150.1814
        95.2564         74.2274
  20810556.0174  -25296174.41849 -19690431.46848  20810555.7684   20810561.9334
      -925.3054       -721.0134
  22618435.8364  -15258924.64449 -11851019.71147  22618435.1594   22618439.1284
     -2757.4254      -2148.6434
  24708993.7894   -2574775.60949  -1997965.95245  24708992.5104   24708998.0404
       818.6584        637.9164
  20600884.3564  -21158497.91549 -16178411.01348  20600884.4494   20600889.5944
      2457.1514       1914.6644
  20566896.5624  -25048939.39049 -19468371.45548  20566896.5154   20566901.7324
      1062.7804        828.1454
  23447294.1864   -7426836.14849  -5533996.84846  23447292.8474   23447297.3984
      3055.8534       2381.1834
  21326139.4334  -17607306.20149 -13697901.68747  21326138.9034   21326144.1494
     -2071.3104      -1614.0044
 05  1 20  0 23 30.0000000  0  9G18G 6G17G 2G 8G26G29G21G10
  24782758.5434   -3604744.10949  -2790702.87445  24782758.1054   24782760.3574
      2792.1244       2175.6764
  21313654.3714  -19555660.26949 -15213804.20648  21313654.5404   21313659.7374
        76.1384         59.3294
  20815872.6664  -25268238.27749 -19668663.04648  20815872.4424   20815877.8674
      -937.1034       -730.2074
  22634200.5364  -15176078.45349 -11786464.14947  22634199.9114   22634203.6104
     -2765.6064      -2155.0174
  24704367.7874   -2599097.44449  -2016917.98845  24704366.0514   24704370.3134
       802.6824        625.4654
  20586910.0354  -21231936.31449 -16235635.71048  20586909.8484   20586914.6324
      2438.7274       1900.3124
  20560884.3584  -25080536.61649 -19492992.64848  20560884.2544   20560888.9004
      1043.7464        813.3134
  23429850.8524   -7518496.20649  -5605420.19546  23429850.4024   23429854.8514
      3054.8114       2380.3604
  21337981.9954  -17545074.80549 -13649409.67747  21337981.2054   21337986.2644
     -2077.4264      -1618.7754
 05  1 20  0 24  0.0000000  0  9G18G 6G17G 2G 8G26G29G21G10
  24766826.7974   -3688452.56749  -2855930.03145  24766826.9034   24766832.6664
      2788.4644       2172.8274
  21313274.3904  -19557661.80649 -15215363.82248  21313273.7414   21313279.1644
        57.0214         44.4344
  20821255.9004  -25239947.42549 -19646618.21448  20821255.5794   20821261.6474
      -948.9964       -739.4784
  22650012.2904  -15092987.82449 -11721718.10547  22650011.7864   22650016.1554
     -2773.7494      -2161.3664
  24699826.2394   -2622938.79149  -2035495.65845  24699827.4364   24699832.9144
       786.6324        612.9564
  20573040.0514  -21304821.73549 -16292429.50848  20573040.1584   20573045.2644
      2420.2544       1885.9214
  20554979.5974  -25111564.31949 -19517170.05448  20554979.7914   20554984.6264
      1024.7734        798.5294
  23412414.8894   -7610124.11449  -5676818.54046  23412414.7784   23412419.0704
      3053.7914       2379.5744
  21349859.3054  -17482661.07849 -13600775.58447  21349858.3144   21349863.5724
     -2083.4744      -1623.4864
 05  1 20  0 24 30.0000000  0  9G18G 6G17G 2G 8G26G29G21G10
  24750917.1134   -3772050.93249  -2921071.42745  24750918.2074   24750925.1084
      2784.7904       2169.9634
  21313002.3784  -19559089.79149 -15216476.51848  21313002.2094   21313007.4864
        37.8944         29.5284
  20826707.8414  -25211301.35949 -19624296.59848  20826707.0814   20826712.7744
      -960.8304       -748.6934
  22665869.7034  -15009653.66249 -11656782.30547  22665869.6044   22665873.8434
     -2781.8834      -2167.7014
  24695386.1554   -2646298.20749  -2053697.81245  24695384.2104   24695388.7634
       770.6184        600.4854
  20559276.0484  -21377152.06849 -16348790.78048  20559275.9704   20559280.8614
      2401.7184       1871.4704
  20549183.7594  -25142022.08349 -19540903.34948  20549183.5994   20549188.6694
      1005.7954        783.7374
  23394982.4374   -7701718.70349  -5748190.89746  23394984.4364   23394989.7334
      3052.5724       2378.6304
  21361770.0074  -17420066.23949 -13552000.37747  21361768.8344   21361775.0414
     -2089.4954      -1628.1704
 05  1 20  0 25  0.0000000  0  9G18G 6G17G 2G 8G26G29G21G10
  24735031.3164   -3855539.50749  -2986127.23945  24735029.7124   24735036.0044
      2781.1314       2167.1084
  21312839.8624  -19559944.25549 -15217142.32048  21312839.6214   21312844.8274
        18.8094         14.6594
  20832225.8884  -25182299.36449 -19601697.63248  20832225.6494   20832231.5244
      -972.6984       -757.9434
  22681774.3474  -14926076.53849 -11591657.23247  22681774.5444   22681777.1744
     -2789.9764      -2174.0134
  24691030.3134   -2669174.48549  -2071523.42945  24691029.5104   24691033.4474
       754.4904        587.9124
  20545618.3804  -21448924.96649 -16404717.68348  20545618.3194   20545622.8404
      2383.1094       1856.9694
  20543496.5864  -25171909.12649 -19564191.93548  20543496.5554   20543501.2594
       986.7464        768.8964
  23377561.4784   -7793278.78549  -5819536.37246  23377561.1964   23377565.9894
      3051.4324       2377.7364
  21373715.4714  -17357291.87349 -13503085.28347  21373714.7454   21373720.1004
     -2095.4624      -1632.8284
 05  1 20  0 25 30.0000000  0  9G18G 6G17G 2G 8G26G29G21G10
  24719162.1974   -3938917.25949  -3051096.78945  24719162.8134   24719169.5364
      2777.4184       2164.2264
  21312785.5134  -19560225.19849 -15217361.20748  21312785.3154   21312791.0814
         -.3404          -.2654
  20837813.2074  -25152940.78849 -19578820.81248  20837812.2874   20837818.0694
      -984.5914       -767.2194
  22697724.0624  -14842257.29549 -11526343.49447  22697724.3614   22697727.4014
     -2798.0134      -2180.2654
  24686767.5514   -2691565.81449  -2088971.20645  24686768.1264   24686774.1574
       738.2384        575.2514
  20532066.8264  -21520137.91049 -16460208.26248  20532067.1404   20532071.2404
      2364.3864       1842.3754
  20537917.6804  -25201224.93149 -19587035.39248  20537917.5974   20537922.7394
       967.7054        754.0544
  23360145.6654   -7884802.61349  -5890853.59946  23360144.9544   23360148.4824
      3050.1804       2376.7594
  21385695.3824  -17294339.15349 -13454031.20347  21385694.2794   21385699.8514
     -2101.3774      -1637.4404
 05  1 20  0 26  0.0000000  0  9G18G 6G17G 2G 8G26G29G21G10
  24703318.4214   -4022184.19949  -3115979.86445  24703317.9974   24703323.0784
      2773.6664       2161.2894
  21312841.9904  -19559932.43149 -15217133.06148  21312841.8764   21312846.3724
       -19.4574        -15.1624
  20843467.5234  -25123225.09549 -19555665.72148  20843467.0034   20843472.8254
      -996.5114       -776.5024
  22713720.8424  -14758196.60749 -11460841.63247  22713720.4304   22713724.0614
     -2806.0344      -2186.5234
  24682599.7754   -2713470.18249  -2106039.52945  24682600.2914   24682606.0594
       722.0124        562.6084
  20518621.4594  -21590788.69349 -16515260.79148  20518622.0274   20518627.1764
      2345.6294       1827.7634
  20532447.4664  -25229968.82149 -19609433.21248  20532447.8054   20532452.5894
       948.6414        739.1984
  23342737.0394   -7976289.02449  -5962141.66346  23342735.4564   23342740.0314
      3048.9064       2375.7564
  21397707.9154  -17231209.59549 -13404839.33347  21397707.5854   21397712.9954
     -2107.2514      -1642.0154
 05  1 20  0 26 30.0000000  0  9G18G 6G17G 2G 8G26G29G21G10
  24687493.3694   -4105339.88649  -3180776.34545  24687492.8154   24687498.3344
      2769.9914       2158.4304
  21313007.7724  -19559066.10249 -15216457.99248  21313007.0444   21313011.7484
       -38.5864        -30.0694
  20849190.0794  -25093151.52649 -19532231.77248  20849189.9044   20849195.6194
     -1008.4374       -785.7954
  22729764.2954  -14673895.11749 -11395152.14847  22729762.8244   22729765.5414
     -2814.0574      -2192.7744
  24678527.1444   -2734886.36749  -2122727.48945  24678525.7294   24678531.2844
       705.7614        549.9454
  20505285.4444  -21660875.08049 -16569873.54548  20505285.3864   20505290.1564
      2326.7794       1813.0734
  20527087.3024  -25258140.31749 -19631385.00848  20527087.0694   20527091.6194
       929.5314        724.3064
  23325333.5564   -8067736.62949  -6033399.49346  23325334.0174   23325337.5084
      3047.5744       2374.7164
  21409754.6294  -17167904.69049 -13355510.82447  21409753.8754   21409759.2544
     -2113.0674      -1646.5504
 05  1 20  0 27  0.0000000  0  9G18G 6G17G 2G 8G26G29G21G10
  24671690.1324   -4188384.01049  -3245485.85445  24671690.9774   24671696.1744
      2766.2034       2155.4744
  21313280.3924  -19557626.15449 -15215335.93048  21313280.2914   21313285.6814
       -57.6974        -44.9654
  20854980.9674  -25062719.72249 -19508518.67248  20854980.7174   20854986.4004
     -1020.3904       -795.1154
  22745850.2844  -14589353.59249 -11329275.58647  22745849.9864   22745853.4254
     -2822.0504      -2199.0134
  24674543.4234   -2755813.04849  -2139033.94945  24674543.2244   24674548.4324
       689.3964        537.1874
  20492056.2164  -21730394.63549 -16624044.60148  20492056.5444   20492061.2444
      2307.8294       1798.3064
