     2.11           OBSERVATION DATA    MIXED               RINEX VERSION / TYPE
RinEdit                                 20161116 232203 UTC PGM / RUN BY / DATE
G Obs Type D2 originated from  D2W                          COMMENT
G Obs Type L2 originated from  L2W                          COMMENT
G Obs Type P2 originated from  C2W                          COMMENT
G Obs Type S1 originated from  S1W                          COMMENT
G Obs Type S2 originated from  S2W                          COMMENT
FAA1                                                        MARKER NAME
92201M012                                                   MARKER NUMBER
AUTOMATIC           ESA/ESOC                                OBSERVER / AGENCY
3001347             SEPT POLARX4        2.5.2               REC # / TYPE / VERS
725235              LEIAR25.R4      NONE                    ANT # / TYPE
 -5246415.0000 -3077260.0000 -1913842.0000                  APPROX POSITION XYZ
        0.1262        0.0000        0.0000                  ANTENNA: DELTA H/E/N
    13    C1    L1    D1    S1    P1    P2    L2    D2    S2# / TYPES OF OBSERV
          C5    L5    D5    S5                              # / TYPES OF OBSERV
     1     1                                                WAVELENGTH FACT L1/2
     1.000                                                  INTERVAL
  2016     6    18     1     0    0.0000000     GPS         TIME OF FIRST OBS
    37                                                      # OF SATELLITES
                                                            END OF HEADER
 16  6 18  1  0  0.0000000  0 12G05G10G12G14G15G18G20G21G24G25G29G32
  24386338.634 7 128150926.84907     -2430.594 7        26.750    24386338.647 4
  24386347.327 4  99857828.20104     -1893.960 4        26.750                  
                                                
  24193715.219 7 127138824.60707      2901.372 7        29.250    24193715.027 4
  24193719.024 4  99069237.53604      2260.810 4        29.250    24193718.121 7
  94941356.71907      2166.694 7        45.000  
  22896017.661 7 120319404.30107      1976.422 7        34.250    22896017.438 5
  22896021.461 5  93755401.13705      1540.076 5        34.250                  
                                                
  25273373.686 6 132812636.50206      1725.037 6         9.000    25273373.226 1
  25273377.858 1 103490260.60801      1344.117 1         9.000                  
                                                
  22894117.385 7 120309462.81307     -1122.333 7        35.250    22894117.256 5
  22894118.655 5  93747661.68205      -874.541 5        35.250                  
                                                
  21035453.637 8 110542080.73808      1932.165 8        36.750    21035452.850 6
  21035453.092 6  86136688.74106      1505.587 6        36.750                  
                                                
  21065956.755 8 110702394.35708      -691.188 8        39.250    21065955.799 6
  21065957.640 6  86261648.80606      -538.584 6        39.250                  
                                                
  21295048.921 8 111906239.84608     -1192.181 8        39.000    21295048.014 6
  21295049.346 6  87199658.45706      -928.968 6        39.000                  
                                                
  21041243.060 8 110572572.51408     -1713.524 8        41.250    21041243.011 6
  21041246.427 6  86160528.88806     -1335.207 6        41.250    21041247.777 8
  82570489.25908     -1279.634 8        52.500  
  23902095.232 7 125606364.65907      2728.608 7        27.500    23902094.539 4
  23902103.125 4  97875130.82304      2126.190 4        27.500    23902105.776 7
  93797005.10507      2037.572 7        44.000  
  25078635.680 7 131789014.76607     -1276.428 7        26.000    25078635.466 4
  25078643.108 4 102692708.13904      -994.618 4        26.000                  
                                                
  24690149.217 6 129747856.74006      1376.650 6        24.250    24690149.377 4
  24690154.466 4 101102081.06604      1072.704 4        24.250    24690155.048 7
  96889500.08507      1028.043 7        43.500  
 16  6 18  1  0  1.0000000  0 12G05G10G12G14G15G18G20G21G24G25G29G32
  24386801.183 7 128153357.44007     -2430.812 7        27.000    24386801.196 4
  24386809.836 4  99859722.16504     -1894.132 4        27.000                  
                                                
  24193163.004 7 127135922.99307      2901.669 7        29.500    24193162.812 4
  24193166.859 4  99066976.53704      2261.037 4        29.500    24193165.983 7
  94939189.93807      2166.795 7        45.000  
  22895641.597 7 120317427.79907      1976.373 7        34.250    22895641.374 5
  22895645.340 5  93753861.00805      1540.031 5        34.250                  
                                                
  25273045.263 6 132810911.56706      1724.947 6         9.750    25273044.794 1
  25273049.592 1 103488916.49401      1344.108 1         9.750                  
                                                
  22894330.968 7 120310584.94007     -1122.109 7        35.250    22894330.839 5
  22894332.193 5  93748536.06605      -874.368 5        35.250                  
                                                
  21035086.061 8 110540148.48808      1932.166 8        36.750    21035085.274 6
  21035085.390 6  86135183.09106      1505.581 6        36.750                  
                                                
  21066088.350 8 110703085.62908      -691.534 8        39.250    21066087.394 6
  21066089.196 6  86262187.45706      -538.853 6        39.250                  
                                                
  21295275.897 8 111907432.15208     -1192.656 8        39.000    21295274.994 6
  21295276.218 6  87200587.52706      -929.341 6        39.000                  
                                                
  21041569.126 8 110574286.09908     -1713.885 8        41.250    21041569.077 6
  21041572.511 6  86161864.14606     -1335.490 6        41.250    21041573.879 8
  82571768.87508     -1279.818 8        52.500  
  23901575.849 7 125603635.86407      2728.811 7        27.750    23901575.152 4
  23901583.871 4  97873004.49304      2126.343 4        27.750    23901586.478 7
  93794967.36807      2037.780 7        43.750  
  25078878.467 7 131790290.73307     -1275.836 7        26.000    25078878.257 4
  25078885.908 4 102693702.39304      -994.156 4        26.000                  
                                                
  24689887.394 6 129746479.98206      1376.691 6        24.250    24689887.559 4
  24689892.474 4 101101008.26404      1072.740 4        24.250    24689893.087 7
  96888471.99007      1028.060 7        43.750  
 16  6 18  1  0  2.0000000  0 12G05G10G12G14G15G18G20G21G24G25G29G32
  24387263.782 7 128155788.25507     -2431.320 7        26.750    24387263.795 4
  24387272.390 4  99861616.31304     -1894.550 4        26.750                  
                                                
  24192610.875 7 127133021.23407      2901.454 7        29.500    24192610.688 4
  24192614.663 4  99064715.42504      2260.872 4        29.500    24192613.804 7
  94937023.03407      2166.649 7        45.000  
  22895265.435 7 120315451.40107      1976.037 7        34.500    22895265.207 5
  22895269.245 5  93752320.96005      1539.766 5        34.500                  
                                                
  25272716.912 6 132809186.68506      1724.532 6        10.000    25272716.439 1
  25272721.357 1 103487572.42601      1343.822 1        10.000                  
                                                
  22894544.573 7 120311706.95007     -1122.260 7        35.250    22894544.444 5
  22894545.709 5  93749410.35705      -874.490 5        35.250                  
                                                
  21034718.395 8 110538216.44308      1931.626 8        36.750    21034717.608 6
  21034717.724 6  86133677.60206      1505.161 6        36.750                  
                                                
  21066220.044 8 110703777.25908      -692.109 8        39.250    21066219.088 6
  21066220.809 6  86262726.38906      -539.304 6        39.250                  
                                                
  21295502.979 8 111908624.94308     -1193.365 8        39.000    21295502.076 6
  21295503.198 6  87201516.97206      -929.890 6        39.000                  
                                                
  21041895.286 8 110576000.05108     -1714.447 8        41.250    21041895.237 6
  21041898.658 6  86163199.69406     -1335.937 6        41.250    21041900.048 8
  82573048.78108     -1280.318 8        52.500  
  23901056.376 7 125600906.90607      2728.837 7        27.750    23901055.679 4
  23901064.577 4  97870878.03204      2126.364 4        27.750    23901067.193 7
  93792929.52007      2037.599 7        43.750  
  25079121.299 7 131791566.29007     -1275.682 7        26.000    25079121.098 4
  25079128.614 4 102694696.33604      -994.036 4        26.000                  
                                                
  24689625.218 6 129745103.24806      1376.392 6        24.250    24689625.383 4
  24689630.464 4 101099935.48304      1072.509 4        24.250    24689631.067 7
  96887443.90307      1027.844 7        43.500  
 16  6 18  1  0  3.0000000  0 12G05G10G12G14G15G18G20G21G24G25G29G32
  24387726.402 7 128158219.35907     -2431.779 7        27.000    24387726.415 4
  24387735.010 4  99863510.67704     -1894.888 4        27.000                  
                                                
  24192058.599 7 127130119.37307      2901.359 7        29.500    24192058.416 4
  24192062.453 4  99062454.23504      2260.789 4        29.500    24192061.689 7
  94934856.06207      2166.629 7        45.000  
  22894889.367 7 120313475.18607      1975.584 7        34.500    22894889.139 5
  22894893.182 5  93750781.05505      1539.412 5        34.500                  
                                                
  25272388.910 6 132807461.89706      1724.220 6         9.250    25272388.450 1
  25272393.135 1 103486228.42101      1343.427 1         9.250                  
                                                
  22894758.231 7 120312828.91107     -1122.422 7        35.500    22894758.106 5
  22894759.224 5  93750284.61205      -874.622 5        35.500                  
                                                
  21034350.792 8 110536284.64108      1931.152 8        36.750    21034350.005 6
  21034350.117 6  86132172.30206      1504.794 6        36.750                  
                                                
  21066351.832 8 110704469.31708      -692.793 8        39.250    21066350.876 6
  21066352.503 6  86263265.65306      -539.845 6        39.250                  
                                                
  21295730.160 8 111909818.27908     -1194.099 8        39.000    21295729.257 6
  21295730.280 6  87202446.84206      -930.472 6        39.000                  
                                                
  21042221.491 8 110577714.43108     -1715.128 8        41.250    21042221.442 6
  21042224.894 6  86164535.57206     -1336.461 6        41.250    21042226.284 8
  82574328.99708     -1280.782 8        52.500  
  23900537.037 7 125598177.85707      2728.631 7        27.750    23900536.335 4
  23900545.256 4  97868751.50004      2126.190 4        27.750    23900547.939 7
  93790891.58507      2037.563 7        43.750  
  25079363.799 6 131792841.48806     -1275.495 6        25.750    25079363.598 4
  25079371.280 4 102695689.99304      -993.889 4        25.750                  
                                                
  24689363.137 6 129743726.56606      1375.963 6        24.000    24689363.311 4
  24689368.503 4 101098862.74504      1072.178 4        24.000    24689369.088 7
  96886415.87107      1027.589 7        43.500  
 16  6 18  1  0  4.0000000  0 12G05G10G12G14G15G18G20G21G24G25G29G32
  24388189.045 7 128160650.24207     -2431.028 7        27.000    24388189.049 4
  24388197.582 4  99865404.86904     -1894.312 4        27.000                  
                                                
  24191506.461 7 127127216.92507      2902.417 7        29.500    24191506.283 4
  24191510.123 4  99060192.58504      2261.620 4        29.500    24191509.327 7
  94932688.64307      2167.483 7        45.000  
  22894513.152 7 120311498.63507      1976.468 7        34.500    22894512.920 5
  22894517.051 5  93749240.88805      1540.103 5        34.500                  
                                                
  25272060.876 6 132805736.73406      1725.048 6         9.000    25272060.407 1
  25272064.847 1 103484884.17901      1344.222 1         9.000                  
                                                
  22894971.631 7 120313950.30507     -1121.258 7        35.500    22894971.506 5
  22894972.628 5  93751158.42305      -873.694 5        35.500                  
                                                
  21033983.153 8 110534352.58608      1931.959 8        36.750    21033982.366 6
  21033982.460 6  86130666.80306      1505.432 6        36.750                  
                                                
  21066483.575 8 110705161.29208      -692.104 8        39.250    21066482.619 6
  21066484.178 6  86263804.85606      -539.305 6        39.250                  
                                                
  21295957.367 8 111911011.67108     -1193.672 8        39.000    21295956.464 6
  21295957.372 6  87203376.75706      -930.123 6        39.000                  
                                                
  21042547.696 8 110579428.73808     -1714.476 8        41.250    21042547.643 6
  21042551.112 6  86165871.39406     -1335.952 6        41.250    21042552.489 8
  82575609.15908     -1280.298 8        52.500  
  23900017.457 7 125595448.21807      2729.672 7        28.000    23900016.755 4
  23900025.819 4  97866624.51004      2127.016 4        28.000    23900028.457 7
  93788853.21307      2038.495 7        43.750  
  25079606.532 6 131794115.85406     -1274.087 6        25.250    25079606.336 4
  25079613.794 4 102696683.00304      -992.794 4        25.250                  
                                                
  24689100.813 6 129742349.47006      1377.092 6        24.000    24689100.987 4
  24689106.457 4 101097789.68004      1073.067 4        24.000    24689107.029 7
  96885387.52207      1028.385 7        43.750  
