     3.02           OBSERVATION DATA    MIXED               RINEX VERSION / TYPE
RinEdit                                 20170314 195428 UTC PGM / RUN BY / DATE
FAA1                                                        MARKER NAME
92201M012                                                   MARKER NUMBER
AUTOMATIC           ESA/ESOC                                OBSERVER / AGENCY
3001347             SEPT POLARX4        2.5.2               REC # / TYPE / VERS
725235              LEIAR25.R4      NONE                    ANT # / TYPE
 -5246415.0000 -3077260.0000 -1913842.0000                  APPROX POSITION XYZ
        0.1262        0.0000        0.0000                  ANTENNA: DELTA H/E/N
C    8 C2I L2I D2I S2I C7I L7I D7I S7I                      SYS / # / OBS TYPES
E   16 C1C L1C D1C S1C C5Q L5Q D5Q S5Q C7Q L7Q D7Q S7Q C8Q  SYS / # / OBS TYPES
       L8Q D8Q S8Q                                          SYS / # / OBS TYPES
G   18 C1C L1C D1C S1C C1W S1W C2W L2W D2W S2W C2L L2L D2L  SYS / # / OBS TYPES
       S2L C5Q L5Q D5Q S5Q                                  SYS / # / OBS TYPES
J   12 C1C L1C D1C S1C C2L L2L D2L S2L C5Q L5Q D5Q S5Q      SYS / # / OBS TYPES
R   12 C1C L1C D1C S1C C2P L2P D2P S2P C2C L2C D2C S2C      SYS / # / OBS TYPES
S    4 C1C L1C D1C S1C                                      SYS / # / OBS TYPES
DBHZ                                                        SIGNAL STRENGTH UNIT
     1.000                                                  INTERVAL
  2016     6    18     1     0    0.0000000     GPS         TIME OF FIRST OBS
C L7I  0.00000                                              SYS / PHASE SHIFT
C L2I  0.00000                                              SYS / PHASE SHIFT
E L1C  0.00000                                              SYS / PHASE SHIFT
E L5Q  0.00000                                              SYS / PHASE SHIFT
E L7Q  0.00000                                              SYS / PHASE SHIFT
E L8Q  0.00000                                              SYS / PHASE SHIFT
G L1C  0.00000                                              SYS / PHASE SHIFT
G L2W  0.00000                                              SYS / PHASE SHIFT
G L2L  0.00000                                              SYS / PHASE SHIFT
G L5Q  0.00000                                              SYS / PHASE SHIFT
J L1C  0.00000                                              SYS / PHASE SHIFT
J L2L  0.00000                                              SYS / PHASE SHIFT
J L5Q  0.00000                                              SYS / PHASE SHIFT
R L1C  0.00000                                              SYS / PHASE SHIFT
R L2C  0.00000                                              SYS / PHASE SHIFT
R L2P  0.00000                                              SYS / PHASE SHIFT
S L1C  0.00000                                              SYS / PHASE SHIFT
 10 R02 -4 R03  5 R04  6 R12 -1 R13 -2 R14 -7 R15  0 R17  4 GLONASS SLOT / FRQ #
    R18 -3 R19  3                                           GLONASS SLOT / FRQ #
 C1C    0.000 C1P    0.000 C2C    0.000 C2P    0.000        GLONASS COD/PHS/BIS
    37                                                      # OF SATELLITES
                                                            END OF HEADER
> 2016 06 18 01 00  0.0000000  0 37      
G05  24386338.634 7 128150926.84907     -2430.594 7        43.250    24386338.647 4        26.750    24386347.327 4  99857828.20104     -1893.960 4        26.750    24386348.262 6  99857829.19506     -1893.975 6        36.500                                                                  
G10  24193715.219 7 127138824.60707      2901.372 7        44.000    24193715.027 4        29.250    24193719.024 4  99069237.53604      2260.810 4        29.250    24193719.060 6  99069242.55606      2260.705 6        40.500    24193718.121 7  94941356.71907      2166.694 7        45.000  
G12  22896017.661 7 120319404.30107      1976.422 7        47.250    22896017.438 5        34.250    22896021.461 5  93755401.13705      1540.076 5        34.250    22896021.198 6  93755426.14906      1539.956 6        40.000                                                                  
G14  25273373.686 6 132812636.50206      1725.037 6        39.000    25273373.226 1         9.000    25273377.858 1 103490260.60801      1344.117 1         9.000                                                                                                                                  
G15  22894117.385 7 120309462.81307     -1122.333 7        46.500    22894117.256 5        35.250    22894118.655 5  93747661.68205      -874.541 5        35.250    22894119.089 6  93747670.67806      -874.527 6        41.250                                                                  
G18  21035453.637 8 110542080.73808      1932.165 8        48.500    21035452.850 6        36.750    21035453.092 6  86136688.74106      1505.587 6        36.750                                                                                                                                  
G20  21065956.755 8 110702394.35708      -691.188 8        48.250    21065955.799 6        39.250    21065957.640 6  86261648.80606      -538.584 6        39.250                                                                                                                                  
G21  21295048.921 8 111906239.84608     -1192.181 8        48.000    21295048.014 6        39.000    21295049.346 6  87199658.45706      -928.968 6        39.000                                                                                                                                  
G24  21041243.060 8 110572572.51408     -1713.524 8        48.250    21041243.011 6        41.250    21041246.427 6  86160528.88806     -1335.207 6        41.250    21041246.042 7  86160452.89707     -1335.222 7        46.750    21041247.777 8  82570489.25908     -1279.634 8        52.500  
G25  23902095.232 7 125606364.65907      2728.608 7        43.250    23902094.539 4        27.500    23902103.125 4  97875130.82304      2126.190 4        27.500    23902103.482 6  97875134.83106      2126.059 6        39.500    23902105.776 7  93797005.10507      2037.572 7        44.000  
G29  25078635.680 7 131789014.76607     -1276.428 7        42.250    25078635.466 4        26.000    25078643.108 4 102692708.13904      -994.618 4        26.000    25078643.957 6 102692740.11706      -994.669 6        36.000                                                                  
G32  24690149.217 6 129747856.74006      1376.650 6        39.750    24690149.377 4        24.250    24690154.466 4 101102081.06604      1072.704 4        24.250    24690154.726 6 101102078.04606      1072.744 6        38.750    24690155.048 7  96889500.08507      1028.043 7        43.500  
E09  23707713.561 8 124584934.02808       380.749 8        49.750    23707719.696 8  93034263.76408       284.353 8        49.000    23707715.721 8  95461224.88708       291.807 8        49.250    23707717.259 8  94247753.33108       288.081 8        52.250  
E11  27098309.099 6 142402470.03606     -2187.386 6        40.750    27098319.215 6 106339485.12606     -1633.467 6        40.250    27098314.823 6 109113548.69106     -1676.144 6        40.000    27098316.621 7 107726514.91607     -1654.806 7        43.000  
E14  19808430.618 6 104093894.65506     -2536.766 6        40.500    19808452.896 7  77732481.38907     -1894.448 7        42.500    19808448.165 6  79760272.35106     -1943.828 6        41.500    19808450.388 7  78746375.37607     -1919.125 7        45.000  
E22  26869415.355 7 141199743.76807        72.135 7        44.750    26869420.972 6 105441361.50406        53.917 6        38.500    26869417.068 6 108191992.56806        55.234 6        38.750    26869418.400 6 106816683.03906        54.584 6        41.750  
E24  23024763.241 8 120996045.38408      1285.801 8        50.000    23024781.176 8  90354302.29708       960.181 8        50.750    23024777.326 8  92711347.44108       985.245 8        51.000    23024778.695 9  91532830.37609       972.717 9        54.000  
R02  22145547.802 8 118172921.66708      -572.922 8        48.500    22145554.791 7  91912322.79607      -445.509 7        42.750    22145555.078 7  91912319.80707      -445.623 7        42.500  
R03  21239601.121 8 113697380.07708      1349.314 8        50.000    21239604.734 7  88431345.79407      1049.583 7        46.500    21239604.662 7  88431290.79907      1049.456 7        45.750  
R04  23627145.420 7 126522280.36107      2275.249 7        45.500    23627146.685 6  98406237.68206      1769.607 6        39.250    23627146.627 6  98406245.69306      1769.595 6        39.000  
R12  23837825.346 5 127337497.02605     -4061.980 5        35.250    23837832.850 6  99040351.06606     -3159.088 6        36.750    23837833.369 6  99040351.04906     -3159.221 6        37.250  
R13  19959975.560 7 106585261.56907     -1464.709 7        45.500    19959980.282 7  82899717.04207     -1139.125 7        45.250    19959980.797 7  82899768.04407     -1139.154 7        45.000  
R14  20094679.890 7 107116211.93907      2858.779 7        43.750    20094688.802 6  83312561.05506      2223.456 6        41.250    20094689.092 6  83312560.05506      2223.491 6        41.250  
R15  23513212.226 7 125647750.16107      4332.047 7        43.750    23513224.805 6  97725865.42206      3369.316 6        37.750    23513225.386 6  97725883.40906      3369.274 6        37.250  
R17  23981429.559 7 128329381.29207     -3028.822 7        43.000    23981440.071 6  99811728.24906     -2355.630 6        36.750    23981440.228 6  99811729.24706     -2355.932 6        36.500  
R18  22710498.725 7 121230146.96907     -2297.504 7        45.750    22710506.134 6  94290123.93906     -1786.941 6        41.500    22710506.308 6  94290134.93706     -1787.021 6        40.750  
R19  23750299.219 7 127048116.17407       116.257 7        44.250    23750305.229 6  98815189.51806        90.485 6        41.250    23750306.012 6  98815196.53006        90.323 6        41.000  
S29  40175446.095 6 211123391.60606         2.974 6        36.500  
S33  38853129.070 6 204174547.19406        39.566 6        41.250  
S35  36555175.513 8 192098729.98908        -2.020 8        50.500  
S37  40175413.515 6 211123216.06106         3.542 6        36.500  
S38  38074032.825 7 200080369.14607        -3.299 7        46.500  
C01  40815536.144 6 212537219.76206        -7.493 6        40.750    40815532.003 6 164347244.57106        -5.863 6        39.500  
C04  38860834.387 7 202358561.07007        -3.856 7        44.250    38860832.679 7 156476470.30707        -3.014 7        43.500  
C08  40654622.607 7 211699262.24707      -961.720 7        42.250    40654622.272 6 163699300.77206      -743.544 6        38.250  
C14  23218821.042 8 120906493.16108      -673.897 8        48.500    23218822.495 8  93492574.98708      -521.089 8        49.750  
J01  37791038.615 6 198593250.77906      1273.878 6        40.750    37791038.145 5 154747995.05005       992.949 5        33.500    37791043.332 6 148300165.71906       951.246 6        40.500  
> 2016 06 18 01 00  1.0000000  0 37      
G05  24386801.183 7 128153357.44007     -2430.812 7        43.250    24386801.196 4        27.000    24386809.836 4  99859722.16504     -1894.132 4        27.000    24386810.833 6  99859723.16806     -1894.085 6        36.500                                                                  
G10  24193163.004 7 127135922.99307      2901.669 7        44.000    24193162.812 4        29.500    24193166.859 4  99066976.53704      2261.037 4        29.500    24193167.083 6  99066981.56206      2260.963 6        40.500    24193165.983 7  94939189.93807      2166.795 7        45.000  
G12  22895641.597 7 120317427.79907      1976.373 7        47.250    22895641.374 5        34.250    22895645.340 5  93753861.00805      1540.031 5        34.250    22895645.156 6  93753886.01406      1540.019 6        40.000                                                                  
G14  25273045.263 6 132810911.56706      1724.947 6        38.750    25273044.794 1         9.750    25273049.592 1 103488916.49401      1344.108 1         9.750                                                                                                                                  
G15  22894330.968 7 120310584.94007     -1122.109 7        46.500    22894330.839 5        35.250    22894332.193 5  93748536.06605      -874.368 5        35.250    22894332.850 6  93748545.05606      -874.300 6        41.250                                                                  
G18  21035086.061 8 110540148.48808      1932.166 8        48.750    21035085.274 6        36.750    21035085.390 6  86135183.09106      1505.581 6        36.750                                                                                                                                  
G20  21066088.350 8 110703085.62908      -691.534 8        48.250    21066087.394 6        39.250    21066089.196 6  86262187.45706      -538.853 6        39.250                                                                                                                                  
G21  21295275.897 8 111907432.15208     -1192.656 8        48.000    21295274.994 6        39.000    21295276.218 6  87200587.52706      -929.341 6        39.000                                                                                                                                  
G24  21041569.126 8 110574286.09908     -1713.885 8        48.250    21041569.077 6        41.250    21041572.511 6  86161864.14606     -1335.490 6        41.250    21041572.162 7  86161788.14707     -1335.445 7        47.000    21041573.879 8  82571768.87508     -1279.818 8        52.500  
G25  23901575.849 7 125603635.86407      2728.811 7        43.250    23901575.152 4        27.750    23901583.871 4  97873004.49304      2126.343 4        27.750    23901584.372 6  97873008.49306      2126.396 6        39.250    23901586.478 7  93794967.36807      2037.780 7        43.750  
G29  25078878.467 7 131790290.73307     -1275.836 7        42.250    25078878.257 4        26.000    25078885.908 4 102693702.39304      -994.156 4        26.000    25078886.981 5 102693734.38605      -994.208 5        35.750                                                                  
G32  24689887.394 6 129746479.98206      1376.691 6        39.500    24689887.559 4        24.250    24689892.474 4 101101008.26404      1072.740 4        24.250    24689892.850 6 101101005.26006      1072.730 6        38.750    24689893.087 7  96888471.99007      1028.060 7        43.750  
E09  23707641.112 8 124584553.08508       380.919 8        49.750    23707647.206 8  93033979.29408       284.462 8        49.000    23707643.258 8  95460932.99808       291.891 8        49.000    23707644.769 8  94247465.15208       288.179 8        52.000  
E11  27098725.506 6 142404657.23506     -2187.269 6        40.750    27098735.442 6 106341118.41806     -1633.189 6        40.250    27098730.948 6 109115224.59306     -1676.018 6        39.750    27098732.840 7 107728169.51307     -1654.620 7        43.000  
E14  19808913.352 6 104096431.47606     -2536.940 6        40.500    19808935.626 7  77734375.74207     -1894.402 7        42.500    19808930.939 6  79762216.13306     -1943.888 6        41.250    19808933.122 7  78748294.44507     -1919.136 7        45.000  
E22  26869401.721 7 141199671.58807        71.938 7        44.750    26869407.306 6 105441307.59906        53.767 6        38.500    26869403.358 6 108191937.25806        55.236 6        38.750    26869404.677 6 106816628.43706        54.481 6        41.500  
E24  23024518.563 8 120994759.61808      1285.519 8        50.000    23024536.476 8  90353342.14908       959.978 8        50.500    23024532.653 8  92710362.24708       985.047 8        51.000    23024534.025 9  91531857.70509       972.521 9        54.000  
R02  22145655.001 8 118173494.49708      -572.991 8        48.500    22145662.048 7  91912768.33007      -445.708 7        42.750    22145663.032 7  91912765.33507      -445.653 7        42.500  
R03  21239349.082 8 113696030.56108      1349.443 8        50.250    21239352.566 7  88430296.17007      1049.640 7        46.500    21239352.610 7  88430241.16707      1049.584 7        45.750  
R04  23626720.638 7 126520004.81107      2275.673 7        45.500    23626721.742 6  98404467.80106      1770.049 6        39.750    23626722.283 6  98404475.81806      1770.018 6        39.250  
R12  23838586.189 5 127341558.81605     -4061.993 5        35.500    23838593.401 6  99043510.22906     -3159.345 6        37.250    23838593.956 6  99043510.21106     -3159.180 6        37.500  
R13  19960249.729 7 106586726.47407     -1465.406 7        45.500    19960254.657 7  82900856.41407     -1139.665 7        45.250    19960255.301 7  82900907.41207     -1139.680 7        45.000  
R14  20094143.653 7 107113353.32007      2858.128 7        43.750    20094152.502 6  83310337.68106      2223.142 6        41.750    20094152.516 6  83310336.67706      2223.137 6        41.250  
R15  23512401.713 7 125643418.05507      4332.071 7        43.750    23512414.135 6  97722496.00206      3369.334 6        37.000    23512414.685 6  97722513.99306      3369.342 6        37.250  
R17  23981995.662 7 128332409.89607     -3028.585 7        42.750    23982006.027 6  99814083.83406     -2355.571 6        36.250    23982005.763 6  99814084.82306     -2355.662 6        36.250  
R18  22710929.087 7 121232444.45007     -2297.668 7        45.750    22710936.505 6  94291910.86406     -1787.028 6        41.000    22710936.675 6  94291921.86206     -1787.050 6        40.750  
R19  23750277.563 7 127048000.05307       115.632 7        44.250    23750283.622 6  98815099.19906        90.178 6        41.250    23750284.239 6  98815106.20806        89.934 6        41.000  
S29  40175445.988 6 211123388.51306         3.157 6        36.000  
S33  38853119.890 6 204174507.48206        39.772 6        41.250  
S35  36555175.566 8 192098731.89108        -1.910 8        50.500  
S37  40175413.859 6 211123212.77006         3.186 6        37.000  
S38  38074033.728 7 200080372.33607        -3.106 7        46.750  
C01  40815537.374 6 212537227.19406        -7.373 6        40.750    40815533.403 6 164347250.30706        -5.559 6        39.500  
C04  38860834.896 7 202358564.79807        -3.734 7        44.250    38860833.318 7 156476473.18907        -2.838 7        43.500  
C08  40654807.075 7 211700223.84407      -961.657 7        42.250    40654806.883 6 163700044.34906      -743.668 6        38.000  
C14  23218950.379 8 120907167.01108      -674.019 8        48.250    23218951.859 8  93493096.04808      -521.198 8        49.500  
J01  37790796.181 6 198591976.63806      1274.132 6        40.750    37790795.783 5 154747002.23805       992.693 5        34.000    37790800.899 6 148299214.26006       951.460 6        40.500  
> 2016 06 18 01 00  2.0000000  0 37      
G05  24387263.782 7 128155788.25507     -2431.320 7        43.250    24387263.795 4        26.750    24387272.390 4  99861616.31304     -1894.550 4        26.750    24387273.512 6  99861617.30006     -1894.385 6        36.500                                                                  
G10  24192610.875 7 127133021.23407      2901.454 7        44.000    24192610.688 4        29.500    24192614.663 4  99064715.42504      2260.872 4        29.500    24192615.173 6  99064720.43306      2260.957 6        40.500    24192613.804 7  94937023.03407      2166.649 7        45.000  
G12  22895265.435 7 120315451.40107      1976.037 7        47.250    22895265.207 5        34.500    22895269.245 5  93752320.96005      1539.766 5        34.500    22895269.375 6  93752345.96506      1539.854 6        40.000                                                                  
G14  25272716.912 6 132809186.68506      1724.532 6        38.750    25272716.439 1        10.000    25272721.357 1 103487572.42601      1343.822 1        10.000                                                                                                                                  
G15  22894544.573 7 120311706.95007     -1122.260 7        46.500    22894544.444 5        35.250    22894545.709 5  93749410.35705      -874.490 5        35.250    22894546.375 6  93749419.36206      -874.595 6        41.250                                                                  
G18  21034718.395 8 110538216.44308      1931.626 8        48.750    21034717.608 6        36.750    21034717.724 6  86133677.60206      1505.161 6        36.750                                                                                                                                  
G20  21066220.044 8 110703777.25908      -692.109 8        48.250    21066219.088 6        39.250    21066220.809 6  86262726.38906      -539.304 6        39.250                                                                                                                                  
G21  21295502.979 8 111908624.94308     -1193.365 8        48.250    21295502.076 6        39.000    21295503.198 6  87201516.97206      -929.890 6        39.000                                                                                                                                  
G24  21041895.286 8 110576000.05108     -1714.447 8        48.500    21041895.237 6        41.250    21041898.658 6  86163199.69406     -1335.937 6        41.250    21041898.380 7  86163123.69907     -1335.915 7        47.000    21041900.048 8  82573048.78108     -1280.318 8        52.500  
G25  23901056.376 7 125600906.90607      2728.837 7        43.250    23901055.679 4        27.750    23901064.577 4  97870878.03204      2126.364 4        27.750    23901064.903 6  97870882.02706      2126.230 6        39.500    23901067.193 7  93792929.52007      2037.599 7        43.750  
G29  25079121.299 7 131791566.29007     -1275.682 7        42.000    25079121.098 4        26.000    25079128.614 4 102694696.33604      -994.036 4        26.000    25079129.374 5 102694728.32905      -993.943 5        35.250                                                                  
G32  24689625.218 6 129745103.24806      1376.392 6        39.500    24689625.383 4        24.250    24689630.464 4 101099935.48304      1072.509 4        24.250    24689630.714 6 101099932.46006      1072.664 6        38.750    24689631.067 7  96887443.90307      1027.844 7        43.500  
E09  23707568.591 8 124584172.07208       380.713 8        49.750    23707574.699 8  93033694.77408       284.308 8        49.000    23707570.746 8  95460641.05608       291.685 8        49.000    23707572.280 8  94247176.92108       287.995 8        52.000  
E11  27099141.416 6 142406844.14106     -2187.031 6        40.750    27099151.621 6 106342751.50706     -1633.294 6        40.250    27099147.118 6 109116900.27606     -1675.918 6        39.750    27099148.978 7 107729823.89907     -1654.602 7        43.000  
E14  19809396.042 6 104098968.40806     -2537.380 6        40.500    19809418.409 7  77736270.21407     -1894.791 7        42.500    19809413.629 6  79764160.02506     -1944.175 6        41.250    19809415.900 7  78750213.62707     -1919.476 7        44.750  
E22  26869388.007 7 141199599.69607        71.425 7        44.750    26869393.578 6 105441253.91006        53.341 6        38.500    26869389.670 6 108191882.17206        54.711 6        38.750    26869390.989 6 106816574.04606        54.059 6        41.500  
E24  23024273.907 8 120993474.19908      1284.948 8        50.000    23024291.869 8  90352382.26108       959.501 8        50.750    23024288.042 8  92709377.31708       984.532 8        51.000    23024289.410 9  91530885.29609       972.018 9        54.000  
R02  22145762.288 8 118174067.48608      -573.337 8        48.250    22145769.483 7  91913213.98307      -445.873 7        42.250    22145770.114 7  91913210.98707      -445.917 7        42.500  
R03  21239097.191 8 113694680.98208      1349.286 8        50.250    21239100.487 7  88429246.49607      1049.530 7        46.250    21239100.558 7  88429191.50607      1049.366 7        45.750  
R04  23626295.650 7 126517728.93707      2275.733 7        45.250    23626296.706 6  98402697.68606      1769.997 6        39.500    23626296.777 6  98402705.69506      1769.968 6        39.250  
R12  23839346.695 6 127345620.82106     -4062.505 6        36.000    23839353.997 6  99046669.58006     -3159.523 6        37.500    23839354.337 6  99046669.56006     -3159.721 6        37.750  
R13  19960524.072 7 106588192.13507     -1466.373 7        45.500    19960529.223 7  82901996.37407     -1140.451 7        45.250    19960529.697 7  82902047.37907     -1140.587 7        45.000  
R14  20093607.385 7 107110495.29207      2857.431 7        43.750    20093616.337 6  83308114.78506      2222.433 6        41.250    20093616.265 6  83308113.79406      2222.344 6        41.250  
R15  23511590.923 7 125639085.95807      4331.861 7        44.000    23511603.569 6  97719126.60306      3369.183 6        37.000    23511603.609 6  97719144.58606      3369.147 6        37.000  
R17  23982561.456 7 128335438.16207     -3028.447 7        42.750    23982571.960 5  99816439.16105     -2355.505 5        35.750    23982571.142 6  99816440.14506     -2355.568 6        36.250  
R18  22711359.382 7 121234742.11207     -2298.036 7        45.750    22711366.729 6  94293697.93506     -1787.329 6        41.250    22711366.693 6  94293708.94506     -1787.535 6        40.500  
R19  23750256.104 7 127047884.49807       114.900 7        44.250    23750262.181 6  98815009.33406        89.381 6        41.250    23750262.302 6  98815016.33306        89.396 6        41.000  
S29  40175444.235 6 211123385.46606         2.749 6        36.250  
S33  38853112.516 6 204174467.56006        39.584 6        41.250  
S35  36555176.116 8 192098733.82908        -2.253 8        50.250  
S37  40175412.786 6 211123209.68406         2.509 6        36.500  
S38  38074033.835 7 200080375.42307        -3.366 7        46.750  
C01  40815538.724 6 212537234.53906        -7.676 6        40.750    40815534.780 6 164347255.98206        -5.765 6        39.250  
C04  38860835.670 7 202358568.46807        -3.820 7        44.250    38860834.033 7 156476476.02107        -2.909 7        43.500  
C08  40654991.592 7 211701185.53907      -962.101 7        42.250    40654991.597 6 163700787.98206      -743.825 6        38.250  
C14  23219079.757 8 120907841.03408      -674.429 8        48.500    23219081.232 8  93493617.24108      -521.498 8        49.500  
J01  37790553.752 6 198590702.50506      1273.801 6        41.000    37790553.515 5 154746009.37705       992.576 5        34.000    37790558.403 6 148298262.78706       951.287 6        40.500  
