     3.02           OBSERVATION DATA    MIXED               RINEX VERSION / TYPE
RinEdit                                 20170314 195705 UTC PGM / RUN BY / DATE
FAA1                                                        MARKER NAME
92201M012                                                   MARKER NUMBER
AUTOMATIC           ESA/ESOC                                OBSERVER / AGENCY
3001347             SEPT POLARX4        2.5.2               REC # / TYPE / VERS
725235              LEIAR25.R4      NONE                    ANT # / TYPE
 -5246415.0000 -3077260.0000 -1913842.0000                  APPROX POSITION XYZ
        0.1262        0.0000        0.0000                  ANTENNA: DELTA H/E/N
C    8 C2I L2I D2I S2I C7I L7I D7I S7I                      SYS / # / OBS TYPES
E   16 C1C L1C D1C S1C C5Q L5Q D5Q S5Q C7Q L7Q D7Q S7Q C8Q  SYS / # / OBS TYPES
       L8Q D8Q S8Q                                          SYS / # / OBS TYPES
G   18 C1C L1C D1C S1C C1W S1W C2W L2W D2W S2W C2L L2L D2L  SYS / # / OBS TYPES
       S2L C5Q L5Q D5Q S5Q                                  SYS / # / OBS TYPES
J   12 C1C L1C D1C S1C C2L L2L D2L S2L C5Q L5Q D5Q S5Q      SYS / # / OBS TYPES
R   12 C1C L1C D1C S1C C2P L2P D2P S2P C2C L2C D2C S2C      SYS / # / OBS TYPES
S    4 C1C L1C D1C S1C                                      SYS / # / OBS TYPES
DBHZ                                                        SIGNAL STRENGTH UNIT
     1.000                                                  INTERVAL
  2016     6    18     1     0    3.0000000     GPS         TIME OF FIRST OBS
C L7I  0.00000                                              SYS / PHASE SHIFT
C L2I  0.00000                                              SYS / PHASE SHIFT
E L1C  0.00000                                              SYS / PHASE SHIFT
E L5Q  0.00000                                              SYS / PHASE SHIFT
E L7Q  0.00000                                              SYS / PHASE SHIFT
E L8Q  0.00000                                              SYS / PHASE SHIFT
G L1C  0.00000                                              SYS / PHASE SHIFT
G L2W  0.00000                                              SYS / PHASE SHIFT
G L2L  0.00000                                              SYS / PHASE SHIFT
G L5Q  0.00000                                              SYS / PHASE SHIFT
J L1C  0.00000                                              SYS / PHASE SHIFT
J L2L  0.00000                                              SYS / PHASE SHIFT
J L5Q  0.00000                                              SYS / PHASE SHIFT
R L1C  0.00000                                              SYS / PHASE SHIFT
R L2C  0.00000                                              SYS / PHASE SHIFT
R L2P  0.00000                                              SYS / PHASE SHIFT
S L1C  0.00000                                              SYS / PHASE SHIFT
 10 R02 -4 R03  5 R04  6 R12 -1 R13 -2 R14 -7 R15  0 R17  4 GLONASS SLOT / FRQ #
    R18 -3 R19  3                                           GLONASS SLOT / FRQ #
 C1C    0.000 C1P    0.000 C2C    0.000 C2P    0.000        GLONASS COD/PHS/BIS
    37                                                      # OF SATELLITES
                                                            END OF HEADER
> 2016 06 18 01 00  3.0000000  0 37      
G05  24387726.402 7 128158219.35907     -2431.779 7        43.500    24387726.415 4        27.000    24387735.010 4  99863510.67704     -1894.888 4        27.000    24387736.034 6  99863511.67006     -1895.102 6        36.250                                                                  
G10  24192058.599 7 127130119.37307      2901.359 7        44.000    24192058.416 4        29.500    24192062.453 4  99062454.23504      2260.789 4        29.500    24192062.659 6  99062459.25406      2260.819 6        40.000    24192061.689 7  94934856.06207      2166.629 7        45.000  
G12  22894889.367 7 120313475.18607      1975.584 7        47.000    22894889.139 5        34.500    22894893.182 5  93750781.05505      1539.412 5        34.500    22894893.365 6  93750806.05106      1539.529 6        40.000                                                                  
G14  25272388.910 6 132807461.89706      1724.220 6        38.750    25272388.450 1         9.250    25272393.135 1 103486228.42101      1343.427 1         9.250                                                                                                                                  
G15  22894758.231 7 120312828.91107     -1122.422 7        46.500    22894758.106 5        35.500    22894759.224 5  93750284.61205      -874.622 5        35.500    22894759.850 6  93750293.59506      -874.576 6        41.000                                                                  
G18  21034350.792 8 110536284.64108      1931.152 8        48.500    21034350.005 6        36.750    21034350.117 6  86132172.30206      1504.794 6        36.750                                                                                                                                  
G20  21066351.832 8 110704469.31708      -692.793 8        48.000    21066350.876 6        39.250    21066352.503 6  86263265.65306      -539.845 6        39.250                                                                                                                                  
G21  21295730.160 8 111909818.27908     -1194.099 8        48.000    21295729.257 6        39.000    21295730.280 6  87202446.84206      -930.472 6        39.000                                                                                                                                  
G24  21042221.491 8 110577714.43108     -1715.128 8        48.250    21042221.442 6        41.250    21042224.894 6  86164535.57206     -1336.461 6        41.250    21042224.657 7  86164459.57507     -1336.431 7        46.750    21042226.284 8  82574328.99708     -1280.782 8        52.500  
G25  23900537.037 7 125598177.85707      2728.631 7        43.250    23900536.335 4        27.750    23900545.256 4  97868751.50004      2126.190 4        27.750    23900545.507 6  97868755.49606      2126.224 6        39.500    23900547.939 7  93790891.58507      2037.563 7        43.750  
G29  25079363.799 6 131792841.48806     -1275.495 6        41.500    25079363.598 4        25.750    25079371.280 4 102695689.99304      -993.889 4        25.750    25079372.125 5 102695722.00605      -994.042 5        35.000                                                                  
G32  24689363.137 6 129743726.56606      1375.963 6        38.750    24689363.311 4        24.000    24689368.503 4 101098862.74504      1072.178 4        24.000    24689368.690 6 101098859.72206      1072.397 6        38.500    24689369.088 7  96886415.87107      1027.589 7        43.500  
E09  23707496.043 8 124583791.04208       380.563 8        49.750    23707502.192 8  93033410.24008       284.124 8        48.750    23707498.190 8  95460349.10208       291.464 8        49.000    23707499.764 8  94246888.67808       287.783 8        52.000  
E11  27099557.469 6 142409030.86506     -2186.982 6        40.750    27099567.750 6 106344384.45106     -1633.292 6        40.000    27099563.162 6 109118575.80906     -1675.721 6        39.750    27099565.094 7 107731478.13607     -1654.517 7        42.750  
E14  19809878.999 6 104101505.55506     -2537.867 6        40.500    19809901.129 7  77738164.84407     -1895.141 7        42.500    19809896.416 6  79766104.06606     -1944.523 6        41.250    19809898.697 7  78752132.96207     -1919.829 7        44.750  
E22  26869374.417 7 141199528.14207        70.849 7        44.750    26869380.061 6 105441200.49106        52.962 6        38.500    26869375.991 6 108191827.34106        54.379 6        38.750    26869377.369 6 106816519.92106        53.659 6        41.500  
E24  23024029.407 8 120992189.17608      1284.328 8        50.000    23024047.343 8  90351422.66508       959.074 8        50.750    23024043.493 8  92708392.68708       984.075 8        51.000    23024044.875 9  91529913.18309       971.579 9        54.000  
R02  22145869.777 8 118174640.70208      -573.816 8        48.500    22145876.954 7  91913659.80207      -446.163 7        42.750    22145877.263 7  91913656.81207      -446.257 7        42.250  
R03  21238845.148 8 113693331.42408      1349.004 8        50.250    21238848.372 7  88428196.83807      1049.388 7        46.250    21238848.632 7  88428141.84807      1049.250 7        45.750  
R04  23625870.386 7 126515452.80307      2275.761 7        45.250    23625871.687 6  98400927.36306      1770.049 6        39.250    23625871.852 6  98400935.36506      1769.985 6        39.250  
R12  23840107.283 5 127349683.05205     -4062.748 5        35.750    23840114.437 6  99049829.10306     -3160.020 6        37.750    23840114.553 6  99049829.08506     -3160.162 6        37.750  
R13  19960798.867 7 106589658.61807     -1467.476 7        45.250    19960803.727 7  82903136.97007     -1141.238 7        45.000    19960804.371 7  82903187.96907     -1141.286 7        45.000  
R14  20093071.349 7 107107637.92407      2856.591 7        44.000    20093080.377 6  83305892.39206      2221.792 6        41.250    20093079.943 6  83305891.39506      2221.705 6        41.250  
R15  23510780.616 7 125634753.96207      4331.421 7        44.000    23510792.846 6  97715757.24306      3369.230 6        37.250    23510792.949 6  97715775.25506      3368.939 6        37.250  
R17  23983127.563 7 128338466.15907     -3028.398 7        42.750    23983137.857 6  99818794.26606     -2355.184 6        36.250    23983136.999 6  99818795.25406     -2355.549 6        36.250  
R18  22711789.937 7 121237040.03907     -2298.603 7        45.750    22711797.311 6  94295485.18506     -1787.565 6        41.500    22711796.801 6  94295496.19806     -1787.855 6        40.500  
R19  23750234.891 7 127047769.58207       114.105 7        44.250    23750240.748 6  98814919.95006        88.683 6        41.000    23750241.048 6  98814926.94906        88.596 6        40.750  
S29  40175444.476 5 211123382.39105         2.562 5        35.250  
S33  38853104.731 6 204174427.64106        39.441 6        41.250  
S35  36555176.429 8 192098735.80708        -2.445 8        50.500  
S37  40175413.917 6 211123206.88806         2.151 6        36.750  
S38  38074034.421 7 200080378.50107        -3.541 7        46.500  
C01  40815540.039 6 212537241.86106        -7.572 6        40.750    40815536.247 6 164347261.65506        -6.055 6        39.250  
C04  38860836.287 7 202358572.08707        -3.946 7        44.250    38860834.615 7 156476478.82407        -3.056 7        43.500  
C08  40655176.243 7 211702147.39707      -962.386 7        42.250    40655176.494 6 163701531.76606      -744.141 6        38.000  
C14  23219209.197 8 120908515.28308      -674.861 8        48.500    23219210.695 8  93494138.61608      -521.837 8        49.500  
J01  37790311.140 6 198589428.38906      1273.570 6        40.750    37790311.869 5 154745016.60605       992.253 5        34.000    37790315.969 6 148297311.33906       951.082 6        40.500  
> 2016 06 18 01 00  4.0000000  0 37      
G05  24388189.045 7 128160650.24207     -2431.028 7        43.500    24388189.049 4        27.000    24388197.582 4  99865404.86904     -1894.312 4        27.000    24388198.498 6  99865405.86906     -1894.254 6        36.750                                                                  
G10  24191506.461 7 127127216.92507      2902.417 7        44.000    24191506.283 4        29.500    24191510.123 4  99060192.58504      2261.620 4        29.500    24191510.409 6  99060197.61206      2261.645 6        40.000    24191509.327 7  94932688.64307      2167.483 7        45.000  
G12  22894513.152 7 120311498.63507      1976.468 7        47.000    22894512.920 5        34.500    22894517.051 5  93749240.88805      1540.103 5        34.500    22894517.230 6  93749265.88306      1540.249 6        40.250                                                                  
G14  25272060.876 6 132805736.73406      1725.048 6        39.000    25272060.407 1         9.000    25272064.847 1 103484884.17901      1344.222 1         9.000                                                                                                                                  
G15  22894971.631 7 120313950.30507     -1121.258 7        46.500    22894971.506 5        35.500    22894972.628 5  93751158.42305      -873.694 5        35.500    22894973.173 6  93751167.42306      -873.724 6        41.250                                                                  
G18  21033983.153 8 110534352.58608      1931.959 8        48.500    21033982.366 6        36.750    21033982.460 6  86130666.80306      1505.432 6        36.750                                                                                                                                  
G20  21066483.575 8 110705161.29208      -692.104 8        48.250    21066482.619 6        39.250    21066484.178 6  86263804.85606      -539.305 6        39.250                                                                                                                                  
G21  21295957.367 8 111911011.67108     -1193.672 8        48.000    21295956.464 6        39.000    21295957.372 6  87203376.75706      -930.123 6        39.000                                                                                                                                  
G24  21042547.696 8 110579428.73808     -1714.476 8        48.250    21042547.643 6        41.250    21042551.112 6  86165871.39406     -1335.952 6        41.250    21042550.804 7  86165795.40107     -1335.953 7        46.750    21042552.489 8  82575609.15908     -1280.298 8        52.500  
G25  23900017.457 7 125595448.21807      2729.672 7        43.250    23900016.755 4        28.000    23900025.819 4  97866624.51004      2127.016 4        28.000    23900026.154 6  97866628.51506      2126.898 6        39.250    23900028.457 7  93788853.21307      2038.495 7        43.750  
G29  25079606.532 6 131794115.85406     -1274.087 6        41.500    25079606.336 4        25.250    25079613.794 4 102696683.00304      -992.794 4        25.250    25079614.152 5 102696715.00105      -992.933 5        35.000                                                                  
G32  24689100.813 6 129742349.47006      1377.092 6        38.750    24689100.987 4        24.000    24689106.457 4 101097789.68004      1073.067 4        24.000    24689106.770 6 101097786.67106      1072.990 6        38.750    24689107.029 7  96885387.52207      1028.385 7        43.750  
E09  23707423.420 8 124583409.51008       381.579 8        49.750    23707429.568 8  93033125.32408       284.940 8        49.000    23707425.624 8  95460056.75308       292.415 8        49.000    23707427.162 8  94246600.04508       288.684 8        52.000  
E11  27099973.482 6 142411216.90006     -2185.769 6        40.250    27099983.731 6 106346016.86606     -1632.209 6        40.000    27099979.175 6 109120250.82106     -1674.828 6        39.750    27099981.075 7 107733131.84907     -1653.531 7        42.750  
E14  19810361.738 6 104104042.41306     -2536.985 6        40.750    19810383.846 7  77740059.23907     -1894.421 7        42.500    19810379.235 6  79768047.89806     -1943.811 6        41.250    19810381.444 7  78754052.07407     -1919.092 7        44.750  
E22  26869360.752 7 141199456.43307        71.713 7        45.000    26869366.275 6 105441146.93406        53.598 6        38.250    26869362.317 6 108191772.41006        54.768 6        38.750    26869363.694 6 106816465.67506        54.220 6        41.500  
E24  23023784.854 8 120990904.06608      1285.026 8        49.750    23023802.754 8  90350463.00508       959.497 8        50.750    23023798.962 8  92707407.99408       984.562 8        51.000    23023800.331 8  91528941.00508       972.029 8        53.750  
R02  22145977.083 8 118175213.65908      -573.007 8        48.500    22145984.331 7  91914105.45307      -445.758 7        42.500    22145984.577 7  91914102.45507      -445.689 7        42.500  
R03  21238593.061 8 113691981.37108      1350.092 8        50.500    21238596.133 7  88427146.80807      1050.105 7        46.250    21238596.472 7  88427091.80907      1050.073 7        45.750  
R04  23625445.174 7 126513175.89307      2277.076 7        45.500    23625446.503 6  98399156.43206      1771.094 6        39.500    23625446.570 6  98399164.43206      1770.981 6        39.000  
R12  23840866.922 5 127353745.04605     -4061.864 5        35.750    23840874.859 6  99052988.43406     -3159.523 6        37.750    23840874.658 6  99052988.41206     -3159.343 6        37.750  
R13  19961073.371 7 106591125.40507     -1467.208 7        45.250    19961078.388 7  82904277.81907     -1141.228 7        45.250    19961078.920 7  82904328.80507     -1141.124 7        45.000  
R14  20092535.581 7 107104780.71907      2856.903 7        44.000    20092544.301 6  83303670.12406      2222.074 6        41.250    20092544.569 6  83303669.12206      2221.999 6        41.250  
R15  23509970.032 7 125630421.53007      4332.452 7        44.250    23509982.056 6  97712387.60906      3369.656 6        37.000    23509982.615 6  97712405.58706      3369.604 6        37.000  
R17  23983693.304 7 128341493.39407     -3027.046 7        42.750    23983703.576 6  99821148.80506     -2354.617 6        36.500    23983702.981 6  99821149.76706     -2354.286 6        36.500  
R18  22712220.492 7 121239337.71307     -2297.786 7        45.500    22712227.816 6  94297272.27306     -1787.134 6        41.250    22712227.311 6  94297283.27006     -1787.054 6        40.500  
R19  23750213.422 7 127047654.79307       114.548 7        44.500    23750219.218 6  98814830.67606        89.012 6        41.250    23750219.490 6  98814837.66906        88.998 6        41.000  
S29  40175444.226 6 211123378.75906         3.657 6        36.000  
S33  38853096.065 6 204174387.16806        40.452 6        41.500  
S35  36555176.823 8 192098737.22908        -1.413 8        50.250  
S37  40175410.541 6 211123203.45806         3.547 6        36.250  
S38  38074035.016 7 200080381.09907        -2.562 7        46.750  
C01  40815541.430 6 212537248.71506        -6.801 6        40.750    40815537.633 6 164347266.93606        -5.239 6        39.000  
C04  38860836.877 7 202358575.23407        -3.132 7        44.250    38860835.236 7 156476481.26807        -2.456 7        43.500  
C08  40655360.702 7 211703108.94007      -961.595 7        42.250    40655361.060 6 163702275.27706      -743.359 6        38.000  
C14  23219338.690 8 120909189.29108      -674.067 8        48.500    23219340.094 8  93494659.79408      -521.183 8        49.500  
J01  37790068.613 6 198588153.82806      1274.509 6        41.000    37790069.172 5 154744023.40705       993.241 5        34.000    37790073.379 6 148296359.55106       951.725 6        40.750  
