     2.11           OBSERVATION DATA    G (GPS)             RINEX VERSION / TYPE
teqc  2013Mar15     Mike Craymer        20160619 01:10:02UTCPGM / RUN BY / DATE
Linux 2.4.20-8|Pentium IV|gcc -static|Linux|486/DX+         COMMENT
BIT 2 OF LLI FLAGS DATA COLLECTED UNDER A/S CONDITION       COMMENT
CAGS                                                        MARKER NAME
40147M001                                                   MARKER NUMBER
MRC                 NRCan/GSD                               OBSERVER / AGENCY
4931K62895          TRIMBLE NETR8       4.17                REC # / TYPE / VERS
4926353381          TRM59800.00     NONE                    ANT # / TYPE
  1096349.1598 -4335060.6685  4533255.2278                  APPROX POSITION XYZ
        0.1000        0.0000        0.0000                  ANTENNA: DELTA H/E/N
     1     1                                                WAVELENGTH FACT L1/2
     7    L1    L2    L5    C1    P2    S1    S2            # / TYPES OF OBSERV
    30.0000                                                 INTERVAL
    17                                                      LEAP SECONDS
This data is subject to the Open Government Licence -Canada COMMENT
http://open.canada.ca/en/open-government-licence-canada     COMMENT
 SNR is mapped to RINEX snr flag value [0-9]                COMMENT
  L1 & L2: min(max(int(snr_dBHz/6), 0), 9)                  COMMENT
  2016     6    18     0     0    0.0000000     GPS         TIME OF FIRST OBS
                                                            END OF HEADER
 16  6 18  0  0  0.0000000  0  9G23G12G05G02G09G17G25G06G19
 127225622.518 7  99136823.86743                  24210211.688    24210214.102
        43.700          23.300
 112631357.909 8  87764674.00346                  21433018.867    21433023.684
        49.800          38.900
 124544132.849 6  97047453.01344                  23699966.039    23699973.609
        41.700          27.100
 110732546.723 8  86285109.01147                  21071690.820    21071692.648
        51.400          42.100
 122640591.620 6  95564073.90144  91582255.706 8  23337701.688    23337709.141
        40.800          27.100
 120768134.185 7  94104996.45445                  22981389.313    22981394.656
        46.900          32.300
 122409491.202 7  95384054.90144  91409728.435 8  23293751.141    23293758.242
        42.400          26.800
 108265802.735 8  84363130.86747  80848023.366 9  20602314.797    20602321.957
        52.100          44.600
 112449759.207 8  87623161.91346                  21398455.867    21398459.102
        48.900          41.000
 16  6 18  0  0 30.0000000  0  9G23G12G05G02G09G17G25G06G19
 127224594.196 7  99136022.58044                  24210014.664    24210019.539
        43.900          24.000
 112635267.779 8  87767720.63646                  21433763.992    21433767.520
        49.300          39.600
 124431752.231 6  96959883.78244                  23678579.297    23678587.922
        40.600          26.800
 110692378.420 8  86253809.04447                  21064047.484    21064049.020
        52.900          42.300
 122597414.519 7  95530429.46244  91550013.115 8  23329485.719    23329493.582
        44.100          26.900
 120853525.901 7  94171535.38645                  22997638.453    22997644.559
        46.300          31.800
 122349304.745 6  95337156.39344  91364784.040 8  23282296.273    23282305.074
        41.900          26.000
 108303545.057 8  84392540.46647  80876207.567 9  20609497.203    20609504.832
        53.100          44.700
 112516383.740 8  87675077.10746                  21411134.563    21411137.152
        48.100          40.400
 16  6 18  0  1  0.0000000  0  9G23G12G05G02G09G17G25G06G19
 127224078.016 7  99135620.39244                  24209917.070    24209920.832
        43.000          24.300
 112639813.920 8  87771263.07446                  21434627.984    21434632.566
        48.100          39.200
 124319532.173 7  96872439.66944                  23657225.523    23657232.977
        42.200          27.000
 110652441.666 8  86222689.50147                  21056447.344    21056448.938
        53.200          42.000
 122554715.908 7  95497157.85644  91518127.833 8  23321360.086    23321368.008
        43.600          28.600
 120939172.152 7  94238272.68545                  23013938.320    23013942.668
        47.300          33.100
 122289632.943 7  95290658.93644  91320223.969 8  23270942.672    23270949.773
        43.400          26.100
 108341577.341 8  84422176.00447  80904608.283 9  20616734.242    20616742.281
        52.800          43.700
 112583358.909 8  87727265.54146                  21423879.539    21423881.836
        48.800          40.600
 16  6 18  0  1 30.0000000  0  9G23G12G05G02G09G17G25G06G19
 127224075.237 7  99135618.18943                  24209919.633    24209919.875
        44.600          22.800
 112644997.752 8  87775302.41046                  21435614.820    21435618.758
        48.200          39.000
 124207475.944 7  96785123.20844                  23635903.398    23635909.270
        43.100          27.200
 110612737.919 8  86191751.52547                  21048892.461    21048893.879
        51.900          42.200
 122512499.159 6  95464261.70444  91486602.371 8  23313325.664    23313333.996
        39.800          26.800
 121025073.334 7  94305208.59745                  23030283.594    23030288.996
        47.000          32.100
 122230479.062 7  95244565.02844  91276050.640 8  23259686.305    23259693.230
        44.300          26.800
 108379899.986 8  84452037.78547  80933225.823 9  20624026.398    20624034.262
        51.200          44.200
 112650685.043 8  87779727.44046                  21436691.695    21436693.934
        49.200          40.400
 16  6 18  0  2  0.0000000  0  9G23G12G05G02G09G17G25G06G19
 127224584.851 7  99136015.29943                  24210013.984    24210017.395
        43.000          20.900
 112650817.075 7  87779836.94946                  21436722.195    21436726.484
        47.900          39.200
 124095584.691 7  96697935.30444                  23614611.805    23614616.973
        42.800          27.500
 110573266.053 8  86160994.23447                  21041380.883    21041382.594
        52.500          42.200
 122470764.931 7  95431741.57644  91455437.251 8  23305384.547    23305392.293
        43.700          29.300
 121111227.417 7  94372341.59145                  23046678.703    23046683.813
        47.200          31.700
 122171843.791 7  95198875.24344  91232264.605 8  23248527.555    23248535.887
        43.800          27.100
 108418510.680 8  84482124.04447  80962058.486 9  20631374.500    20631381.777
        52.600          44.900
 112718360.060 8  87832461.20046                  21449569.172    21449572.230
        48.200          40.600
 16  6 18  0  2 30.0000000  0  9G23G12G05G02G09G17G25G06G19
 127225607.993 7  99136812.59343                  24210207.906    24210211.551
        43.800          22.500
 112657272.346 8  87784867.02346                  21437950.688    21437955.504
        49.000          40.100
 123983861.369 7  96610878.26044                  23593350.828    23593356.465
        43.200          26.500
 110534026.232 8  86130417.75247                  21033914.227    21033915.586
        52.700          42.400
 122429515.787 7  95399599.41644  91424634.356 8  23297534.828    23297542.691
        42.600          28.900
 121197633.560 7  94439671.01345                  23063120.547    23063126.359
        46.700          31.200
 122113729.527 7  95153591.38944  91188867.617 8  23237469.266    23237476.543
        44.600          27.500
 108457408.997 8  84512434.41247  80991105.923 9  20638776.055    20638783.801
        51.800          44.300
 112786383.336 8  87885466.32646                  21462513.766    21462516.180
        49.900          40.300
