     2.11           OBSERVATION DATA    M (MIXED)           RINEX VERSION / TYPE
teqc  2011Oct11                         20160618 01:19:13UTCPGM / RUN BY / DATE
Linux 2.4.21-27.ELsmp|Opteron|gcc|Linux x86_64|=+           COMMENT
teqc  2015Jun23                         20160618 01:19:04UTCCOMMENT
Linux 2.4.21-27.ELsmp|Opteron|gcc -static|Linux x86_64|=+   COMMENT
BIT 2 OF LLI FLAGS DATA COLLECTED UNDER A/S CONDITION       COMMENT
FAA1                                                        MARKER NAME
92201M012                                                   MARKER NUMBER
AUTOMATIC           ESA/ESOC                                OBSERVER / AGENCY
3001347             SEPT POLARX4        2.5.2               REC # / TYPE / VERS
725235              LEIAR25.R4      NONE                    ANT # / TYPE
 -5246415.0000 -3077260.0000 -1913842.0000                  APPROX POSITION XYZ
        0.1262        0.0000        0.0000                  ANTENNA: DELTA H/E/N
     1     1                                                WAVELENGTH FACT L1/2
    17    C1    P1    L1    S1    C2    P2    L2    S2    C5# / TYPES OF OBSERV
          L5    S5    C7    L7    S7    C8    L8    S8      # / TYPES OF OBSERV
 SNR is mapped to RINEX snr flag value [0-9]                COMMENT
  L1 & L2: min(max(int(snr_dBHz/6), 0), 9)                  COMMENT
teqc_SBF.bin edited: all SBAS satellites excluded           COMMENT
teqc_SBF.bin edited: all Galileo satellites excluded        COMMENT
teqc_SBF.bin edited: all Compass satellites excluded        COMMENT
teqc_SBF.bin edited: all QZSS satellites excluded           COMMENT
    17                                                      LEAP SECONDS
  2016     6    18     1     0    0.0000000     GPS         TIME OF FIRST OBS
                                                            END OF HEADER
 16  6 18  1  0  0.0000000  0 22G12G24G14G21G25G32G05G20G18R14R13G29
                                G10R02R12R15G15R04R17R18R03R19
  22896017.661    22896017.438   120319404.301 7        47.250    22896021.198
  22896021.461    93755426.149 6        40.000


  21041243.060    21041243.011   110572572.514 8        48.250    21041246.042
  21041246.427    86160452.897 7        46.750    21041247.777    82570489.259 8
        52.500

  25273373.686    25273373.226   132812636.502 6        39.000
  25273377.858   103490260.60841         9.000


  21295048.921    21295048.014   111906239.846 8        48.000
  21295049.346    87199658.45746        39.000


  23902095.232    23902094.539   125606364.659 7        43.250    23902103.482
  23902103.125    97875134.831 6        39.500    23902105.776    93797005.105 7
        44.000

  24690149.217    24690149.377   129747856.740 6        39.750    24690154.726
  24690154.466   101102078.046 6        38.750    24690155.048    96889500.085 7
        43.500

  24386338.634    24386338.647   128150926.849 7        43.250    24386348.262
  24386347.327    99857829.195 6        36.500


  21065956.755    21065955.799   110702394.357 8        48.250
  21065957.640    86261648.80646        39.250


  21035453.637    21035452.850   110542080.738 8        48.500
  21035453.092    86136688.74146        36.750


  20094679.890                   107116211.939 7        43.750    20094689.092
  20094688.802    83312561.055 6        41.250


  19959975.560                   106585261.569 7        45.500    19959980.797
  19959980.282    82899717.042 7        45.250


  25078635.680    25078635.466   131789014.766 7        42.250    25078643.957
  25078643.108   102692740.117 6        36.000


  24193715.219    24193715.027   127138824.607 7        44.000    24193719.060
  24193719.024    99069242.556 6        40.500    24193718.121    94941356.719 7
        45.000

  22145547.802                   118172921.667 8        48.500    22145555.078
  22145554.791    91912322.796 7        42.750


  23837825.346                   127337497.026 5        35.250    23837833.369
  23837832.850    99040351.066 6        36.750


  23513212.226                   125647750.161 7        43.750    23513225.386
  23513224.805    97725865.422 6        37.750


  22894117.385    22894117.256   120309462.813 7        46.500    22894119.089
  22894118.655    93747670.678 6        41.250


  23627145.420                   126522280.361 7        45.500    23627146.627
  23627146.685    98406237.682 6        39.250


  23981429.559                   128329381.292 7        43.000    23981440.228
  23981440.071    99811728.249 6        36.750


  22710498.725                   121230146.969 7        45.750    22710506.308
  22710506.134    94290123.939 6        41.500


  21239601.121                   113697380.077 8        50.000    21239604.662
  21239604.734    88431345.794 7        46.500


  23750299.219                   127048116.174 7        44.250    23750306.012
  23750305.229    98815189.518 6        41.250


 16  6 18  1  0  1.0000000  0 22G12G24G14G21G25G32G05G20G18R14R13G29
                                G10R02R12R15G15R04R17R18R03R19
  22895641.597    22895641.374   120317427.799 7        47.250    22895645.156
  22895645.340    93753886.014 6        40.000


  21041569.126    21041569.077   110574286.099 8        48.250    21041572.162
  21041572.511    86161788.147 7        47.000    21041573.879    82571768.875 8
        52.500

  25273045.263    25273044.794   132810911.567 6        38.750
  25273049.592   103488916.49441         9.750


  21295275.897    21295274.994   111907432.152 8        48.000
  21295276.218    87200587.52746        39.000


  23901575.849    23901575.152   125603635.864 7        43.250    23901584.372
  23901583.871    97873008.493 6        39.250    23901586.478    93794967.368 7
        43.750

  24689887.394    24689887.559   129746479.982 6        39.500    24689892.850
  24689892.474   101101005.260 6        38.750    24689893.087    96888471.990 7
        43.750

  24386801.183    24386801.196   128153357.440 7        43.250    24386810.833
  24386809.836    99859723.168 6        36.500


  21066088.350    21066087.394   110703085.629 8        48.250
  21066089.196    86262187.45746        39.250


  21035086.061    21035085.274   110540148.488 8        48.750
  21035085.390    86135183.09146        36.750


  20094143.653                   107113353.320 7        43.750    20094152.516
  20094152.502    83310337.681 6        41.750


  19960249.729                   106586726.474 7        45.500    19960255.301
  19960254.657    82900856.414 7        45.250


  25078878.467    25078878.257   131790290.733 7        42.250    25078886.981
  25078885.908   102693734.386 5        35.750


  24193163.004    24193162.812   127135922.993 7        44.000    24193167.083
  24193166.859    99066981.562 6        40.500    24193165.983    94939189.938 7
        45.000

  22145655.001                   118173494.497 8        48.500    22145663.032
  22145662.048    91912768.330 7        42.750


  23838586.189                   127341558.816 5        35.500    23838593.956
  23838593.401    99043510.229 6        37.250


  23512401.713                   125643418.055 7        43.750    23512414.685
  23512414.135    97722496.002 6        37.000


  22894330.968    22894330.839   120310584.940 7        46.500    22894332.850
  22894332.193    93748545.056 6        41.250


  23626720.638                   126520004.811 7        45.500    23626722.283
  23626721.742    98404467.801 6        39.750


  23981995.662                   128332409.896 7        42.750    23982005.763
  23982006.027    99814083.834 6        36.250


  22710929.087                   121232444.450 7        45.750    22710936.675
  22710936.505    94291910.864 6        41.000


  21239349.082                   113696030.561 8        50.250    21239352.610
  21239352.566    88430296.170 7        46.500


  23750277.563                   127048000.053 7        44.250    23750284.239
  23750283.622    98815099.199 6        41.250


 16  6 18  1  0  2.0000000  0 22G12G24G14G21G25G32G05G20G18R14R13G29
                                G10R02R12R15G15R04R17R18R03R19
  22895265.435    22895265.207   120315451.401 7        47.250    22895269.375
  22895269.245    93752345.965 6        40.000


  21041895.286    21041895.237   110576000.051 8        48.500    21041898.380
  21041898.658    86163123.699 7        47.000    21041900.048    82573048.781 8
        52.500

  25272716.912    25272716.439   132809186.685 6        38.750
  25272721.357   103487572.42641        10.000


  21295502.979    21295502.076   111908624.943 8        48.250
  21295503.198    87201516.97246        39.000


  23901056.376    23901055.679   125600906.906 7        43.250    23901064.903
  23901064.577    97870882.027 6        39.500    23901067.193    93792929.520 7
        43.750

  24689625.218    24689625.383   129745103.248 6        39.500    24689630.714
  24689630.464   101099932.460 6        38.750    24689631.067    96887443.903 7
        43.500

  24387263.782    24387263.795   128155788.255 7        43.250    24387273.512
  24387272.390    99861617.300 6        36.500


  21066220.044    21066219.088   110703777.259 8        48.250
  21066220.809    86262726.38946        39.250


  21034718.395    21034717.608   110538216.443 8        48.750
  21034717.724    86133677.60246        36.750


  20093607.385                   107110495.292 7        43.750    20093616.265
  20093616.337    83308114.785 6        41.250


  19960524.072                   106588192.135 7        45.500    19960529.697
  19960529.223    82901996.374 7        45.250


  25079121.299    25079121.098   131791566.290 7        42.000    25079129.374
  25079128.614   102694728.329 5        35.250


  24192610.875    24192610.688   127133021.234 7        44.000    24192615.173
  24192614.663    99064720.433 6        40.500    24192613.804    94937023.034 7
        45.000

  22145762.288                   118174067.486 8        48.250    22145770.114
  22145769.483    91913213.983 7        42.250


  23839346.695                   127345620.821 6        36.000    23839354.337
  23839353.997    99046669.580 6        37.500


  23511590.923                   125639085.958 7        44.000    23511603.609
  23511603.569    97719126.603 6        37.000


  22894544.573    22894544.444   120311706.950 7        46.500    22894546.375
  22894545.709    93749419.362 6        41.250


  23626295.650                   126517728.937 7        45.250    23626296.777
  23626296.706    98402697.686 6        39.500


  23982561.456                   128335438.162 7        42.750    23982571.142
  23982571.960    99816439.161 5        35.750


  22711359.382                   121234742.112 7        45.750    22711366.693
  22711366.729    94293697.935 6        41.250


  21239097.191                   113694680.982 8        50.250    21239100.558
  21239100.487    88429246.496 7        46.250


  23750256.104                   127047884.498 7        44.250    23750262.302
  23750262.181    98815009.334 6        41.250


 16  6 18  1  0  3.0000000  0 22G12G24G14G21G25G32G05G20G18R14R13G29
                                G10R02R12R15G15R04R17R18R03R19
  22894889.367    22894889.139   120313475.186 7        47.000    22894893.365
  22894893.182    93750806.051 6        40.000


  21042221.491    21042221.442   110577714.431 8        48.250    21042224.657
  21042224.894    86164459.575 7        46.750    21042226.284    82574328.997 8
        52.500

  25272388.910    25272388.450   132807461.897 6        38.750
  25272393.135   103486228.42141         9.250


  21295730.160    21295729.257   111909818.279 8        48.000
  21295730.280    87202446.84246        39.000


  23900537.037    23900536.335   125598177.857 7        43.250    23900545.507
  23900545.256    97868755.496 6        39.500    23900547.939    93790891.585 7
        43.750

  24689363.137    24689363.311   129743726.566 6        38.750    24689368.690
  24689368.503   101098859.722 6        38.500    24689369.088    96886415.871 7
        43.500

  24387726.402    24387726.415   128158219.359 7        43.500    24387736.034
  24387735.010    99863511.670 6        36.250


  21066351.832    21066350.876   110704469.317 8        48.000
  21066352.503    86263265.65346        39.250


  21034350.792    21034350.005   110536284.641 8        48.500
  21034350.117    86132172.30246        36.750


  20093071.349                   107107637.924 7        44.000    20093079.943
  20093080.377    83305892.392 6        41.250


  19960798.867                   106589658.618 7        45.250    19960804.371
  19960803.727    82903136.970 7        45.000


  25079363.799    25079363.598   131792841.488 6        41.500    25079372.125
  25079371.280   102695722.006 5        35.000


  24192058.599    24192058.416   127130119.373 7        44.000    24192062.659
  24192062.453    99062459.254 6        40.000    24192061.689    94934856.062 7
        45.000

  22145869.777                   118174640.702 8        48.500    22145877.263
  22145876.954    91913659.802 7        42.750


  23840107.283                   127349683.052 5        35.750    23840114.553
  23840114.437    99049829.103 6        37.750


  23510780.616                   125634753.962 7        44.000    23510792.949
  23510792.846    97715757.243 6        37.250


  22894758.231    22894758.106   120312828.911 7        46.500    22894759.850
  22894759.224    93750293.595 6        41.000


  23625870.386                   126515452.803 7        45.250    23625871.852
  23625871.687    98400927.363 6        39.250


  23983127.563                   128338466.159 7        42.750    23983136.999
  23983137.857    99818794.266 6        36.250


  22711789.937                   121237040.039 7        45.750    22711796.801
  22711797.311    94295485.185 6        41.500


  21238845.148                   113693331.424 8        50.250    21238848.632
  21238848.372    88428196.838 7        46.250


  23750234.891                   127047769.582 7        44.250    23750241.048
  23750240.748    98814919.950 6        41.000


 16  6 18  1  0  4.0000000  0 22G12G24G14G21G25G32G05G20G18R14R13G29
                                G10R02R12R15G15R04R17R18R03R19
  22894513.152    22894512.920   120311498.635 7        47.000    22894517.230
  22894517.051    93749265.883 6        40.250


  21042547.696    21042547.643   110579428.738 8        48.250    21042550.804
  21042551.112    86165795.401 7        46.750    21042552.489    82575609.159 8
        52.500

  25272060.876    25272060.407   132805736.734 6        39.000
  25272064.847   103484884.17941         9.000


  21295957.367    21295956.464   111911011.671 8        48.000
  21295957.372    87203376.75746        39.000


  23900017.457    23900016.755   125595448.218 7        43.250    23900026.154
  23900025.819    97866628.515 6        39.250    23900028.457    93788853.213 7
        43.750

  24689100.813    24689100.987   129742349.470 6        38.750    24689106.770
  24689106.457   101097786.671 6        38.750    24689107.029    96885387.522 7
        43.750

  24388189.045    24388189.049   128160650.242 7        43.500    24388198.498
  24388197.582    99865405.869 6        36.750


  21066483.575    21066482.619   110705161.292 8        48.250
  21066484.178    86263804.85646        39.250


  21033983.153    21033982.366   110534352.586 8        48.500
  21033982.460    86130666.80346        36.750


  20092535.581                   107104780.719 7        44.000    20092544.569
  20092544.301    83303670.124 6        41.250


  19961073.371                   106591125.405 7        45.250    19961078.920
  19961078.388    82904277.819 7        45.250


  25079606.532    25079606.336   131794115.854 6        41.500    25079614.152
  25079613.794   102696715.001 5        35.000


  24191506.461    24191506.283   127127216.925 7        44.000    24191510.409
  24191510.123    99060197.612 6        40.000    24191509.327    94932688.643 7
        45.000

  22145977.083                   118175213.659 8        48.500    22145984.577
  22145984.331    91914105.453 7        42.500


  23840866.922                   127353745.046 5        35.750    23840874.658
  23840874.859    99052988.434 6        37.750


  23509970.032                   125630421.530 7        44.250    23509982.615
  23509982.056    97712387.609 6        37.000


  22894971.631    22894971.506   120313950.305 7        46.500    22894973.173
  22894972.628    93751167.423 6        41.250


  23625445.174                   126513175.893 7        45.500    23625446.570
  23625446.503    98399156.432 6        39.500


  23983693.304                   128341493.394 7        42.750    23983702.981
  23983703.576    99821148.805 6        36.500


  22712220.492                   121239337.713 7        45.500    22712227.311
  22712227.816    94297272.273 6        41.250


  21238593.061                   113691981.371 8        50.500    21238596.472
  21238596.133    88427146.808 7        46.250


  23750213.422                   127047654.793 7        44.500    23750219.490
  23750219.218    98814830.676 6        41.250


