     2.11           OBSERVATION DATA    M (MIXED)           RINEX VERSION / TYPE
teqc  2016Apr1                          20160619 00:55:45UTCPGM / RUN BY / DATE
Linux 2.4.21-27.ELsmp|Opteron|gcc -static|Linux x86_64|=+   COMMENT
teqc  2016Apr1      CNES                20160619 00:54:54UTCCOMMENT
teqc  2016Apr1                          20160619 00:54:19UTCCOMMENT
   0.420      (antenna height)                              COMMENT
 -49.35146694 (latitude)                                    COMMENT
 +70.25552388 (longitude)                                   COMMENT
0073.009      (elevation)                                   COMMENT
BIT 2 OF LLI FLAGS DATA COLLECTED UNDER A/S CONDITION       COMMENT
91201M002 (COGO code)                                       COMMENT
KERG                                                        MARKER NAME
91201M002                                                   MARKER NUMBER
Automatic           CNES                                    OBSERVER / AGENCY
5048K71849          TRIMBLE NETR9       5.01                REC # / TYPE / VERS
CR6200539022        ASH701945E_M    SNOW                    ANT # / TYPE
  1406337.1601  3918161.1297 -4816167.3659                  APPROX POSITION XYZ
        0.4200        0.0000        0.0000                  ANTENNA: DELTA H/E/N
     1     1                                                WAVELENGTH FACT L1/2
    21    S1    D8    L8    L5    L2    D2    L1    D7    S5# / TYPES OF OBSERV
          D1    D5    P1    C5    C1    S7    L7    C8    C7# / TYPES OF OBSERV
          P2    S2    S8                                    # / TYPES OF OBSERV
    30.0000                                                 INTERVAL
    17                                                      LEAP SECONDS
 SNR is mapped to RINEX snr flag value [0-9]                COMMENT
  L1 & L2: min(max(int(snr_dBHz/6), 0), 9)                  COMMENT
teqc edited: all QZSS satellites excluded                   COMMENT
Forced Modulo Decimation to 30 seconds                      COMMENT
  2016     6    18     0     0    0.0000000     GPS         TIME OF FIRST OBS
                                                            END OF HEADER
 16  6 18  0  0  0.0000000  0 22R10G16G01R09R04G27G11G07R03E22E30E09
                                S27R19G15G18G10R20G26G08G30S28
        41.100                                                    84427873.614 6
                 108550080.256 6
                  20363719.633                    20363720.063
                                                  20363728.133          39.600

        42.800                                                    91086107.94045
                 116893857.367 7                                     -3253.320
                                                  22244153.938
                                                  22244158.016          30.600

        39.500                                    92002640.638 4  96002766.25044
                 123203485.491 6                        29.300        3254.941
                                  23444851.199    23444848.523
                                                  23444856.801          24.700

        35.500                                                    93003488.456 6
                 119575893.493 5
                  22424243.918                    22424245.273
                                                  22424249.195          40.000

        34.000                                                    89453890.703 6
                 115012118.033 5
                  21477702.609                    21477702.648
                                                  21477705.000          36.800

        51.000                                    80985080.490 6  84506189.51847
                 108449546.412 8                        37.900       -1266.621
                                  20637263.563    20637261.859
                                                  20637268.105          44.100

        45.100                                                    91546272.79145
                 117484303.901 7                                      2203.398
                                                  22356523.500
                                                  22356528.199          31.800

        40.700                                                    94647790.57244
                 121464608.519 6                                     -1846.117
                                                  23113951.227
                                                  23113955.773          27.000

        29.400                                                    92990316.958 5
                 119558945.290 4
                  22334616.938                    22334615.711
                                                  22334621.637          35.300

        49.400                    96476732.411 8  95234535.634 5
                 127531449.150 8                        31.900       -1984.176
                                  24268425.410    24268427.273          49.800
  97718934.017 8  24268426.680    24268428.598
        49.100
        38.400                   101418196.882 6 100112341.093 3
                 134063456.574 6                        22.300       -3341.391
                                  25511435.660    25511435.141          42.400
 102723977.499 7  25511437.242    25511439.273
        41.900
        38.300                   107942646.860 6
                 142688124.180 6                                     -1500.238
                                                  27152647.945          40.600
 109332460.550 6  27152648.512    27152650.547
        39.700
        37.300
                 202101290.589 6                                        -2.469
                                                  38458612.703


        37.900                                                    85074330.361 6
                 109381256.165 6
                  20447669.793                    20447670.859
                                                  20447671.520          41.400

        31.600
                 136191202.142 5                                       -72.148
                                                  25916325.148


        41.700                                                    93681690.22244
                 120224764.474 6                                     -2119.996
                                                  22878018.336
                                                  22878021.238          26.800

        49.400                                    85924176.622 5  89660024.96446
                 115063661.037 8                        33.800         252.570
                                  21895883.535    21895882.930
                                                  21895889.453          38.300

        31.200                                                    82811557.920 7
                 106471956.723 5
                  19910794.348                    19910795.633
                                                  19910801.297          42.700

        33.900                                    99001830.415 3 103306268.91342
                 132576542.519 5                        21.800       -3865.504
                                  25228442.684    25228441.078
                                                  25228448.359          15.600

        50.500                                    79742569.831 6  83209662.39747
                 106785775.134 8                        38.400         773.023
                                  20320637.563    20320636.000
                                                  20320642.418          43.700

        40.600                                    91742667.001 4  95731488.08444
                 122855348.051 6                        29.100          99.387
                                  23378603.914    23378603.031
                                                  23378608.578          25.500

        40.800
                 201888150.846 6                                         3.770
                                                  38418030.859


 16  6 18  0  0 30.0000000  0 22R10G16G01R09R04G27G11G07R03E22E30E09
                                S27R19G15G18G10R20G26G08G30S28
        40.900                                                    84461994.956 6
     -1147.377   108593950.548 6                                     -1475.191
                  20371949.641                    20371949.953
                                                  20371958.500          39.400

        44.100                                                    91162292.84445
     -2543.727   116991628.003 7                                     -3264.691
                                                  22262759.172
                                                  22262763.309          30.500

        39.000                                    91929794.649 4  95926753.03344
      2531.324   123105935.191 6                        29.600        3248.336
      2425.852                    23426288.102    23426285.547
                                                  23426293.523          25.300

        35.000                                                    93104456.719 6
     -3368.587   119705709.905 5                                     -4331.011
                  22448589.449                    22448589.984
                                                  22448593.605          38.900

        34.800                                                    89401851.771 6
      1726.056   114945210.797 5                                      2219.249
                  21465208.164                    21465208.203
                                                  21465210.543          36.500

        51.400                                    81013587.398 6  84535935.85647
      -995.912   108487720.884 8                        37.300       -1278.383
      -954.409                    20644527.309    20644526.344
                                                  20644532.203          44.100

        44.700                                                    91494866.92845
      1710.394   117418333.029 7                                      2194.820
                                                  22343970.594
                                                  22343974.293          32.100

        40.500                                                    94691131.40044
     -1450.566   121520229.265 6                                     -1861.879
                                                  23124535.414
                                                  23124540.289          28.200

        30.100                                                    93029107.647 5
     -1302.493   119608819.001 5                                     -1674.676
                  22343933.078                    22343933.375
                                                  22343938.477          35.000

        49.100       -1503.862    96521806.828 8  95279029.694 5
                 127591032.499 8     -1523.220          31.900       -1988.098
     -1484.500                    24279763.879    24279765.555          49.800
  97764588.790 8  24279765.016    24279767.207
        49.400
        38.700       -2528.212   101494036.719 6 100187204.446 4
                 134163708.416 6     -2560.763          24.200       -3342.133
     -2495.657                    25530513.039    25530512.531          42.200
 102800793.812 7  25530514.586    25530516.695
        41.600
        38.300       -1144.234   107976837.949 6
                 142733320.979 6     -1158.962                       -1512.773
                                                  27161248.820          39.700
 109367091.866 6  27161249.043    27161250.582
        39.400
        37.100
                 202101363.744 6                                        -2.617
                                                  38458627.250


        37.900                                                    85124947.501 6
     -1690.731   109446335.381 6                                     -2173.876
                  20459835.102                    20459835.695
                                                  20459837.715          40.800

        30.500
                 136193615.080 5                                       -88.773
                                                  25916784.000


        41.700                                                    93731467.26344
     -1666.171   120288645.004 6                                     -2138.676
                                                  22890174.234
                                                  22890177.465          26.800

        49.100                                    85918750.305 5  89654362.71946
       180.940   115056394.487 8                        33.900         231.766
       173.398                    21894500.734    21894500.266
                                                  21894506.477          37.500

        31.500                                                    82781498.176 7
       997.261   106433308.454 5                                      1282.172
                  19903567.457                    19903568.156
                                                  19903574.270          43.300

        33.600                                    99088447.612 3 103396652.03042
     -3013.260   132692534.266 5                        22.200       -3867.105
     -2887.729                    25250515.250    25250512.969
                                                  25250521.512          14.800

        50.500                                    79725390.711 6  83191736.36747
       592.901   106762770.048 8                        38.300         760.531
       568.198                    20316259.883    20316258.281
                                                  20316264.797          44.200

        40.200                                    91740653.626 4  95729387.16444
        62.733   122852651.883 6                        28.600          80.160
        60.117                    23378091.090    23378089.289
                                                  23378095.227          25.500

        40.500
                 201888042.668 6                                         3.367
                                                  38418011.984


 16  6 18  0  1  0.0000000  0 22R10G16G01R09R04G27G11G07R03E22E30E09
                                S27R19G15G18G10R20G26G08G30S28
        41.600                                                    84496735.174 6
     -1167.965   108638616.568 6                                     -1501.659
                  20380328.832                    20380331.023
                                                  20380337.266          39.000

        42.900                                                    91238737.58945
     -2552.319   117089732.110 7                                     -3275.500
                                                  22281427.758
                                                  22281431.949          30.400

        39.200                                    91857092.309 4  95850889.70944
      2526.338   123008577.235 6                        29.600        3242.133
      2421.070                    23407761.961    23407759.203
                                                  23407767.035          25.500

        33.900                                                    93205608.351 6
     -3374.647   119835762.076 5                                     -4338.825
                  22472978.184                    22472979.422
                                                  22472982.883          39.600

        33.900                                                    89350343.389 6
      1708.458   114878985.762 5                                      2196.509
                  21452840.797                    21452841.070
                                                  21452843.746          36.200

        51.200                                    81042351.962 6  84565951.06447
     -1004.847   108526240.398 8                        37.500       -1289.594
      -962.969                    20651857.559    20651856.266
                                                  20651862.512          44.900

        44.700                                                    91443654.15845
      1703.970   117352609.962 7                                      2186.793
                                                  22331463.359
                                                  22331467.332          32.400

        40.000                                                    94734833.93244
     -1462.563   121576314.203 6                                     -1877.082
                                                  23135207.805
                                                  23135211.953          26.300

        29.100                                                    93068484.747 5
     -1322.016   119659446.680 4                                     -1699.718
                  22353391.781                    22353391.609
                                                  22353396.008          35.100

        49.500       -1506.622    96566965.277 8  95323606.698 5
                 127650726.927 8     -1526.019          30.700       -1991.508
     -1487.222                    24291123.262    24291124.984          49.700
  97810328.680 8  24291124.395    24291126.168
        49.000
        39.800       -2528.541   101569888.268 6 100262079.364 4
                 134263975.732 6     -2561.094          24.900       -3342.359
     -2495.991                    25549593.332    25549592.992          41.600
 102877621.995 6  25549594.902    25549596.992
        41.700
        38.200       -1153.449   108011307.391 6
                 142778885.768 6     -1168.305                       -1524.762
                                                  27169919.344          39.800
 109402005.125 6  27169919.914    27169922.195
        39.300
        37.800
                 202101438.867 6                                        -2.320
                                                  38458642.875


        37.700                                                    85175781.122 6
     -1697.932   109511692.868 6                                     -2183.062
                  20472052.820                    20472053.297
                                                  20472055.898          41.400

        30.800
                 136196522.531 5                                      -104.973
                                                  25917337.328


        42.600                                                    93781672.42644
     -1680.394   120353074.947 7                                     -2156.695
                                                  22902435.586
                                                  22902438.496          24.900

        49.100                                    85913786.241 5  89649182.82746
       164.888   115049746.954 8                        33.700         211.418
       158.012                    21893235.879    21893235.258
                                                  21893241.738          38.100

        31.500                                                    82751732.138 7
       987.483   106395037.794 5                                      1269.657
                  19896411.426                    19896411.070
                                                  19896417.633          43.700

        32.200                                    99175093.814 3 103487065.50442
     -3014.266   132808564.806 5                        22.000       -3868.352
     -2888.667                    25272595.973    25272592.797
                                                  25272601.355          12.600

        51.800                                    79708485.624 6  83174096.27747
       583.387   106740131.933 8                        38.100         748.621
       559.081                    20311951.930    20311950.461
                                                  20311957.020          44.300

        40.000                                    91739072.037 4  95727736.81644
        47.744   122850533.944 6                        28.500          61.047
        45.765                    23377687.656    23377686.180
                                                  23377692.145          25.600

        41.400
                 201887935.135 6                                         3.645
                                                  38417990.172


 16  6 18  0  1 30.0000000  0 23R10G16G01R09R04G27G11G07R03E22E30E09
                                S27R19G15G18G10R20G26G08G30S37S28
        41.300                                                    84532092.967 6
     -1188.550   108684076.590 6                                     -1528.138
                  20388856.793                    20388857.578
                                                  20388865.816          39.300

        43.600                                                    91315440.34245
     -2560.931   117188167.323 7                                     -3286.680
                                                  22300159.227
                                                  22300163.238          30.800

        39.500                                    91784534.590 5  95775177.31644
      2521.288   122911412.945 6                        30.200        3235.398
      2416.242                    23389271.504    23389269.008
                                                  23389277.047          25.800

        34.600                                                    93306940.011 6
     -3380.611   119966045.683 5                                     -4346.521
                  22497410.145                    22497410.797
                                                  22497414.867          39.200

        33.600                                                    89299368.459 6
      1690.550   114813446.550 5                                      2173.601
                  21440601.844                    21440602.117
                                                  21440604.980          37.200

        51.200                                    81071374.017 6  84596234.95047
     -1013.802   108565104.719 8                        37.300       -1301.238
      -971.554                    20659253.453    20659251.945
                                                  20659258.289          44.200

        45.700                                                    91392635.02345
      1697.512   117287135.381 7                                      2178.398
                                                  22319004.117
                                                  22319008.199          31.900

        40.100                                                    94778896.42144
     -1474.528   121632861.120 6                                     -1892.578
                                                  23145969.117
                                                  23145973.281          26.700

        29.400                                                    93108446.435 5
     -1341.534   119710825.978 4                                     -1724.838
                  22362989.738                    22362990.625
                                                  22362994.555          35.600

        49.200       -1509.416    96612207.385 8  95368266.294 5
                 127710531.951 8     -1528.853          31.400       -1995.340
     -1489.988                    24302503.410    24302505.688          49.500
  97856153.311 8  24302504.840    24302506.742
        49.000
        38.900       -2528.903   101645750.247 7 100336964.567 3
                 134364256.843 6     -2561.465          22.700       -3343.004
     -2496.338                    25568676.129    25568675.758          42.300
 102954460.753 7  25568677.852    25568679.645
        42.000
        37.900       -1162.689   108046054.404 6
                 142824817.446 6     -1177.655                       -1537.203
                                                  27178659.805          39.800
 109437199.519 6  27178660.352    27178662.164
        39.400
        37.700
                 202101514.820 6                                        -2.414
                                                  38458655.375


        38.200                                                    85226830.470 6
     -1705.090   109577327.752 6                                     -2192.275
                  20484323.145                    20484324.563
                                                  20484325.375          41.000

        31.200
                 136199925.252 5                                      -121.852
                                                  25917984.750


        40.900                                                    93832304.24544
     -1694.578   120418052.453 6                                     -2175.016
                                                  22914799.828
                                                  22914803.223          24.700

        49.100                                    85909284.743 5  89644485.61346
       148.805   115043718.863 8                        33.100         190.625
       142.608                    21892088.426    21892088.523
                                                  21892094.402          37.600

        30.700                                                    82722259.772 7
       977.657   106357144.760 5                                      1257.012
                  19889324.066                    19889324.883
                                                  19889331.449          43.200

        30.300                                    99261767.426 3 103577507.47342
     -3015.148   132924631.987 5                        22.500       -3869.148
     -2889.514                    25294682.324    25294677.836
                                                  25294688.527          13.900

        51.400                                    79691855.105 6  83156742.68747
       573.813   106717861.498 8                        38.500         736.203
       549.906                    20307713.906    20307712.297
                                                  20307719.113          44.100

        39.200                                    91737922.079 4  95726536.85644
        32.736   122848994.001 6                        29.000          41.582
        31.373                    23377394.629    23377392.555
                                                  23377398.766          25.600

        29.900
                 218226551.402 4                                         1.625
                                                  41527162.328


        41.300
                 201887828.210 6                                         3.574
                                                  38417971.016


 16  6 18  0  2  0.0000000  0 24R10G16G01R09R04G27G11G07R03E22E30E09
                                S27G28R19G15G18G10R20G26G08G30S37S28
        40.500                                                    84568066.595 6
     -1209.062   108730328.437 6                                     -1554.515
                  20397533.496                    20397535.805
                                                  20397542.164          39.700

        44.800                                                    91392399.68844
     -2569.440   117286931.831 7                                     -3297.598
                                                  22318953.414
                                                  22318957.387          29.700

        39.400                                    91712122.481 4  95699616.84944
      2516.207   122814443.644 6                        29.700        3229.078
      2411.368                    23370818.926    23370816.688
                                                  23370824.523          25.700

        34.700                                                    93408448.607 6
     -3386.450   120096556.722 5                                     -4353.958
                  22521884.691                    22521885.461
                                                  22521890.281          39.800

        33.700                                                    89248929.275 6
      1672.635   114748596.185 5                                      2150.465
                  21428491.336                    21428491.609
                                                  21428494.285          37.000

        51.400                                    81100653.346 6  84626787.28647
     -1022.745   108604313.554 8                        37.500       -1312.719
      -980.130                    20666714.316    20666713.063
                                                  20666719.035          44.500

        45.400                                                    91341809.64845
      1691.045   117221909.461 7                                      2170.113
                                                  22306592.352
                                                  22306596.035          31.500

        40.800                                                    94823317.05944
     -1486.480   121689867.608 6                                     -1907.973
                                                  23156816.930
                                                  23156820.797          26.300

        30.100                                                    93148991.084 5
     -1360.874   119762954.86315                                     -1749.440
                  22372727.719                    22372727.664
                                                  22372732.531          35.500

        49.800       -1512.198    96657532.724 8  95413008.045 5
                 127770446.989 8     -1531.674          32.400       -1998.988
     -1492.730                    24313905.344    24313907.289          49.200
  97902062.236 8  24313906.438    24313908.344
        49.100
        39.100       -2529.178   101721621.291 6 100411858.752 3
                 134464549.943 6     -2561.746          22.800       -3343.137
     -2496.622                    25587761.473    25587760.719          41.800
 103031308.676 6  25587763.059    25587764.613
        41.200
        37.300       -1171.919   108081077.946 6
                 142871114.672 6     -1187.011                       -1549.297
                                                  27187469.773          40.300
 109472674.006 6  27187470.438    27187472.238
        39.300
        37.900
                 202101590.687 6                                        -2.582
                                                  38458670.719


        34.000
                 131990046.188 5                                      4098.992
                                                  25116889.039


        37.900                                                    85278094.824 6
     -1712.303   109643239.008 6                                     -2201.493
                  20496645.027                    20496646.094
                                                  20496647.168          41.300

        32.200
                 136203822.838 5                                      -138.203
                                                  25918727.227


        41.600                                                    93883361.06344
     -1708.747   120483575.356 6                                     -2193.098
                                                  22927268.422
                                                  22927271.688          25.100

        49.900                                    85905246.073 5  89640271.34746
       132.656   115038310.556 8                        33.000         169.930
       127.127                    21891059.715    21891059.109
                                                  21891065.633          37.900

        31.000                                                    82693081.501 7
       967.851   106319629.818 5                                      1244.391
                  19882308.434                    19882309.719
                                                  19882315.516          43.100

        30.700                                    99348466.996 3
                 133040734.074 5                        23.800       -3870.312
     -2890.366                    25316776.219    25316771.227


        50.800                                    79675499.808 6  83139676.29447
       564.229   106695959.621 8                        38.400         723.941
       540.721                    20303546.395    20303544.891
                                                  20303551.484          43.500

        40.200                                    91737203.510 4  95725787.04544
        17.736   122848031.765 6                        28.700          22.496
        16.992                    23377211.551    23377209.320
                                                  23377216.039          24.900

        29.400
                 218226513.548 4                                         1.262
                                                  41527163.156


        41.700
                 201887721.024 6                                         3.445
                                                  38417949.781


 16  6 18  0  2 30.0000000  0 24R10G16G01R09R04G27G11G07R03E22E30E09
                                S27G28R19G15G18G10R20G26G08G30S29S28
        41.200                                                    84604654.445 6
     -1229.488   108777369.957 6                                     -1580.757
                  20406358.582                    20406359.719
                                                  20406367.277          38.700

        43.500                                                    91469613.70145
     -2577.897   117386023.178 7                                     -3308.594
                                                  22337810.172
                                                  22337813.629          30.400

        39.700                                    91639856.983 4  95624209.35144
      2511.091   122717670.659 6                        29.300        3222.355
      2406.442                    23352403.918    23352400.727
                                                  23352409.227          24.800

        33.800                                                    93510130.533 6
     -3392.199   120227290.756 5                                     -4361.480
                  22546402.887                    22546403.070
                                                  22546406.648          38.900

        34.100                                                    89199028.544 6
      1654.610   114684438.022 5                                      2127.383
                  21416510.836                    21416511.109
                                                  21416513.781          37.900

        50.700                                    81130189.740 6  84657607.87547
     -1031.710   108643866.649 8                        37.600       -1324.293
      -988.724                    20674241.094    20674239.875
                                                  20674245.930          44.300

        46.000                                                    91291178.56145
      1684.536   117156932.886 7                                      2161.582
                                                  22294226.820
                                                  22294231.523          32.300

        39.500                                                    94868093.85044
     -1498.313   121747331.177 6                                     -1923.172
                                                  23167751.266
                                                  23167755.895          27.000

        29.600                                                    93190116.562 6
     -1380.218   119815830.431 4                                     -1774.579
                  22382605.406                    22382605.703
                                                  22382610.922          36.200

        49.000       -1514.974    96702940.884 8  95457831.558 5
                 127830471.514 8     -1534.484          32.000       -2002.754
     -1495.472                    24325327.367    24325329.500          49.000
  97948055.049 8  24325328.641    24325330.602
        49.100
        38.100       -2529.421   101797499.998 6 100486760.452 3
                 134564853.193 6     -2561.996          22.100       -3343.715
     -2496.857                    25606848.281    25606847.766          41.100
 103108164.360 6  25606849.988    25606851.609
        40.400
        38.900       -1181.114   108116377.146 6
                 142917776.246 6     -1196.312                       -1561.457
                                                  27196349.898          39.600
 109508427.700 6  27196349.730    27196351.539
        38.900
        37.900
                 202101665.204 6                                        -2.500
                                                  38458683.734


        30.800
                 131867106.515 5                                      4096.688
                                                  25093495.672


        38.500                                                    85329572.826 6
     -1719.401   109709425.054 6                                     -2210.660
                  20509017.680                    20509018.273
                                                  20509019.938          41.200

        30.800
                 136208216.047 5                                      -154.914
                                                  25919562.875


        39.100                                                    93934840.82844
     -1722.819   120549641.082 6                                     -2211.305
                                                  22939840.047
                                                  22939843.676          24.000

        49.500                                    85901670.411 5  89636540.22446
       116.553   115033522.272 8                        33.400         149.129
       111.700                    21890147.914    21890147.898
                                                  21890153.828          37.600

        31.900                                                    82664197.182 7
       958.052   106282492.879 5                                      1231.731
                  19875363.652                    19875363.648
                                                  19875370.734          43.100

        33.600                                    99435191.05214
                 133156868.934 5                        24.800       -3871.848
                                  25338874.781    25338875.016


        50.300                                    79659419.966 6  83122897.33047
       554.631   106674426.620 8                        38.500         711.488
       531.522                    20299448.617    20299447.023
                                                  20299453.355          44.300

        40.700                                    91736916.147 4  95725487.18543
         2.710   122847646.959 6                        29.100           3.000
         2.586                    23377138.305    23377136.211
                                                  23377142.910          23.800

        28.900
                 218226703.370 4                                         1.234
                                                  41527172.469


        41.100
                 201887613.974 6                                         3.555
                                                  38417928.563


