     2.11           OBSERVATION DATA    M                   RINEX VERSION / TYPE
BNC 2.12.1          rtproc              18-Jun-16 00:59     PGM / RUN BY / DATE
PORTIONS OF THIS HEADER GENERATED BY BKG                    COMMENT
RTCM_3 www.igs-ip.net/NKLG0                                 COMMENT
NKLG                                                        MARKER NAME
32809M002                                                   MARKER NUMBER
                    CNES                                    OBSERVER / AGENCY
5038K70406          TRIMBLE NETR9       5.10                REC # / TYPE / VERS
4811A48439          TRM59800.00     SCIS                    ANT # / TYPE
  6287385.7333  1071574.6758    39133.0395                  APPROX POSITION XYZ
        3.0430       -0.0025       -0.0015                  ANTENNA: DELTA H/E/N
     1     1                                                WAVELENGTH FACT L1/2
    22    C2    L2    D2    S2    C6    L6    S6    C7    L7# / TYPES OF OBSERV
          S7    C1    L1    D1    S1    C8    L8    S8    C5# / TYPES OF OBSERV
          L5    S5    P2    P1                              # / TYPES OF OBSERV
  2016     6    18     1     0    0.0000000     GPS         TIME OF FIRST OBS
                                                            END OF HEADER
 16 06 18 01 00  0.0000000  0 20G03G06G07G23G11G17G01G19G28G30G22G09
                                R22R07R23R08R21R11R09R10
                  94445620.204                          26.000

  23064576.248   121205201.215                          41.750

  23064583.288
                  94121567.922                          26.000

  22985441.228   120789342.591                          40.000

  22985448.728
                  83090162.434                          43.250

  20291463.586   106632370.081                          49.250

  20291467.686
                  98675140.303                          19.750

  24097476.200   126633097.095                          36.000

  24097479.700
                  98322718.327                          19.000

  24011405.620   126180813.368                          38.750

  24011408.420
                  91759388.157                          32.000

  22408569.992   117757869.710                          45.500

  22408574.472
                  90848030.882                          34.000

  22186011.712   116588298.574                          46.000

  22186019.752
                  96946543.289                          24.500

  23675330.004   124414735.287                          35.250

  23675333.284
                  96786326.776                          18.500

  23636209.884   124209122.870                          36.500

  23636214.264
                  86272780.698                          39.500

  21068691.720   110716734.089                          48.000

  21068698.080
                  97097543.520                          20.750

  23712205.082   124608505.818                          39.250

  23712206.882
                  92690063.796                          29.000

  22635859.210   118952248.000                          41.500

  22635866.490


  20368262.068   108727190.831                          50.250

  20368265.068


  23472127.244   125648144.052                          37.750

  23472130.124


  23065011.168   123382274.456                          40.750

  23065014.728


  23952897.584   128266675.189                          36.250

  23952899.784


  21702370.356   116133785.177                          45.500

  21702373.456


  21644034.476   115659148.794                          43.750




  22150591.096   118116812.949                          42.500

  22150593.736


  19876830.588   105954704.281                          52.000

  19876836.668
 16 06 18 01 00  1.0000000  0 20G03G06G07G23G11G17G01G19G28G30G22G09
                                R22R07R23R08R21R11R09R10
                  94445246.448                          27.250

  23064485.008   121204721.562                          41.500

  23064491.888
                  94119097.339                          26.500

  22984837.808   120786172.010                          39.250

  22984845.348
                  83090019.748                          43.000

  20291428.566   106632186.962                          48.500

  20291433.146
                  98676610.407                          20.250

  24097836.120   126634983.718                          36.250

  24097838.640
                  98325203.085                          19.250

  24012012.480   126184002.139                          38.750

  24012015.380
                  91759677.430                          31.500

  22408641.252   117758240.947                          45.500

  22408645.172
                  90849998.757                          33.250

  22186492.432   116590824.013                          45.750

  22186500.392
                  96946359.073                          25.500

  23675285.364   124414498.873                          36.000

  23675288.084
                  96785091.058                          19.250

  23635908.244   124207537.019                          36.500

  23635912.484
                  86271132.956                          39.250

  21068289.440   110714619.497                          47.750

  21068295.900
                  97097707.203                          19.750

  23712245.302   124608715.885                          40.000

  23712247.122
                  92691465.597                          29.250

  22636202.210   118954046.985                          41.000

  22636208.430


  20368421.788   108728045.162                          50.250

  20368424.468


  23472043.564   125647698.141                          37.750

  23472046.964


  23064581.988   123379982.647                          40.500

  23064586.108


  23952851.044   128266429.482                          36.500

  23952854.304


  21703016.876   116137241.393                          45.000

  21703018.656


  21643331.696   115655395.889                          44.000




  22151034.816   118119181.024                          42.750

  22151037.516


  19876658.668   105953784.522                          51.750

  19876664.188
 16 06 18 01 00  2.0000000  0 20G03G06G07G23G11G17G01G19G28G30G22G09
                                R22R07R23R08R21R11R09R10
                  94444872.827                          24.750

  23064393.568   121204242.074                          41.750

  23064400.648
                  94116626.935                          26.500

  22984234.448   120783001.647                          39.500

  22984241.928
                  83089877.497                          43.500

  20291394.166   106632004.410                          47.750

  20291398.026
                  98678080.325                          19.500

  24098195.180   126636870.097                          36.000

  24098197.920
                  98327687.889                          19.250

  24012618.300   126187190.953                          38.750

  24012622.000
                  91759966.904                          31.500

  22408711.732   117758612.441                          45.750

  22408715.832
                  90851966.942                          33.750

  22186973.112   116593349.846                          45.500

  22186981.112
                  96946175.129                          25.000

  23675240.444   124414262.820                          35.750

  23675243.104
                  96783855.145                          20.000

  23635606.744   124205950.936                          36.250

  23635610.644
                  86269485.564                          39.500

  21067887.620   110712505.333                          47.500

  21067893.580
                  97097871.088                          20.250

  23712285.682   124608926.215                          40.000

  23712286.982
                  92692867.377                          27.250

  22636545.430   118955845.928                          41.500

  22636551.010


  20368582.608   108728900.091                          50.000

  20368584.868


  23471960.484   125647251.844                          37.500

  23471963.704


  23064153.728   123377691.461                          40.500

  23064158.108


  23952804.704   128266183.368                          36.750

  23952808.304


  21703661.616   116140697.686                          45.500

  21703664.896


  21642628.656   115651643.187                          43.750




  22151479.456   118121549.662                          43.000

  22151482.116


  19876486.348   105952865.472                          51.750

  19876491.268
 16 06 18 01 00  3.0000000  0 20G03G06G07G23G11G17G01G19G28G30G22G09
                                R22R07R23R08R21R11R09R10
                  94444499.284                          25.500

  23064302.828   121203762.699                          42.000

  23064309.208
                  94114156.731                          24.750

  22983630.488   120779831.552                          39.750

  22983638.768
                  83089735.712                          43.250

  20291359.866   106631822.454                          48.250

  20291363.566
                  98679550.116                          19.750

  24098554.800   126638756.321                          36.250

  24098556.700
                  98330172.675                          19.250

  24013226.100   126190379.784                          39.000

  24013228.500
                  91760256.620                          31.250

  22408781.972   117758984.248                          45.500

  22408786.612
                  90853935.414                          33.750

  22187454.152   116595876.059                          45.500

  22187461.792
                  96945991.451                          24.750

  23675195.824   124414027.092                          36.000

  23675198.244
                  96782619.081                          19.500

  23635303.964   124204364.643                          36.000

  23635308.764
                  86267838.513                          39.750

  21067484.920   110710391.624                          47.750

  21067491.240
                  97098035.139                          19.750

  23712325.002   124609136.753                          40.500

  23712326.662
                  92694269.081                          28.750

  22636886.870   118957644.777                          41.500

  22636893.270


  20368743.008   108729755.668                          49.750

  20368745.108


  23471876.984   125646805.189                          37.250

  23471880.024


  23063725.408   123375400.848                          40.000

  23063730.188


  23952759.164   128265936.990                          37.000

  23952762.084


  21704308.456   116144154.073                          45.750

  21704311.076


  21641927.316   115647890.643                          43.500




  22151923.736   118123918.925                          43.000

  22151926.716


  19876313.748   105951947.176                          51.750

  19876319.468
 16 06 18 01 00  4.0000000  0 20G03G06G07G23G11G17G01G19G28G30G22G09
                                R22R07R23R08R21R11R09R10
                  94444125.813                          26.000

  23064211.588   121203283.400                          42.000

  23064218.248
                  94111686.701                          25.500

  22983027.728   120776661.688                          39.500

  22983035.608
                  83089594.376                          43.000

  20291324.806   106631641.066                          48.500

  20291328.946
                  98681019.727                          19.250

  24098912.820   126640642.298                          36.250

  24098915.540
                  98332657.469                          19.250

  24013833.200   126193568.598                          39.000

  24013835.660
                  91760546.528                          31.000

  22408853.232   117759356.294                          46.250

  22408857.452
                  90855904.206                          33.500

  22187934.852   116598402.670                          45.500

  22187942.372
                  96945808.032                          22.750

  23675151.144   124413791.695                          36.500

  23675153.664
                  96781382.832                          18.250

  23635002.804   124202778.140                          36.000

  23635006.704
                  86266191.795                          39.500

  21067082.760   110708278.335                          47.750

  21067089.100
                  97098199.375                          21.250

  23712365.862   124609347.501                          40.000

  23712367.022
                  92695670.732                          28.250

  22637229.350   118959443.562                          41.000

  22637235.450


  20368903.088   108730611.854                          49.750

  20368905.388


  23471791.984   125646358.247                          37.500

  23471796.664


  23063297.228   123373110.807                          40.000

  23063301.588


  23952713.004   128265690.239                          37.000

  23952715.844


  21704955.076   116147610.556                          45.250

  21704957.016


  21641223.896   115644138.216                          42.750




  22152368.556   118126288.752                          42.500

  22152370.936


  19876141.708   105951029.562                          51.750

  19876147.108
