     3.02           OBSERVATION DATA    Mixed(MIXED)        RINEX VERSION / TYPE
cnvtToRINEX 2.30.0  REGINA              16-Jan-16 00:35 UTC PGM / RUN BY / DATE
----------------------------------------------------------- COMMENT
NRMG                                                        MARKER NAME
92701M005                                                   MARKER NUMBER
GEODETIC                                                    MARKER TYPE
GNSS Observer       CNES                                    OBSERVER / AGENCY
5101K72972          TRIMBLE NETR9       5.01                REC # / TYPE / VERS
1440921240          TRM57971.00     TZGD                    ANT # / TYPE
 -5743537.8595  1380504.5339 -2397896.7305                  APPROX POSITION XYZ
        0.0000        0.0000        0.0000                  ANTENNA: DELTA H/E/N
G   16 C1C C2W C2X C5X D1C D2W D2X D5X L1C L2W L2X L5X S1C  SYS / # / OBS TYPES
       S2W S2X S5X                                          SYS / # / OBS TYPES
R   16 C1C C1P C2C C2P D1C D1P D2C D2P L1C L1P L2C L2P S1C  SYS / # / OBS TYPES
       S1P S2C S2P                                          SYS / # / OBS TYPES
J   12 C1C C2X C5X D1C D2X D5X L1C L2X L5X S1C S2X S5X      SYS / # / OBS TYPES
E   16 C1X C5X C7X C8X D1X D5X D7X D8X L1X L5X L7X L8X S1X  SYS / # / OBS TYPES
       S5X S7X S8X                                          SYS / # / OBS TYPES
S    8 C1C C5I D1C D5I L1C L5I S1C S5I                      SYS / # / OBS TYPES
C   12 C1I C6I C7I D1I D6I D7I L1I L6I L7I S1I S6I S7I      SYS / # / OBS TYPES
  2016     1    15     0     0    0.0000000     GPS         TIME OF FIRST OBS
  2016     1    15    23    59   30.0000000     GPS         TIME OF LAST OBS
     0                                                      RCV CLOCK OFFS APPL
G L2X -0.25000                                              SYS / PHASE SHIFT
R L1P  0.25000                                              SYS / PHASE SHIFT
R L2C -0.25000                                              SYS / PHASE SHIFT
J L2X -0.25000                                              SYS / PHASE SHIFT
    17                                                      LEAP SECONDS
    78                                                      # OF SATELLITES
   C01  2880  2880  2880  2880  2879  2879  2880  2880  2880PRN / # OF OBS
   C03  2880  2880  2880  2880  2879  2879  2880  2880  2880PRN / # OF OBS
   C04  2880  2880  2880  2880  2879  2879  2880  2880  2880PRN / # OF OBS
   C06  2371  2366  2367  2371  2357  2359  2367  2365  2365PRN / # OF OBS
   C07  2359  2357  2357  2359  2349  2351  2358  2355  2355PRN / # OF OBS
   C08  2284  2283  2283  2284  2280  2279  2283  2282  2282PRN / # OF OBS
   C09  1944  1936  1935  1944  1926  1926  1937  1936  1933PRN / # OF OBS
   C10  1907  1904  1902  1907  1895  1893  1904  1903  1901PRN / # OF OBS
   C11   850   849   849   850   848   848   849   849   849PRN / # OF OBS
   C12   670   670   670   670   668   668   670   670   670PRN / # OF OBS
   C14   983   978   978   983   970   970   978   978   978PRN / # OF OBS
   E11   804   803   803   802   804   797   794   797   804PRN / # OF OBS
   E12  1323  1323  1323  1323  1323  1321  1321  1321  1323PRN / # OF OBS
   E14   967   967   967   967   967   965   965   965   967PRN / # OF OBS
   E19  1310  1310  1310  1310  1310  1309  1309  1309  1310PRN / # OF OBS
   E20  1311     0     0     0  1311     0     0     0  1310PRN / # OF OBS
   E22   650   649   649   649   650   648   648   648   649PRN / # OF OBS
   E24   874   874   874   874   874   873   873   873   874PRN / # OF OBS
   E26  1558  1555  1555  1556  1558  1543  1540  1542  1558PRN / # OF OBS
   E30   874   868   870   870   874   860   858   860   873PRN / # OF OBS
   G01  1227  1219  1222  1225  1227  1211  1216  1219  1226PRN / # OF OBS
   G02   956   953     0     0   956   951     0     0   956PRN / # OF OBS
   G03  1021   994  1015  1015  1021   979  1010  1010  1017PRN / # OF OBS
   G05   815   809   814     0   815   804   812     0   815PRN / # OF OBS
   G06   849   844   843   845   849   839   836   839   845PRN / # OF OBS
   G07  1010  1008  1009     0  1010  1005  1007     0  1010PRN / # OF OBS
   G08  1177  1163  1171  1172  1177  1147  1158  1159  1172PRN / # OF OBS
   G09   811   807   808   809   811   806   807   807   809PRN / # OF OBS
   G10  1042  1040  1040  1040  1042  1039  1039  1039  1040PRN / # OF OBS
   G11  1380  1350     0     0  1380  1342     0     0  1375PRN / # OF OBS
   G12   841   824   836     0   841   808   822     0   839PRN / # OF OBS
   G13  1213  1200     0     0  1213  1189     0     0  1209PRN / # OF OBS
   G14   963   962     0     0   963   958     0     0   963PRN / # OF OBS
   G15  1116  1097  1111     0  1116  1082  1102     0  1112PRN / # OF OBS
   G16  1017   978     0     0  1017   966     0     0  1011PRN / # OF OBS
   G17   971   969   970     0   971   967   968     0   970PRN / # OF OBS
   G18  1022  1021     0     0  1022  1020     0     0  1021PRN / # OF OBS
   G19   982   980     0     0   982   978     0     0   981PRN / # OF OBS
   G20   967   963     0     0   967   961     0     0   967PRN / # OF OBS
   G21   942   929     0     0   942   919     0     0   942PRN / # OF OBS
   G22   984   981     0     0   984   976     0     0   984PRN / # OF OBS
   G23   916   913     0     0   916   910     0     0   915PRN / # OF OBS
   G24  1224  1205  1215  1218  1224  1190  1204  1205  1220PRN / # OF OBS
   G25  1141  1133  1139  1140  1141  1119  1129  1131  1141PRN / # OF OBS
   G26  1153  1141  1150  1150  1153  1128  1141  1141  1150PRN / # OF OBS
   G27  1206  1197  1201  1202  1206  1188  1190  1195  1203PRN / # OF OBS
   G28  1044  1040     0     0  1044  1032     0     0  1044PRN / # OF OBS
   G29   843   825   840     0   843   821   834     0   840PRN / # OF OBS
   G30   943   940   942   942   943   937   940   940   942PRN / # OF OBS
   G31   848   844   845     0   848   839   841     0   847PRN / # OF OBS
   G32   851   846     0     0   851   844     0     0   850PRN / # OF OBS
   J01  2880  2880  2880  2880  2879  2879  2880  2880  2880PRN / # OF OBS
   R01   950   950   950   949   950   949   949   948   950PRN / # OF OBS
   R02   943   943   942   941   943   939   939   938   943PRN / # OF OBS
   R03   802   800   800   799   802   793   793   793   801PRN / # OF OBS
   R04  1025  1025  1025  1025  1025  1022  1022  1022  1025PRN / # OF OBS
   R05  1101  1101  1100  1099  1101  1097  1097  1097  1101PRN / # OF OBS
   R06  1100  1100  1100  1099  1100  1094  1094  1094  1100PRN / # OF OBS
   R07  1012  1012  1012  1012  1012  1007  1007  1007  1012PRN / # OF OBS
   R08   853   853   853   853   853   852   852   852   853PRN / # OF OBS
   R09  1001   999   980   905  1001   981   962   865   999PRN / # OF OBS
   R10  1003  1003   998   995  1003   999   993   988  1003PRN / # OF OBS
   R11   997   995   995   990   997   988   990   981   996PRN / # OF OBS
   R12   912   912   911   909   912   898   898   897   912PRN / # OF OBS
   R13   686   686   686   686   686   680   680   680   686PRN / # OF OBS
   R14   868   868   868   862   868   863   864   856   868PRN / # OF OBS
   R15  1157  1157  1157  1157  1157  1155  1155  1155  1157PRN / # OF OBS
   R16  1150  1150  1150  1150  1150  1147  1147  1147  1150PRN / # OF OBS
   R18  1169  1168  1167  1167  1169  1163  1161  1161  1169PRN / # OF OBS
   R19  1019  1019  1019  1019  1019  1015  1015  1015  1019PRN / # OF OBS
   R20  1152  1152  1151  1151  1152  1150  1149  1149  1152PRN / # OF OBS
   R21   963   963   963   963   963   959   961   961   963PRN / # OF OBS
   R22   789   789   789   789   789   788   788   788   789PRN / # OF OBS
   R23   736   736   728   701   736   731   717   684   736PRN / # OF OBS
   R24   936   936   936   934   936   932   932   930   936PRN / # OF OBS
   S29  2880     0  2880     0  2880     0  2880     0      PRN / # OF OBS
   S35  2880  2880  2880  2879  2880  2879  2880  2880      PRN / # OF OBS
   S37  2880     0  2880     0  2880     0  2880     0      PRN / # OF OBS
                                                            END OF HEADER
> 2016 01 15 00 00  0.0000000  0 33
C01  37077573.625 7  37077561.102 8  37077566.258 8         9.383 7                                 193072676.455 7 156887325.866 8 149296023.997 8        40.600          45.500          45.400
C03  39342398.961 6  39342391.309 7  39342398.082 7        29.145 6                                 204866157.834 6 166470522.683 7 158415515.253 7        35.900          40.100          39.900
C04  36406330.133 7  36406320.746 8  36406326.082 8         2.633 7                                 189577345.237 7 154047094.365 8 146593228.812 8        42.500          48.300          46.700
C06  41277379.188 6  41277373.957 6  41277382.441 5     -1466.730 6                                 214942264.824 6 174658220.114 6 166207069.620 5        33.000          37.600          32.800
C07  37798355.883 7  37798343.246 7  37798351.379 7       735.035 7                                 196825940.727 7 159937149.049 7 152198288.410 7        43.200          44.300          43.800
C08  39057225.094 7  39057214.586 7  39057223.539 7       868.598 7                                 203381217.368 7 165263858.200 7 157267251.860 7        40.800          41.300          39.800
C09  41256457.328 6  41256450.133 5  41256461.172 6     -1718.031 6                                 214833181.081 6 174569501.472 5 166122627.958 6        35.200          32.800          35.200
C10  40170192.422 6  40170182.238 6  40170192.715 6       765.297 6                                 209176656.221 6 169973152.168 6 161748678.765 6        38.500          36.500          38.000
C11  22321936.984 8  22321928.102 8  22321936.430 8      1362.953 8                                 116236228.016 8  94451437.136 8  89881249.219 8        47.700          50.700          49.000
C12  21970002.180 8  21969992.285 9  21970000.262 8     -1628.969 8                                 114403579.949 8  92962241.412 9  88464100.684 8        47.600          51.200          49.500
E14  24967503.047 8  24967517.406 9  24967516.469 8  24967517.684 9      -950.281 8                                                 131205137.933 8  97977894.221 9 100533838.197 8  99255859.313 9        49.600          51.500          50.600          56.800
E22  23151886.336 8  23151891.129 9  23151889.770 9  23151891.395 9      -331.238 8                                                 121663966.370 8  90853014.018 9  93223081.836 9  92038052.533 9        50.600          52.400          52.000          58.300
E30  23649986.469 9  23649991.410 8  23649990.941 8  23649992.250 9      1465.027 9                                                 124281518.589 9  92807644.716 8  95228705.556 8  94018182.742 9        52.100          50.500          50.000          56.100
G01  22896328.133 8  22896338.270 5  22896337.848 7  22896338.063 8     -1428.445 8                                                 120320927.363 8  93756717.443 5  93756722.193 7  89850187.454 8        46.400          31.800          43.900          48.500
G06  23488021.727 7  23488033.457 5  23488033.828 7  23488035.543 7      3450.078 7                                                 123430358.055 7  96179628.956 5  96179622.701 7  92172148.172 7        42.900          27.400          40.900          44.900
G07  21996534.656 8  21996541.871 6  21996540.934 7                     -2421.766 8                                                 115592539.411 8  90072160.104 6  90072134.850 7                        49.400          36.500          44.200
G11  24292992.953 7  24292999.430 4                                     -2810.930 7                                                 127660476.173 7  99475715.591 4                                        43.900          24.400
G13  22850211.172 7  22850219.789 5                                       327.066 7                                                 120078656.471 7  93567816.102 5                                        44.700          29.200
G15  25489370.625 7  25489378.305 4  25489377.777 6                      1618.250 7                                                 133947508.053 7 104374734.509 4 104374727.263 6                        40.600          21.100          35.100
G17  20367912.563 8  20367917.672 7  20367917.090 8                       294.363 8                                                 107034138.485 8  83403270.281 7  83403275.032 8                        48.400          40.900          48.700
G19  20907118.914 8  20907122.586 7                                        16.961 8                                                 109867683.140 8  85611217.100 7                                        50.100          41.400
G28  20937265.609 8  20937271.078 6                                       176.941 8                                                 110026072.004 8  85734631.049 6                                        49.800          35.800
G30  20386620.953 8  20386629.449 7  20386629.246 8  20386629.770 9      -599.055 8                                                 107132375.691 8  83479827.986 7  83479824.739 8  80001498.153 9        50.300          42.300          49.500          54.100
J01  43355471.625 6  43355481.125 6  43355486.602 7       -81.398 6                                 227834504.430 6 177533335.005 6 170136094.447 7        38.600          35.500          41.100
R09  23908075.469 6  23908075.492 6  23908084.137 5  23908083.289 4      3530.332 6                                                 127667622.721 6 127667781.972 6  99297201.328 5  99297201.583 4        33.700          33.300          27.600          24.500
R14  23926904.352 6  23926902.402 6  23926921.898 5  23926921.531 5     -2869.258 6                                                 127543691.111 6 127543673.403 6  99200629.305 5  99200628.547 5        36.300          34.300          32.100          30.700
R15  20664324.203 8  20664323.176 8  20664331.516 8  20664331.078 8     -1158.523 8                                                 110423861.555 8 110423851.797 8  85885251.551 8  85885250.797 8        47.800          46.400          45.200          45.400
R16  20439194.188 8  20439193.430 8  20439200.188 8  20439199.629 7      2347.715 8                                                 109182514.994 8 109182497.266 8  84919739.526 8  84919731.773 7        48.300          47.300          45.300          44.800
R18  19621187.836 9  19621187.582 8  19621192.973 8  19621193.020 8     -1957.121 9                                                 104739250.237 9 104739264.483 8  81463892.978 8  81463888.225 8        51.900          49.800          48.200          48.000
R19  20188738.773 8  20188737.004 8  20188742.879 8  20188742.926 8      2274.172 8                                                 107995483.017 8 107995875.267 8  83996799.041 8  83996981.287 8        50.800          48.500          47.900          47.300
S29  36797960.438 7                         3.922 7                 193374600.074 7                        41.500
S35  39660500.359 7  39660488.637 7        -2.715 7                 208416756.964 7 155636313.069 7        44.200          40.500
S37  36797797.234 7                         4.102 7                 193373731.215 7                        41.100
> 2016 01 15 00 00 30.0000000  0 33
C01  37077519.375 7  37077507.195 8  37077512.227 8         9.426 7         7.600 8         7.232 8 193072395.890 7 156887097.866 8 149295807.025 8        40.500          45.200          45.500
C03  39342231.672 6  39342223.547 7  39342230.523 6        29.109 6        23.616 7        22.474 6 204865285.984 6 166469814.195 7 158414841.040 6        36.100          39.800          38.800
C04  36406315.117 7  36406305.547 8  36406310.914 8         2.652 7         2.108 8         2.006 8 189577267.454 7 154047031.140 8 146593168.638 8        42.500          48.300          46.100
C06  41285820.727 6  41285815.063 6  41285822.691 6     -1463.625 6     -1190.540 6     -1132.933 6 214986218.969 6 174693936.325 6 166241057.603 6        35.000          37.300          33.600
C07  37794119.758 7  37794107.699 7  37794116.102 7       735.445 7       597.436 7       568.528 7 196803883.780 7 159919225.966 7 152181232.571 7        43.700          44.500          43.500
C08  39052232.234 7  39052222.184 7  39052231.047 7       864.594 7       704.223 7       670.148 7 203355217.957 7 165242731.506 7 157247147.427 7        41.400          40.900          40.200
C09  41266353.555 6  41266347.758 6  41266357.898 6     -1717.484 6     -1395.847 6     -1328.305 6 214884715.073 6 174611376.894 6 166162477.122 6        35.800          35.100          35.500
C10  40165777.734 7  40165767.984 6  40165778.371 6       767.086 7       622.663 6       592.534 6 209153667.922 7 169954472.283 6 161730902.758 6        39.200          36.400          36.600
C11  22314121.977 8  22314112.266 8  22314120.980 8      1350.090 8      1102.319 8      1048.980 8 116195531.099 8  94418367.570 8  89849779.804 8        47.800          50.400          48.800
C12  21979415.305 8  21979405.063 9  21979412.855 8     -1638.699 8     -1327.641 9     -1263.400 8 114452595.644 8  93002070.645 9  88502002.689 8        48.000          51.200          49.800
E14  24972919.391 8  24972933.719 9  24972932.734 8  24972934.043 9      -947.352 8      -708.498 9      -726.981 8      -717.739 9 131233601.058 8  97999149.156 9 100555647.613 8  99277391.487 9        49.000          51.400          51.000          56.800
E22  23153813.133 8  23153817.641 9  23153816.844 9  23153818.125 9      -343.699 8      -252.031 9      -258.606 9      -255.319 9 121674091.463 8  90860574.960 9  93230840.027 9  92045712.100 9        50.300          52.400          51.800          58.300
E30  23641633.039 9  23641638.137 8  23641637.527 8  23641638.715 9      1461.605 9      1092.733 8      1121.239 8      1106.986 9 124237619.235 9  92774862.731 8  95195068.390 8  93984973.168 9        51.200          50.600          50.000          56.300
G01  22904528.406 8  22904539.051 5  22904538.652 7  22904539.078 8     -1444.547 8     -1119.366 5     -1119.366 7     -1072.725 8 120364022.987 8  93790298.411 5  93790303.168 7  89882369.198 8        45.800          31.500          43.600          49.000
G06  23468330.234 7  23468342.223 5  23468341.914 7  23468344.363 8      3448.656 7      2687.785 5      2687.785 7      2575.793 8 123326878.178 7  96098995.392 5  96098989.152 7  92094874.370 8        41.700          28.500          41.600          45.700
G07  22010393.023 8  22010400.273 6  22010399.773 7                     -2433.313 8     -1891.581 6     -1891.581 7                 115665365.382 8  90128907.520 6  90128882.267 7                        49.400          36.500          44.300
G11  24309058.508 7  24309066.277 4                                     -2817.645 7     -2192.951 4                                 127744904.909 7  99541504.131 4                                        43.300          24.400
G13  22848392.406 7  22848400.559 5                                       310.270 7       248.300 5                                 120069096.982 7  93560367.108 5                                        44.400          29.400
G15  25480171.055 7  25480178.695 3  25480178.301 6                      1605.043 7      1255.759 3      1255.758 6                 133899161.447 7 104337061.745 3 104337054.514 6                        39.800          19.600          34.300
G17  20366276.422 8  20366282.453 7  20366282.129 8                       278.660 8       223.246 7       223.246 8                 107025543.514 8  83396572.900 7  83396577.651 8                        48.200          41.300          48.200
G19  20907059.852 8  20907063.637 7                                         3.871 8         8.064 7                                 109867372.672 8  85610975.185 7                                        50.200          41.300
G28  20936265.594 8  20936271.555 6                                       173.504 8       136.512 6                                 110020816.311 8  85730535.678 6                                        50.100          35.900
G30  20390088.094 8  20390096.090 7  20390096.023 8  20390096.293 9      -615.359 8      -473.195 7      -473.195 8      -453.478 9 107150593.723 8  83494023.825 7  83494020.578 8  80015102.492 9        50.100          42.700          50.000          54.500
J01  43355921.266 7  43355930.563 6  43355935.934 7       -76.063 7       -61.326 6       -58.770 7 227836865.551 7 177535174.775 6 170137857.543 7        39.300          35.700          41.000
R09  23888228.211 6  23888226.594 5  23888236.164 5  23888234.730 4      3536.000 6      3533.091 5      2747.962 5      2747.962 4 127561629.941 6 127561789.235 5  99214762.467 5  99214762.709 4        33.000          32.200          27.700          25.600
R14  23943082.320 6  23943079.668 6  23943099.648 5  23943099.859 5     -2879.641 6     -2874.426 6     -2235.638 5     -2235.638 5 127629923.924 6 127629906.192 6  99267698.442 5  99267697.690 5        34.600          33.200          31.200          32.000
R15  20670877.133 8  20670876.809 8  20670885.258 8  20670884.574 7     -1176.012 8     -1167.244 8      -907.855 8      -907.855 7 110458878.866 8 110458869.123 8  85912487.195 8  85912486.449 7        47.900          46.400          45.000          44.900
R16  20426032.492 8  20426031.500 8  20426038.270 8  20426037.727 8      2339.508 8      2343.610 8      1822.807 8      1822.807 8 109112206.703 8 109112188.953 8  84865055.311 8  84865047.550 8        48.500          47.000          46.100          45.200
R18  19632242.766 9  19632241.926 8  19632247.777 8  19632247.398 8     -1976.949 9     -1967.010 8     -1529.896 8     -1529.896 8 104798260.535 9 104798274.787 8  81509789.847 8  81509785.093 8        52.000          50.500          48.300          47.800
R19  20176044.305 9  20176043.121 8  20176048.895 8  20176048.848 8      2252.863 9      2263.563 8      1760.548 8      1760.548 8 107927576.118 9 107927968.383 8  83943982.586 8  83944164.840 8        51.200          48.900          47.300          46.800
S29  36797942.656 7                         3.449 7                 193374480.957 7                        42.300
S35  39660516.984 8  39660504.699 7        -2.641 8        -2.105 7 208416841.018 8 155636376.213 7        45.300          41.700
S37  36797773.250 7                         4.152 7                 193373614.207 7                        41.500
> 2016 01 15 00 01  0.0000000  0 33
C01  37077465.953 7  37077453.859 8  37077458.652 8         9.156 7         7.549 8         7.184 8 193072117.206 7 156886871.394 8 149295591.505 8        40.400          45.700          45.900
C03  39342064.281 6  39342056.055 7  39342062.926 7        28.902 6        23.609 7        22.467 7 204864414.388 6 166469105.914 7 158414167.033 7        36.100          39.900          40.100
C04  36406300.563 7  36406291.395 8  36406296.684 8         2.461 7         2.072 8         1.972 8 189577190.985 7 154046968.969 8 146593109.468 8        42.400          48.400          46.500
C06  41294241.563 6  41294236.523 6  41294245.871 6     -1460.273 6     -1187.857 6     -1130.379 6 215030074.017 6 174729572.040 6 166274968.969 6        33.700          36.900          34.400
C07  37789881.625 7  37789868.832 7  37789877.180 7       735.867 7       597.858 7       568.929 7 196781811.283 7 159901290.240 7 152164164.695 7        43.700          44.100          43.100
C08  39047262.000 7  39047252.078 7  39047261.133 7       860.512 7       701.006 7       667.086 7 203329337.287 7 165221701.321 7 157227134.847 7        40.500          41.000          39.900
C09  41276246.547 6  41276240.879 6  41276250.598 6     -1716.891 6     -1395.304 6     -1327.789 6 214936228.986 6 174653236.019 6 166202310.793 6        34.100          34.400          34.800
C10  40161352.945 6  40161342.355 6  40161353.078 6       769.023 6       624.164 6       593.963 6 209130624.174 6 169935747.351 6 161713083.859 6        38.300          35.900          37.000
C11  22306380.148 8  22306371.113 8  22306379.520 8      1337.234 8      1091.896 8      1039.062 8 116155218.984 8  94385610.676 8  89818607.931 8        48.100          50.300          49.000
C12  21988883.914 8  21988874.016 9  21988882.098 8     -1648.434 8     -1335.492 9     -1270.870 8 114501901.150 8  93042135.400 9  88540128.790 8        47.600          51.200          49.200
E14  24978319.000 8  24978333.277 9  24978332.480 8  24978333.703 9      -944.508 8      -706.329 9      -724.755 8      -715.542 9 131261977.048 8  98020339.037 9 100577390.273 8  99298857.761 9        49.200          51.400          50.800          56.800
E22  23155810.516 8  23155815.031 9  23155814.047 9  23155815.586 9      -356.164 8      -261.269 9      -268.085 9      -264.677 9 121684587.677 8  90868413.036 9  93238882.573 9  92053652.410 9        50.200          52.600          52.200          58.200
E30  23633298.297 9  23633303.602 8  23633302.898 8  23633304.215 9      1458.129 9      1090.219 8      1118.659 8      1104.439 9 124193820.881 9  92742156.174 8  95161508.616 8  93951840.000 9        51.700          50.500          50.500          56.300
G01  22912821.063 8  22912831.828 5  22912831.105 7  22912831.090 8     -1460.781 8     -1131.927 5     -1131.927 7     -1084.762 8 120407602.205 8  93824256.207 5  93824260.963 7  89914912.061 8        45.600          32.100          43.600          48.800
G06  23448646.258 7  23448658.277 5  23448658.465 7  23448660.887 8      3447.035 7      2686.685 5      2686.685 7      2574.739 8 123223440.635 7  96018394.848 5  96018388.600 7  92017632.207 8        42.000          28.200          41.300          45.900
G07  22024317.648 8  22024324.426 6  22024324.055 7                     -2444.934 8     -1900.562 6     -1900.562 7                 115738537.143 8  90185924.378 6  90185899.124 7                        49.600          36.900          43.900
G11  24325163.250 7  24325171.063 4                                     -2824.387 7     -2198.180 4                                 127829534.938 7  99607449.519 4                                        43.300          25.800
G13  22846669.438 7  22846677.262 5                                       293.430 7       235.266 5                                 120060039.300 7  93553309.140 5                                        44.900          30.600
G15  25471047.828 7  25471055.703 3  25471055.363 6                      1591.418 7      1245.331 3      1245.332 6                 133851216.238 7 104299701.806 3 104299694.568 6                        40.500          20.600          34.700
G17  20364730.234 8  20364736.199 7  20364735.559 8                       263.016 8       211.092 7       211.092 8                 107017416.468 8  83390240.142 7  83390244.885 8                        48.300          41.600          48.400
G19  20907074.648 8  20907078.902 7                                        -9.234 8        -2.050 7                                 109867451.602 8  85611036.681 7                                        50.900          41.600
G28  20935284.703 8  20935290.480 6                                       170.070 8       133.891 6                                 110015661.527 8  85726518.940 6                                        49.300          35.400
G30  20393648.156 8  20393655.965 7  20393655.852 8  20393656.227 9      -631.773 8      -485.911 7      -485.911 8      -465.665 9 107169301.346 8  83508601.169 7  83508597.915 8  80029072.441 9        49.500          42.500          49.900          54.200
J01  43356340.781 7  43356350.324 6  43356355.746 7       -71.066 7       -57.248 6       -54.862 7 227839069.686 7 177536892.225 6 170139503.409 7        40.900          36.000          41.200
R09  23868348.992 6  23868346.906 6  23868354.680 5  23868354.773 4      3541.148 6      3538.499 6      2752.166 5      2752.166 4 127455475.005 6 127455634.277 6  99132197.479 5  99132197.738 4        33.700          33.000          27.700          24.000
R14  23959317.805 6  23959316.090 5  23959337.547 6  23959336.844 5     -2890.539 6     -2884.975 5     -2243.844 6     -2243.844 5 127716473.242 6 127716455.427 5  99335013.774 6  99335013.017 5        34.300          32.400          33.000          31.100
R15  20677528.500 8  20677527.238 8  20677536.055 7  20677535.141 7     -1193.520 8     -1184.703 8      -921.434 7      -921.434 7 110494419.966 8 110494410.223 8  85940130.213 7  85940129.466 7        47.500          45.300          44.700          44.800
R16  20412916.336 8  20412915.461 8  20412922.234 8  20412922.152 7      2331.094 8      2335.370 8      1816.399 8      1816.399 7 109042145.607 8 109042127.864 8  84810563.342 8  84810555.589 7        47.800          46.600          46.200          44.900
R18  19643407.008 9  19643406.637 8  19643412.082 8  19643411.895 8     -1996.500 9     -1986.646 8     -1545.168 8     -1545.168 8 104857859.904 9 104857874.150 8  81556144.878 8  81556140.124 8        51.800          50.300          48.300          47.900
R19  20163468.219 8  20163467.270 8  20163473.406 8  20163473.102 8      2231.559 8      2242.251 8      1743.972 8      1743.972 8 107860308.588 8 107860700.860 8  83891663.432 8  83891845.686 8        50.700          49.100          47.000          47.000
S29  36797911.391 7                         3.535 7                 193374367.515 7                        41.700
S35  39660532.156 7  39660521.699 7        -2.727 7        -2.015 7 208416923.402 7 155636436.670 7        43.400          40.900
S37  36797753.672 7                         3.633 7                 193373496.713 7                        41.700
> 2016 01 15 00 01 30.0000000  0 33
C01  37077412.914 7  37077400.785 8  37077405.910 8         9.102 7         7.500 8         7.138 8 193071840.316 7 156886646.387 8 149295377.376 8        40.400          45.600          45.200
C03  39341897.195 6  39341889.063 7  39341896.184 7        29.031 6        23.605 7        22.463 7 204863542.949 6 166468397.767 7 158413493.129 7        36.300          39.700          39.700
C04  36406286.203 7  36406276.465 8  36406281.855 8         2.438 7         2.040 8         1.942 8 189577115.700 7 154046907.754 8 146593051.212 8        42.500          48.400          46.300
C06  41302645.172 6  41302640.652 6  41302648.660 6     -1456.789 6     -1185.160 6     -1127.813 6 215073829.557 6 174765126.829 6 166308803.346 6        34.300          37.900          34.100
C07  37785639.867 7  37785627.383 7  37785635.598 7       736.520 7       598.265 7       569.317 7 196759723.725 7 159883342.282 7 152147085.185 7        43.900          44.200          43.000
C08  39042314.195 7  39042305.168 7  39042313.465 7       856.824 7       697.779 7       664.016 7 203303575.751 7 165200767.945 7 157207214.372 7        40.400          40.900          39.400
C09  41286135.813 6  41286129.754 6  41286140.008 6     -1716.090 6     -1394.741 6     -1327.251 6 214987722.101 6 174695078.243 6 166242128.338 6        35.500          33.100          34.300
C10  40156916.695 7  40156906.465 6  40156917.082 6       770.883 7       625.662 6       595.388 6 209107525.133 7 169916977.487 6 161695222.222 6        39.200          35.500          36.800
C11  22298712.563 8  22298702.957 8  22298711.664 8      1324.488 8      1081.473 8      1029.143 8 116115291.688 8  94353166.498 8  89787733.632 8        48.400          50.300          48.900
C12  21998407.891 8  21998398.000 9  21998405.832 8     -1657.875 8     -1343.288 9     -1278.290 8 114551494.499 8  93082434.031 9  88578477.486 8        47.300          51.900          49.600
E14  24983702.125 8  24983716.566 9  24983715.629 8  24983716.832 9      -941.457 8      -704.132 9      -722.500 8      -713.316 9 131290264.763 8  98041462.986 9 100599065.281 8  99320257.238 9        49.600          51.100          50.200          56.800
E22  23157878.375 8  23157882.941 9  23157881.816 9  23157883.332 9      -368.426 8      -270.486 9      -277.542 9      -274.014 9 121695454.146 8  90876527.609 9  93247208.827 9  92061872.824 9        50.000          52.200          51.700          58.200
E30  23624982.930 9  23624988.180 8  23624987.711 8  23624989.066 9      1454.758 9      1087.668 8      1116.042 8      1101.855 9 124150124.989 9  92709526.128 8  95128027.349 8  93918784.343 9        51.600          50.100          50.100          56.200
G01  22921206.344 8  22921216.691 5  22921215.902 7  22921215.781 8     -1476.816 8     -1144.459 5     -1144.459 7     -1096.773 8 120451663.924 8  93858589.985 5  93858594.742 7  89947815.259 8        45.800          31.900          44.000          48.300
G06  23428971.656 7  23428983.902 5  23428983.738 7  23428985.691 8      3445.621 7      2685.512 5      2685.512 7      2573.615 8 123120048.258 7  95937829.474 5  95937823.223 7  91940423.750 8        41.800          27.700          41.400          45.100
G07  22038307.031 8  22038314.344 6  22038313.656 7                     -2456.277 8     -1909.509 6     -1909.510 7                 115812053.383 8  90243209.661 6  90243184.417 7                        49.200          36.900          44.000
G11  24341305.672 7  24341313.234 4                                     -2831.027 7     -2203.361 4                                 127914364.397 7  99673550.344 4                                        43.200          25.200
G13  22845041.117 8  22845048.801 5                                       276.832 8       222.245 5                                 120051482.927 8  93546641.801 5                                        45.900          30.500
G15  25462000.523 7  25462007.566 3  25462007.813 6                      1577.906 7      1234.876 3      1234.876 6                 133803673.626 7 104262655.516 3 104262648.286 6                        39.900          19.600          34.200
G17  20363272.859 8  20363278.594 7  20363277.922 8                       247.605 8       198.959 7       198.959 8                 107009756.580 8  83384271.386 7  83384276.129 8                        48.300          40.800          48.000
G19  20907163.750 8  20907167.773 7                                       -22.098 8       -12.147 7                                 109867919.271 8  85611401.099 7                                        49.600          41.600
G28  20934322.969 8  20934328.520 6                                       166.766 8       131.245 6                                 110010608.608 8  85722581.592 6                                        50.000          36.400
G30  20397301.008 8  20397309.379 7  20397309.445 8  20397309.523 9      -648.098 8      -498.637 7      -498.637 8      -477.860 9 107188498.919 8  83523560.286 7  83523557.038 8  80043408.251 9        49.900          42.400          50.300          54.300
J01  43356730.000 7  43356739.902 6  43356745.250 7       -65.652 7       -53.171 6       -50.955 7 227841116.868 7 177538487.346 6 170141032.060 7        40.800          35.500          40.800
R09  23848438.688 6  23848437.891 6  23848446.367 5  23848445.641 4      3546.578 6      3543.845 6      2756.324 5      2756.324 4 127349159.658 6 127349318.930 6  99049507.763 5  99049508.029 4        36.100          34.900          27.700          25.200
R14  23975614.117 6  23975614.047 6  23975634.195 5  23975633.176 5     -2900.727 6     -2895.484 6     -2252.012 5     -2252.012 5 127803337.684 6 127803319.944 6  99402574.131 5  99402573.382 5        35.800          34.800          30.900          28.900
R15  20684277.180 8  20684276.738 8  20684285.000 8  20684284.832 7     -1211.008 8     -1202.153 8      -935.007 8      -935.007 7 110530484.577 8 110530474.811 8  85968180.411 8  85968179.664 7        47.300          45.700          45.200          44.300
R16  20399847.906 8  20399846.797 8  20399853.633 8  20399853.066 8      2322.715 8      2327.019 8      1809.903 8      1809.904 8 108972335.044 8 108972317.302 8  84756266.239 8  84756258.478 8        48.800          47.200          45.800          45.500
R18  19654681.922 9  19654681.199 8  19654687.086 8  19654687.051 8     -2015.895 9     -2006.156 8     -1560.342 8     -1560.342 8 104918044.554 9 104918058.816 8  81602955.124 8  81602950.371 8        51.200          50.400          48.400          48.000
R19  20151013.695 8  20151012.277 8  20151018.234 8  20151018.289 8      2210.242 8      2220.892 8      1727.360 8      1727.360 8 107793681.813 8 107794074.093 8  83839842.623 8  83840024.877 8        50.700          49.000          47.300          46.300
S29  36797894.734 7                         3.730 7                 193374250.477 7                        41.400
S35  39660547.063 7  39660535.809 7        -2.734 7        -2.089 7 208417006.044 7 155636499.350 7        44.300          41.800
S37  36797725.750 7                         3.508 7                 193373379.367 7                        41.000
> 2016 01 15 00 02  0.0000000  0 34
C01  37077360.422 7  37077348.168 8  37077353.203 8         9.148 7         7.444 8         7.084 8 193071565.506 7 156886423.056 8 149295164.847 8        40.800          46.400          45.300
C03  39341729.469 6  39341721.750 7  39341728.578 7        28.941 6        23.588 7        22.447 7 204862672.117 6 166467690.120 7 158412819.723 7        36.000          40.200          39.400
C04  36406271.992 7  36406262.563 8  36406268.020 8         2.477 7         1.999 8         1.903 8 189577041.915 7 154046847.777 8 146592994.132 8        42.600          48.400          46.300
C06  41311029.625 6  41311024.012 6  41311031.875 6     -1453.430 6     -1182.460 6     -1125.244 6 215117485.384 6 174800600.637 6 166342560.665 6        35.000          37.600          34.400
C07  37781394.945 7  37781382.891 7  37781390.914 7       736.855 7       598.653 7       569.686 7 196737621.862 7 159865382.697 7 152129994.612 7        43.700          44.200          43.800
C08  39037389.430 7  39037381.211 7  39037389.172 7       852.789 7       694.538 7       660.932 7 203277933.853 7 165179931.794 7 157187386.424 7        39.900          41.400          39.200
C09  41296020.367 6  41296014.023 6  41296025.184 6     -1715.363 6     -1394.169 6     -1326.709 6 215039194.074 6 174736903.309 6 166281929.601 6        35.700          34.200          34.400
C10  40152469.813 6  40152459.680 6  40152470.457 6       772.852 6       627.136 6       596.791 6 209084371.688 6 169898163.403 6 161677318.506 6        38.400          35.700          35.900
C11  22291118.820 8  22291109.520 8  22291118.117 8      1311.578 8      1071.037 8      1019.213 8 116075749.662 8  94321035.377 8  89757157.256 8        48.100          50.000          48.600
C12  22007986.555 8  22007976.551 9  22007984.598 8     -1667.379 8     -1351.034 9     -1285.661 8 114601373.826 8  93122965.052 9  88617047.321 8        47.900          51.400          49.700
E14  24989067.906 8  24989082.301 9  24989081.082 8  24989082.672 9      -938.473 8      -701.913 9      -720.223 8      -711.068 9 131318463.338 8  98062520.370 9 100620671.981 8  99341589.278 9        49.300          51.200          50.500          56.700
E22  23160016.492 8  23160020.973 9  23160019.754 9  23160021.441 9      -380.625 8      -279.687 9      -286.983 9      -283.335 9 121706690.287 8  90884918.225 9  93255818.332 9  92070372.883 9        50.000          51.800          52.000          58.200
E30  23616687.797 9  23616693.082 8  23616692.285 8  23616693.742 9      1451.293 9      1085.071 8      1113.377 8      1099.224 9 124106533.445 9  92676974.000 8  95094626.040 8  93885807.625 9        51.400          50.600          50.600          56.300
G01  22929682.938 8  22929693.203 5  22929693.031 7  22929691.531 8     -1492.824 8     -1156.969 5     -1156.969 7     -1108.762 8 120496207.274 8  93893299.048 5  93893303.810 7  89981078.119 8        45.500          32.000          44.300          48.000
G06  23409305.414 7  23409317.672 5  23409317.734 7  23409319.168 8      3443.945 7      2684.260 5      2684.260 7      2572.415 8 123016704.126 7  95857301.681 5  95857295.426 7  91863251.308 8        42.800          28.300          42.600          45.700
G07  22052362.273 8  22052369.566 6  22052369.004 7                     -2467.676 8     -1918.433 6     -1918.433 7                 115885913.189 8  90300762.662 6  90300737.408 7                        48.800          36.700          43.700
G11  24357485.789 7  24357493.246 4                                     -2837.410 7     -2208.490 4                                 127999391.325 7  99739805.053 4                                        43.400          25.200
G13  22843507.539 7  22843515.824 5                                       260.258 7       209.234 5                                 120043427.495 7  93540364.792 5                                        44.400          29.400
G15  25453029.352 7  25453036.789 3  25453037.438 6                      1564.535 7      1224.391 3      1224.391 6                 133756534.648 7 104225923.781 3 104225916.543 6                        39.600          20.900          34.100
G17  20361903.906 8  20361909.859 7  20361909.199 8                       232.059 8       186.848 7       186.848 8                 107002562.938 8  83378665.945 7  83378670.688 8                        48.100          41.600          48.300
G19  20907326.320 8  20907330.395 7                                       -34.988 8       -22.213 7                                 109868774.486 8  85612067.490 7                                        50.500          41.400
G28  20933381.648 8  20933386.805 6                                       163.359 8       128.581 6                                 110005658.256 8  85718724.161 6                                        50.000          36.200
G30  20401047.805 8  20401056.246 7  20401056.078 8  20401056.035 9      -664.488 8      -511.385 7      -511.384 8      -490.077 9 107208187.263 8  83538901.828 7  83538898.573 8  80058110.557 9        49.800          42.700          50.200          54.300
J01  43357089.906 7  43357099.465 6  43357104.887 7       -60.406 7       -49.104 6       -47.057 7 227843007.440 7 177539960.454 6 170142443.777 7        40.600          37.100          41.200
R09  23828500.555 6  23828499.289 6  23828507.938 5  23828506.621 4      3551.828 6      3549.116 6      2760.425 5      2760.425 4 127242686.152 6 127242845.450 6  98966695.010 5  98966695.287 4        36.400          34.800          27.400          22.100
R14  23991971.063 6  23991969.934 6  23991988.309 5  23991988.469 5     -2911.332 6     -2905.955 6     -2260.160 5     -2260.160 5 127890516.407 6 127890498.605 6  99470378.932 5  99470378.184 5        36.300          35.100          31.600          30.500
R15  20691125.492 8  20691124.348 8  20691132.965 8  20691132.207 7     -1228.547 8     -1219.659 8      -948.622 8      -948.622 7 110567074.345 8 110567064.593 8  85996639.063 8  85996638.316 7        47.300          46.200          45.200          44.100
R16  20386826.250 8  20386825.609 8  20386832.426 8  20386831.805 7      2314.336 8      2318.537 8      1803.307 8      1803.306 7 108902778.926 8 108902761.191 8  84702167.043 8  84702159.289 7        48.100          46.700          45.800          44.800
R18  19666065.328 9  19666064.488 8  19666070.414 8  19666070.246 8     -2035.254 9     -2025.554 8     -1575.430 8     -1575.430 8 104978811.199 9 104978825.445 8  81650218.021 8  81650213.261 8        51.200          49.500          47.900          47.600
R19  20138678.375 8  20138677.074 8  20138682.918 8  20138682.980 8      2188.715 8      2199.462 8      1710.691 8      1710.691 8 107727697.973 8 107728090.245 8  83788521.901 8  83788704.154 8        50.400          49.500          47.800          47.000
R20  24525936.109 5  24525933.887 5                                      4037.621 5                                                 131150856.44015 131151137.70615                                        32.900          31.800
S29  36797871.406 7                         3.797 7                 193374136.051 7                        40.800
S35  39660563.453 7  39660552.832 7        -3.027 7        -2.076 7 208417089.816 7 155636561.641 7        42.700          41.400
S37  36797701.688 7                         3.242 7                 193373264.799 7                        42.300
