     2.10           OBSERVATION DATA    G (GPS)             RINEX VERSION / TYPE
RinEdit                                 20160619 011233 UTC PGM / RUN BY / DATE
OSN3                                                        MARKER NAME
23904S002                                                   MARKER NUMBER
Monitor Station     NGA                                     OBSERVER / AGENCY
115                 ITT 3750300         V3.2.14             REC # / TYPE / VERS
762-11526           TPSCR.G5        TPSH                    ANT # / TYPE
 -3068340.8100  4066863.9810  3824757.0060                  APPROX POSITION XYZ
        0.0000        0.0000        0.0000                  ANTENNA: DELTA H/E/N
    10    L1    L2    P1    P2    D1    D2    S1    S2    C1# / TYPES OF OBSERV
          C2                                                # / TYPES OF OBSERV
     1     1                                                WAVELENGTH FACT L1/2
    30.000                                                  INTERVAL
  2016     6    18     0     0   30.0000000     GPS         TIME OF FIRST OBS
                                                            END OF HEADER
 16  6 18  0  0 30.0000000  0  9G03G14G16G22G25G26G29G31G32
  -7232330.854 7  -5530063.705 7  24005436.852 7  24005440.256 7       721.700 7
       562.363 7        41.530          42.860    24005436.852 7  24005440.256 7
 -26896995.388 7 -20958694.437 7  20582299.922 7  20582301.265 7     -1254.078 7
      -977.203 7        51.410          55.040    20582299.922 7  20582301.265 7
  -8182804.315 7  -6376208.917 7  23572360.798 7  23572362.264 7      3383.125 7
      2636.203 7        43.090          41.800    23572360.798 7  23572362.264 7
  -9328250.016 7  -7268764.167 7  23339966.959 7  23339966.371 7      -418.305 7
      -325.957 7        45.530          45.100    23339966.959 7  23339966.371 7
 -12469949.359 7  -9918292.265 7  22916751.431 7  22916756.308 7     -3169.126 7
     -2469.448 7        46.680          47.160    22916751.431 7  22916756.308 7
 -20376879.937 7 -15878084.686 7  21505930.537 7  21505935.452 7      2097.392 7
      1634.328 7        51.540          52.630    21505930.537 7  21505935.452 7
 -16268452.931 7 -12676709.881 7  21940614.491 7  21940616.291 7        66.570 7
        51.877 7        50.300          50.020    21940614.491 7  21940616.291 7
 -24073463.603 7 -18758542.856 7  20667405.975 7  20667406.198 7       316.573 7
       246.680 7        52.420          55.710    20667405.975 7  20667406.198 7
 -23072910.589 7 -16946549.527 7  21188057.337 7  21188060.913 7     -2295.549 7
     -1788.739 7        53.350          54.070    21188057.337 7  21188060.913 7
 16  6 18  0  1  0.0000000  0  9G03G14G16G22G25G26G29G31G32
  -7253713.706 7  -5546725.688 7  24001367.519 7  24001371.253 7       703.838 7
       548.445 7        41.620          43.110    24001367.519 7  24001371.253 7
 -26859125.621 7 -20929185.543 7  20589506.283 7  20589507.526 7     -1270.575 7
      -990.058 7        51.420          54.780    20589506.283 7  20589507.526 7
  -8284181.367 7  -6455203.968 7  23553069.543 7  23553070.811 7      3375.354 7
      2630.140 7        43.220          41.690    23553069.543 7  23553070.811 7
  -9315462.980 7  -7258800.260 7  23342399.869 7  23342400.141 7      -434.146 7
      -338.293 7        45.700          45.010    23342399.869 7  23342400.141 7
 -12374810.534 7  -9844158.143 7  22934856.113 7  22934860.341 7     -3173.460 7
     -2472.823 7        46.580          47.020    22934856.113 7  22934860.341 7
 -20439612.339 7 -15926967.057 7  21493993.373 7  21493997.761 7      2084.779 7
      1624.501 7        51.740          52.360    21493993.373 7  21493997.761 7
 -16270151.453 7 -12678033.399 7  21940291.532 7  21940293.359 7        46.665 7
        36.363 7        50.520          49.970    21940291.532 7  21940293.359 7
 -24082859.584 7 -18765864.401 7  20665618.031 7  20665618.181 7       309.827 7
       241.422 7        52.830          55.390    20665618.031 7  20665618.181 7
 -23003829.014 7 -16892719.747 7  21201203.232 7  21201206.830 7     -2309.878 7
     -1799.903 7        53.350          54.150    21201203.232 7  21201206.830 7
 16  6 18  0  1 30.0000000  0  9G03G14G16G22G25G26G29G31G32
  -7274561.468 7  -5562970.685 7  23997399.715 7  23997405.318 7       686.004 7
       534.545 7        40.810          43.920    23997399.715 7  23997405.318 7
 -26820761.860 7 -20899291.720 7  20596806.245 7  20596807.796 7     -1287.028 7
     -1002.878 7        51.200          54.560    20596806.245 7  20596807.796 7
  -8385325.684 7  -6534017.705 7  23533821.972 7  23533823.530 7      3367.580 7
      2624.088 7        43.490          42.070    23533821.972 7  23533823.530 7
  -9302202.927 7  -7248467.778 7  23344923.638 7  23344923.458 7      -449.882 7
      -350.558 7        46.090          44.740    23344923.638 7  23344923.458 7
 -12279543.596 7  -9769924.204 7  22952985.069 7  22952989.509 7     -3177.674 7
     -2476.110 7        46.280          47.220    22952985.069 7  22952989.509 7
 -20501966.773 7 -15975554.903 7  21482127.638 7  21482131.915 7      2072.179 7
      1614.683 7        51.650          52.330    21482127.638 7  21482131.915 7
 -16271253.360 7 -12678892.022 7  21940081.752 7  21940083.254 7        26.781 7
        20.870 7        50.390          49.970    21940081.752 7  21940083.254 7
 -24092054.162 7 -18773029.004 7  20663868.426 7  20663868.428 7       303.132 7
       236.208 7        53.200          55.120    20663868.426 7  20663868.428 7
 -22934318.969 7 -16838556.094 7  21214430.839 7  21214434.099 7     -2324.123 7
     -1811.004 7        53.430          54.260    21214430.839 7  21214434.099 7
 16  6 18  0  2  0.0000000  0  9G03G14G16G22G25G26G29G31G32
  -7294873.718 7  -5578798.390 7  23993533.187 7  23993539.614 7       668.153 7
       520.635 7        40.510          43.630    23993533.187 7  23993539.614 7
 -26781904.247 7 -20869013.080 7  20604200.198 7  20604202.159 7     -1303.471 7
     -1015.694 7        50.870          54.300    20604200.198 7  20604202.159 7
  -8486235.175 7  -6612648.417 7  23514619.134 7  23514621.502 7      3359.726 7
      2617.965 7        43.370          42.880    23514619.134 7  23514621.502 7
  -9288470.738 7  -7237767.379 7  23347535.369 7  23347535.653 7      -465.597 7
      -362.800 7        45.740          43.860    23347535.369 7  23347535.653 7
 -12184150.574 7  -9695592.013 7  22971137.184 7  22971142.110 7     -3181.839 7
     -2479.355 7        46.110          47.040    22971137.184 7  22971142.110 7
 -20563942.506 7 -16023847.654 7  21470333.905 7  21470338.050 7      2059.546 7
      1604.842 7        51.580          52.200    21470333.905 7  21470338.050 7
 -16271757.938 7 -12679285.197 7  21939985.547 7  21939987.375 7         6.865 7
         5.350 7        50.230          49.870    21939985.547 7  21939987.375 7
 -24101047.192 7 -18780036.561 7  20662157.115 7  20662156.973 7       296.399 7
       230.960 7        53.560          54.650    20662157.115 7  20662156.973 7
 -22864381.699 7 -16784059.532 7  21227739.332 7  21227742.715 7     -2338.337 7
     -1822.079 7        53.140          54.200    21227739.332 7  21227742.715 7
 16  6 18  0  2 30.0000000  0  9G03G14G16G22G25G26G29G31G32
  -7314650.417 7  -5594209.276 7  23989771.678 7  23989775.952 7       650.302 7
       506.731 7        41.280          43.320    23989771.678 7  23989775.952 7
 -26742553.259 7 -20838349.492 7  20611688.454 7  20611690.293 7     -1319.913 7
     -1028.503 7        50.770          54.280    20611688.454 7  20611690.293 7
  -8586908.809 7  -6691094.860 7  23495462.185 7  23495464.015 7      3351.845 7
      2611.826 7        44.340          43.130    23495462.185 7  23495464.015 7
  -9274267.550 7  -7226699.476 7  23350237.803 7  23350239.015 7      -481.254 7
      -375.003 7        45.580          43.780    23350237.803 7  23350239.015 7
 -12088633.876 7  -9621163.958 7  22989313.681 7  22989317.709 7     -3185.921 7
     -2482.538 7        46.340          46.640    22989313.681 7  22989317.709 7
 -20625539.120 7 -16071845.487 7  21458612.473 7  21458617.068 7      2046.914 7
      1594.997 7        51.380          52.550    21458612.473 7  21458617.068 7
 -16271665.140 7 -12679213.379 7  21940003.452 7  21940004.906 7       -13.034 7
       -10.156 7        50.340          49.970    21940003.452 7  21940004.906 7
 -24109838.492 7 -18786887.426 7  20660484.133 7  20660484.048 7       289.697 7
       225.736 7        53.770          54.440    20660484.133 7  20660484.048 7
 -22794018.785 7 -16729230.808 7  21241128.529 7  21241132.448 7     -2352.501 7
     -1833.119 7        52.780          54.340    21241128.529 7  21241132.448 7
 16  6 18  0  3  0.0000000  0  9G03G14G16G22G25G26G29G31G32
  -7333891.250 7  -5609202.118 7  23986110.355 7  23986114.132 7       632.439 7
       492.809 7        41.620          42.900    23986110.355 7  23986114.132 7
 -26702709.060 7 -20807302.079 7  20619271.138 7  20619272.311 7     -1336.351 7
     -1041.313 7        50.920          54.330    20619271.138 7  20619272.311 7
  -8687344.636 7  -6769356.506 7  23476350.226 7  23476351.829 7      3343.891 7
      2605.629 7        44.680          43.330    23476350.226 7  23476351.829 7
  -9259594.926 7  -7215266.278 7  23353029.502 7  23353030.177 7      -496.890 7
      -387.185 7        45.810          43.510    23353029.502 7  23353030.177 7
 -11992995.578 7  -9546640.641 7  23007513.038 7  23007517.354 7     -3189.943 7
     -2485.671 7        46.420          46.640    23007513.038 7  23007517.354 7
 -20686755.980 7 -16119546.913 7  21446963.162 7  21446967.872 7      2034.236 7
      1585.117 7        51.180          52.960    21446963.162 7  21446967.872 7
 -16270974.521 7 -12678675.226 7  21940135.004 7  21940136.387 7       -32.984 7
       -25.703 7        50.330          50.100    21940135.004 7  21940136.387 7
 -24118428.071 7 -18793580.612 7  20658849.594 7  20658849.418 7       282.942 7
       220.474 7        53.970          54.260    20658849.594 7  20658849.418 7
 -22723231.595 7 -16674071.977 7  21254598.888 7  21254602.851 7     -2366.620 7
     -1844.119 7        52.660          54.350    21254598.888 7  21254602.851 7
