     3.03           OBSERVATION DATA    M (MIXED)           RINEX VERSION / TYPE
NetR9 5.10          Receiver Operator   15-JAN-16 00:00:00  COMMENT
gfzrnx-1.01-6325    FILE CONVERSION     20160116 043804 UTC PGM / RUN BY / DATE
SOLO                                                        MARKER NAME
51202M001                                                   MARKER NUMBER
GEODETIC                                                    MARKER TYPE
GA                  Geoscience Australia                    OBSERVER / AGENCY
5041K71018          TRIMBLE NETR9       5.10                REC # / TYPE / VERS
954                 JAVRINGANT_DM   NONE                    ANT # / TYPE
 -5911340.1240  2156887.2990 -1038664.0050                  APPROX POSITION XYZ
        0.0010        0.0000        0.0000                  ANTENNA: DELTA H/E/N
L2C CARRIER PHASE MEASUREMENTS: PHASE SHIFTS REMOVED        COMMENT
L2C PHASE MATCHES L2 P PHASE                                COMMENT
GLONASS C/A & P PHASE MATCH: PHASE SHIFTS REMOVED           COMMENT
GIOVE-A if present is mapped to satellite ID 51             COMMENT
GIOVE-B if present is mapped to satellite ID 52             COMMENT
DBHZ                                                        SIGNAL STRENGTH UNIT
 C1C    0.000 C1P    0.000 C2C    0.000 C2P    0.000        GLONASS COD/PHS/BIS
C                                                           SYS / PHASE SHIFT
E                                                           SYS / PHASE SHIFT
G                                                           SYS / PHASE SHIFT
R                                                           SYS / PHASE SHIFT
C    6 C1I C7I L1I L7I S1I S7I                              SYS / # / OBS TYPES
E   12 C1X C5X C7X C8X L1X L5X L7X L8X S1X S5X S7X S8X      SYS / # / OBS TYPES
G   12 C1C C2W C2X C5X L1C L2W L2X L5X S1C S2W S2X S5X      SYS / # / OBS TYPES
R   12 C1C C1P C2C C2P L1C L1P L2C L2P S1C S1P S2C S2P      SYS / # / OBS TYPES
    72                                                      # OF SATELLITES
   C01  2880  2880  2880  2880  2880  2880                  PRN / # OF OBS
   C03  2861  2850  2850  2850  2861  2850                  PRN / # OF OBS
   C04  2880  2880  2880  2880  2880  2880                  PRN / # OF OBS
   C06  2564  2551  2551  2551  2564  2551                  PRN / # OF OBS
   C07  2576  2575  2575  2575  2576  2575                  PRN / # OF OBS
   C08  2500  2494  2494  2494  2500  2494                  PRN / # OF OBS
   C09  2070  2066  2066  2065  2070  2066                  PRN / # OF OBS
   C10  1701  1676  1676  1675  1701  1676                  PRN / # OF OBS
   C11   752   744   744   744   752   744                  PRN / # OF OBS
   C12   492   488   488   481   492   488                  PRN / # OF OBS
   C14   888   878   879   878   888   878                  PRN / # OF OBS
   E11   806   805   805   804   805   805   805   804   806PRN / # OF OBS
         805   805   804                                    PRN / # OF OBS
   E12  1263  1260  1260  1260  1261  1260  1260  1260  1263PRN / # OF OBS
        1260  1260  1260                                    PRN / # OF OBS
   E14  1026  1026  1026  1026  1026  1026  1026  1026  1026PRN / # OF OBS
        1026  1026  1026                                    PRN / # OF OBS
   E19  1391  1391  1391  1391  1391  1391  1391  1391  1391PRN / # OF OBS
        1391  1391  1391                                    PRN / # OF OBS
   E20  1288                    1288                    1288PRN / # OF OBS
                                                            PRN / # OF OBS
   E22   438   437   437   437   437   437   437   437   438PRN / # OF OBS
         437   437   437                                    PRN / # OF OBS
   E26  1261  1261  1261  1258  1261  1261  1261  1258  1261PRN / # OF OBS
        1261  1261  1258                                    PRN / # OF OBS
   G01  1236  1085  1227  1227  1227  1085  1227  1227  1236PRN / # OF OBS
        1085  1227  1227                                    PRN / # OF OBS
   G02   765   736               763   736               765PRN / # OF OBS
         736                                                PRN / # OF OBS
   G03   742   722   738   738   738   722   738   738   742PRN / # OF OBS
         722   738   738                                    PRN / # OF OBS
   G05   744   694   742         743   694   742         744PRN / # OF OBS
         694   742                                          PRN / # OF OBS
   G06   745   695   745   745   745   695   745   745   745PRN / # OF OBS
         695   745   745                                    PRN / # OF OBS
   G07  1069  1031  1067        1069  1031  1067        1069PRN / # OF OBS
        1031  1067                                          PRN / # OF OBS
   G08  1199  1058  1189  1189  1191  1058  1189  1189  1199PRN / # OF OBS
        1058  1189  1189                                    PRN / # OF OBS
   G09   779   759   775   775   775   759   775   775   779PRN / # OF OBS
         759   775   775                                    PRN / # OF OBS
   G10  1173  1135  1164  1164  1165  1135  1164  1164  1173PRN / # OF OBS
        1135  1164  1164                                    PRN / # OF OBS
   G11  1332  1249              1329  1249              1332PRN / # OF OBS
        1249                                                PRN / # OF OBS
   G12   754   721   749         754   721   749         754PRN / # OF OBS
         721   749                                          PRN / # OF OBS
   G13  1277  1000              1270  1000              1277PRN / # OF OBS
        1000                                                PRN / # OF OBS
   G14   764   737               763   737               764PRN / # OF OBS
         737                                                PRN / # OF OBS
   G15  1182  1028  1178        1180  1028  1178        1182PRN / # OF OBS
        1028  1178                                          PRN / # OF OBS
   G16   934   732               929   732               934PRN / # OF OBS
         732                                                PRN / # OF OBS
   G17   794   758   786         789   758   786         794PRN / # OF OBS
         758   786                                          PRN / # OF OBS
   G18  1078   982              1072   982              1078PRN / # OF OBS
         982                                                PRN / # OF OBS
   G19   800   784               798   784               800PRN / # OF OBS
         784                                                PRN / # OF OBS
   G20   776   760               776   760               776PRN / # OF OBS
         760                                                PRN / # OF OBS
   G21   998   865               996   865               998PRN / # OF OBS
         865                                                PRN / # OF OBS
   G22  1060  1010              1059  1010              1060PRN / # OF OBS
        1010                                                PRN / # OF OBS
   G23   975   933               972   933               975PRN / # OF OBS
         933                                                PRN / # OF OBS
   G24  1226  1078  1224  1224  1224  1078  1224  1224  1226PRN / # OF OBS
        1078  1224  1224                                    PRN / # OF OBS
   G25   724   670   717   719   721   670   717   719   724PRN / # OF OBS
         670   717   719                                    PRN / # OF OBS
   G26  1190  1044  1182  1182  1183  1044  1182  1182  1190PRN / # OF OBS
        1044  1182  1182                                    PRN / # OF OBS
   G27  1268  1091  1257  1257  1257  1091  1257  1257  1268PRN / # OF OBS
        1091  1257  1257                                    PRN / # OF OBS
   G28  1161  1084              1159  1084              1161PRN / # OF OBS
        1084                                                PRN / # OF OBS
   G29   842   805   838         838   805   838         842PRN / # OF OBS
         805   838                                          PRN / # OF OBS
   G30  1006   975  1004  1004  1004   975  1004  1004  1006PRN / # OF OBS
         975  1004  1004                                    PRN / # OF OBS
   G31   750   707   744         745   707   744         750PRN / # OF OBS
         707   744                                          PRN / # OF OBS
   G32   851   802               851   802               851PRN / # OF OBS
         802                                                PRN / # OF OBS
   R01   958   957   952   897   957   957   952   896   958PRN / # OF OBS
         957   952   897                                    PRN / # OF OBS
   R02  1044  1043  1042  1042  1043  1043  1042  1042  1044PRN / # OF OBS
        1043  1042  1042                                    PRN / # OF OBS
   R03   751   750   751   747   751   750   751   747   751PRN / # OF OBS
         750   751   747                                    PRN / # OF OBS
   R04   663   663   662   659   663   663   662   655   663PRN / # OF OBS
         663   662   659                                    PRN / # OF OBS
   R05   979   978   979   979   979   978   979   978   979PRN / # OF OBS
         978   979   979                                    PRN / # OF OBS
   R06  1083  1082  1072  1063  1082  1082  1072  1062  1083PRN / # OF OBS
        1082  1072  1063                                    PRN / # OF OBS
   R07   893   892   889   887   893   892   889   886   893PRN / # OF OBS
         892   889   887                                    PRN / # OF OBS
   R08   653   653   653   653   653   653   653   653   653PRN / # OF OBS
         653   653   653                                    PRN / # OF OBS
   R09   904   904   891   792   904   904   891   789   904PRN / # OF OBS
         904   891   792                                    PRN / # OF OBS
   R10   613   612   606   590   612   612   606   589   613PRN / # OF OBS
         612   606   590                                    PRN / # OF OBS
   R11   931   931   929   919   931   931   929   919   931PRN / # OF OBS
         931   929   919                                    PRN / # OF OBS
   R12   806   806   805   805   806   806   805   804   806PRN / # OF OBS
         806   805   805                                    PRN / # OF OBS
   R13   580   580   580   580   580   580   580   580   580PRN / # OF OBS
         580   580   580                                    PRN / # OF OBS
   R14   624   623   623   621   623   623   623   621   624PRN / # OF OBS
         623   623   621                                    PRN / # OF OBS
   R15  1103  1103  1100  1096  1103  1103  1100  1095  1103PRN / # OF OBS
        1103  1100  1096                                    PRN / # OF OBS
   R16  1248  1247  1245  1239  1247  1247  1245  1239  1248PRN / # OF OBS
        1247  1245  1239                                    PRN / # OF OBS
   R18  1094  1092  1084  1077  1093  1092  1084  1076  1094PRN / # OF OBS
        1092  1084  1077                                    PRN / # OF OBS
   R19   845   844   840   831   844   844   840   831   845PRN / # OF OBS
         844   840   831                                    PRN / # OF OBS
   R20   999   998   998   997   998   998   998   997   999PRN / # OF OBS
         998   998   997                                    PRN / # OF OBS
   R21  1088  1088  1088  1088  1088  1088  1088  1088  1088PRN / # OF OBS
        1088  1088  1088                                    PRN / # OF OBS
   R22   786   784   783   781   784   784   783   781   786PRN / # OF OBS
         784   783   781                                    PRN / # OF OBS
   R23   634   634   628   618   634   634   628   617   634PRN / # OF OBS
         634   628   618                                    PRN / # OF OBS
   R24   544   544   544   544   544   544   544   544   544PRN / # OF OBS
         544   544   544                                    PRN / # OF OBS
    30.000                                                  INTERVAL
  2016     1    15     0     0    0.0000000     GPS         TIME OF FIRST OBS
  2016     1    15    23    59   30.0000000     GPS         TIME OF LAST OBS
                                                            END OF HEADER
> 2016 01 15 00 00 00.0000000  0 27        .000000000000
C01  36395150.32806  36395141.91407 189519138.47006 146548206.46007        40.800          47.800
C03  38498671.68005  38498669.77006 200472674.50415 155018173.88516        34.400          40.900
C04  35932069.93007  35932064.85508 187107762.78007 144683594.09208        43.200          48.100
C06  39881853.52305  39881854.48806 207675323.89805 160587734.60006        30.500          36.100
C07  38514167.34406  38514163.26606 200553382.67606 155080522.34306        37.100          40.500
C08  37774048.51606  37774044.78907 196699326.85706 152100409.85107        40.800          43.100
C09  40278850.85205  40278853.45705 209742530.17405 162186250.13305        34.200          34.700
C11  21761435.12508  21761433.91808 113317537.08508  87624313.47708        48.300          50.300
C12  22916973.18007  22916972.67607 119334652.68107  92277093.02707        44.100          47.800
E14  24807605.07808  24807621.05908  24807618.38708  24807619.89109 130364849.23608  97350422.86408  99889997.39108  98620210.23709        48.900          52.800          51.500          58.100
E22  23603534.35208  23603541.08608  23603538.41408  23603539.82009 124037388.31508  92625315.15908  95041618.02308  93833482.20009        50.400          52.900          52.100          58.500
G01  24159135.17205  24159150.02003  24159149.75406  24159151.16007 126956941.91405  98927611.79903  98927601.81006  94805623.89107        35.300          19.900          40.400          46.400
G06  22223812.07007  22223823.69104  22223823.79707  22223826.94508 116787105.71407  91002887.93904  91002879.93407  87211107.71008        42.800          29.600          45.100          49.500
G07  21833546.58607  21833554.00805  21833553.76207                 114735955.41707  89404703.16305  89404699.15807                        47.300          33.500          45.000
G11  25757519.00005                                                 135356645.15405                                                        33.700
G13  22710643.17207  22710651.21104                                 119345268.43407  92996314.98804                                        43.700          25.500
G17  20468255.60208  20468262.16406  20468262.20308                 107561625.58608  83814126.23906  83814117.23508                        49.600          39.700          49.100
G19  21046577.42208  21046581.85906                                 110600500.33108  86182249.02406                                        49.200          39.900
G28  22083542.17207  22083548.19504                                 116049858.86107  90428361.77504                                        43.700          26.400
G30  20683064.32008  20683073.13306  20683073.17208  20683074.85909 108690254.19108  84693692.37106  84693701.37308  81164797.33109        51.000          40.600          50.700          55.200
R06  24048271.39105  24048271.57805  24048282.93004  24048283.55104 128326019.86105 128326047.87605  99809186.82404  99809187.80604        33.300          32.000          28.900          27.200
R14  23709405.33605  23709403.85505  23709420.48805  23709420.45304 126384384.48105 126384416.44805  98299078.47405  98299114.46804        31.900          30.300          30.600          28.700
R15  21176864.39807  21176863.60507  21176873.32807  21176872.69107 113162763.94407 113162641.94207  88015432.46107  88015427.46507        44.500          42.800          42.900          42.600
R16  21547188.53107  21547188.59407  21547195.23807  21547195.25406 115101214.10607 115101146.11207  89523172.11707  89523175.12006        44.700          43.300          42.100          41.400
R18  20508176.53908  20508176.40208  20508182.71107  20508183.24607 109474153.08108 109473986.08308  85146464.62307  85146493.61107        50.200          48.400          46.700          45.900
R19  19460668.66408  19460667.59808  19460672.90608  19460672.48007 104101508.77308 104101483.79508  80967865.40808  80967864.40307        51.200          49.200          48.300          46.400
R20  23064285.81305  23064283.46905  23064293.14105  23064292.32005 123335243.92105 123335053.92405  95927339.24005  95927337.25405        34.500          33.000          35.800          35.000
> 2016 01 15 00 00 30.0000000  0 27        .000000000000
C01  36395136.32006  36395128.31607 189519068.64106 146548152.43107        40.900          47.300
C03  38498582.30505  38498580.27706 200472207.66215 155017812.84516        33.900          40.900
C04  35932092.78907  35932087.18807 187107882.13907 144683686.36607        43.200          47.900
C06  39889127.20305  39889127.22705 207713195.68205 160617019.36705        30.500          35.700
C07  38509804.94506  38509800.80906 200530663.84206 155062954.68906        36.900          40.300
C08  37770556.64806  37770553.03907 196681148.08906 152086352.85207        40.800          42.500
C09  40286815.26605  40286818.16405 209784002.75305 162218319.26005        33.700          35.400
C11  21759607.54708  21759605.98808 113308018.20708  87616952.85708        48.600          50.300
C12  22931028.34407  22931027.84007 119407843.10007  92333688.43107        43.300          47.600
E14  24817117.78908  24817133.82408  24817131.57408  24817132.72709 130414840.28808  97387753.81908  99928302.19908  98658028.11709        49.300          52.900          51.500          58.100
E22  23610589.74208  23610596.04708  23610593.65608  23610594.90609 124074464.16308  92653001.62808  95070026.74808  93861529.79209        50.900          53.900          52.400          58.500
G01  24170831.32006  24170844.76203  24170843.49606  24170845.84407 127018400.50606  98975501.52803  98975491.53406  94851518.17407        38.100          20.600          39.800          45.700
G06  22207427.09407  22207438.48004  22207439.05507  22207441.55908 116701000.59607  90935793.08104  90935785.07807  87146808.47508        43.700          29.600          45.200          50.000
G07  21841951.89107  21841959.19505  21841958.89107                 114780122.87407  89439119.29405  89439115.29707                        47.300          33.300          44.300
G11  25775132.25005                                                 135449204.41105                                                        33.300
G13  22702727.72707  22702736.29304                                 119303670.60507  92963901.08904                                        43.000          25.100
G17  20473801.42208  20473807.75006  20473807.26208                 107590768.99308  83836835.34906  83836826.35208                        49.500          39.700          49.200
G19  21053289.69508  21053294.25006                                 110635772.89408  86209734.11506                                        48.300          39.300
G28  22084909.51607  22084916.53504                                 116057049.91607  90433965.13704                                        42.100          26.200
G30  20681002.51608  20681011.38706  20681011.30908  20681012.99609 108679419.83508  84685249.98706  84685258.98808  81156706.70509        50.500          40.100          50.100          55.100
R06  24055249.63305  24055249.58605  24055259.53105  24055260.27004 128363245.36105 128363273.36605  99838139.86905  99838140.84304        33.500          31.500          30.000          28.300
R14  23719597.67205  23719596.89805  23719612.00405  23719611.61704 126438703.70305 126438735.72805  98341326.90005  98341362.90804        33.100          30.300          30.500          28.500
R15  21176458.27307  21176458.88707  21176467.78907  21176467.73806 113160598.11107 113160476.10907  88013747.87707  88013742.87406        44.500          43.200          43.500          41.700
R16  21532479.96907  21532478.03907  21532484.56306  21532485.05106 115022639.89607 115022571.90607  89462058.89306  89462061.89506        44.300          43.100          41.900          41.300
R18  20525351.47708  20525350.40208  20525356.47707  20525357.59407 109565833.24708 109565666.26508  85217771.34407  85217800.34007        49.000          48.100          46.500          46.100
R19  19454818.94508  19454816.59008  19454821.77708  19454821.46907 104070213.41708 104070188.43208  80943524.55908  80943523.56307        50.900          49.400          48.100          46.700
R20  23042633.60905  23042632.67605  23042644.34006  23042643.63705 123219476.17605 123219286.17805  95837297.78906  95837295.79505        34.000          32.300          36.700          35.100
> 2016 01 15 00 01 00.0000000  0 27        .000000000000
C01  36395123.31306  36395115.07407 189518999.76906 146548099.14207        40.700          47.900
C03  38498493.39105  38498490.30906 200471740.92105 155017451.89206        34.700          40.900
C04  35932115.91407  35932110.13707 187108002.46307 144683779.38007        43.200          47.800
C06  39896386.53905  39896386.44506 207750994.67505 160646247.83206        30.700          36.300
C07  38505430.10206  38505425.78906 200507882.10906 155045338.38906        37.500          40.800
C08  37767093.55506  37767090.23807 196663115.59706 152072408.98507        41.300          42.700
C09  40294779.43005  40294783.50005 209825479.40205 162250391.49505        33.300          35.000
C11  21757864.24208  21757863.15208 113298940.83508  87609933.64308        48.500          51.000
C12  22945121.43007  22945121.21907 119481229.78807  92390435.60507        43.800          47.100
E14  24826612.04708  24826628.05908  24826625.80908  24826626.98409 130464731.39608  97425010.14108  99966530.42308  98695770.39009        49.300          53.100          51.500          58.100
E22  23617709.28108  23617715.82008  23617713.57008  23617714.82809 124111877.64908  92680940.22508  95098694.18808  93889832.81109        50.800          52.800          52.200          58.500
G01  24182598.33606  24182610.84003  24182609.75006  24182612.03907 127080233.68406  99023683.10303  99023673.09806  94897692.17707        38.200          20.900          39.600          45.700
G06  22191069.68007  22191081.00805  22191081.75807  22191083.96908 116615043.38507  90868813.48105  90868805.47607  87082619.70208        43.000          30.000          45.800          50.200
G07  21850433.14107  21850440.91405  21850440.37507                 114824693.37307  89473849.48205  89473845.48707                        47.200          33.300          44.300
G11  25792763.84405                                                 135541861.68505                                                        31.300
G13  22694900.85907  22694908.19504                                 119262536.10507  92931848.22304                                        44.300          26.400
G17  20479431.33608  20479437.84006  20479437.70308                 107620356.42008  83859890.45206  83859881.45608                        49.100          39.200          48.200
G19  21060070.28108  21060074.71906                                 110671406.23408  86237500.32006                                        48.900          39.200
G28  22086265.75807  22086272.36704                                 116064175.40807  90439517.42704                                        42.900          27.100
G30  20679020.63308  20679030.14806  20679029.66008  20679031.69909 108669008.97508  84677137.59106  84677146.59308  81148932.32309        49.500          39.500          50.300          55.000
R06  24062241.66405  24062239.50405  24062249.80104  24062250.65603 128400551.07005 128400579.09405  99867155.35804  99867156.32203        31.500          30.300          26.700          22.300
R14  23729866.39104  23729863.85504  23729879.90204  23729879.86704 126493443.00504 126493474.94804  98383901.99004  98383937.99404        29.900          28.900          29.400          25.900
R15  21176137.89807  21176136.98807  21176146.71107  21176146.07406 113158882.15807 113158760.15707  88012413.19407  88012408.19106        44.400          42.200          43.200          41.800
R16  21517773.89107  21517772.78107  21517779.65606  21517780.02706 114944088.76307 114944020.78607  89400963.60106  89400966.59806        44.100          42.800          41.900          41.200
R18  20542613.17208  20542611.85908  20542618.05507  20542618.23407 109657972.98308 109657805.98608  85289435.51907  85289464.51507        49.700          48.400          46.400          46.100
R19  19449112.10208  19449110.21508  19449115.16808  19449115.09407 104039685.99908 104039661.01308  80919780.99808  80919780.00207        51.100          49.600          48.200          46.800
R20  23021039.57005  23021038.98805  23021051.59406  23021050.30106 123104007.65905 123103817.69405  95747489.01206  95747487.01006        34.500          32.500          36.100          36.500
> 2016 01 15 00 01 30.0000000  0 27        .000000000000
C01  36395110.53106  36395102.23407 189518931.92106 146548046.65007        40.700          47.000
C03  38498403.16405  38498399.90606 200471273.40315 155017090.10816        34.400          40.800
C04  35932139.08607  35932134.07008 187108123.70507 144683873.10308        43.200          48.000
C06  39903630.36704  39903632.50406 207788720.54604 160675419.76506        28.600          36.900
C07  38501042.01606  38501038.75806 200485038.18306 155027674.01406        36.300          40.400
C08  37763658.79706  37763655.07007 196645229.92406 152058578.62607        40.600          43.100
C09  40302743.51605  40302749.40205 209866959.56305 162282466.45405        32.300          34.900
C11  21756206.19508  21756204.75408 113290304.40808  87603255.39908        48.500          50.500
C12  22959252.41407  22959250.97307 119554810.59507  92447332.87307        43.600          47.000
E14  24836086.81308  24836102.72308  24836100.80108  24836101.76209 130514521.47008  97462191.01008 100004681.23508  98733436.22909        48.800          52.600          51.800          58.100
E22  23624892.68808  23624899.18008  23624896.88308  23624898.37909 124149627.59708  92709130.07608  95127619.43308  93918390.36309        49.800          53.000          52.000          58.400
G01  24194434.95306  24194448.68803  24194448.12906  24194450.94107 127142440.42306  99072155.75003  99072145.77606  94944145.12407        38.600          20.100          39.800          46.100
G06  22174742.55507  22174752.59005  22174752.99207  22174755.67208 116529237.18007  90801951.53805  90801943.53207  87018543.67608        43.400          30.400          46.300          50.000
G07  21858991.32807  21858999.16005  21858998.91407                 114869666.76407  89508893.59405  89508889.60407                        46.300          33.600          45.100
G11  25810413.36705                                                 135634615.34605                                                        31.600
G13  22687160.47707  22687168.39804                                 119221865.76107  92900157.02904                                        43.200          26.000
G17  20485145.20308  20485152.29306  20485152.09808                 107650386.15608  83883290.21906  83883281.21508                        49.400          39.200          48.200
G19  21066919.21108  21066923.94106                                 110707399.01808  86265546.62206                                        48.300          39.400
G28  22087608.14807  22087616.34004                                 116071236.19707  90445019.31404                                        42.300          24.900
G30  20677120.78108  20677130.12106  20677130.04308  20677131.61309 108659023.31808  84669356.51706  84669365.51908  81141475.45709        50.000          40.100          50.700          55.200
R06  24069248.21905  24069247.34804  24069255.06604                 128437933.98705 128437961.93604  99896230.86904                        30.100          27.300          25.700
R14  23740215.10904  23740211.16804  23740228.73805  23740229.05504 126548602.55804 126548634.51614  98426803.87205  98426839.85904        28.300          27.300          30.000          25.500
R15  21175900.53107  21175900.32407  21175909.81307  21175909.76207 113157617.60007 113157495.60407  88011429.58407  88011424.58707        43.000          42.600          42.400          42.400
R16  21503074.71907  21503073.37507  21503079.66407  21503079.91806 114865564.05107 114865496.05607  89339888.86207  89339891.85906        45.300          42.600          42.500          40.900
R18  20559958.98408  20559958.49608  20559964.57007  20559965.10207 109750567.97808 109750400.98908  85361453.77307  85361482.76107        49.800          48.300          46.100          45.600
R19  19443548.23408  19443546.58208  19443551.77308  19443551.69507 104009927.09408 104009902.10108  80896635.18108  80896634.18407        50.700          49.100          48.300          46.700
R20  22999504.57005  22999503.98805  22999514.48006  22999514.01206 122988842.05605 122988652.06205  95657915.82806  95657913.83806        34.200          33.300          36.200          36.500
> 2016 01 15 00 02 00.0000000  0 26        .000000000000
C01  36395096.98406  36395089.44907 189518864.93006 146547994.81407        40.900          47.600
C03  38498314.16405  38498311.25806 200470806.85415 155016729.29916        34.200          40.800
C04  35932162.95307  35932157.17607 187108245.71607 144683967.43107        43.200          47.800
C06  39910860.53104  39910862.25806 207826372.45204 160704534.48306        28.900          36.400
C07  38496643.96906  38496640.47706 200462132.19306 155009961.62706        37.100          40.900
C08  37760251.64806  37760249.27007 196627491.00706 152044861.76207        40.400          43.600
C09  40310711.92205  40310715.58205 209908442.32505 162314543.42905        33.100          35.200
C11  21754632.09408  21754630.35908 113282108.16708  87596917.52808        48.600          50.500
C12  22973419.77307  22973417.86307 119628582.90407  92504378.23707        43.600          47.000
E14  24845542.25808  24845558.12108  24845555.77708  24845557.03909 130564209.06508  97499295.35208 100042753.52008  98771024.54309        49.600          52.900          51.800          58.100
E22  23632140.16408  23632146.66408  23632144.27308  23632145.81309 124187712.47308  92737570.04308  95156801.31808  93947201.28709        50.600          53.000          51.900          58.400
G01  24206343.72706  24206356.58202  24206356.31306  24206359.53907 127205019.09406  99120918.28602  99120908.29706  94990875.87007        36.900          17.800          38.800          46.100
G06  22158442.64107  22158453.67605  22158454.07407  22158457.10508 116443584.70907  90735209.40405  90735201.39807  86954582.47108        43.900          31.900          45.700          50.700
G07  21867626.28907  21867632.89105  21867632.58607                 114915042.60707  89544251.30105  89544247.30607                        46.400          33.900          44.100
G11  25828082.18005                                                 135727463.14205                                                        30.100
G13  22679509.55507  22679517.12504                                 119181659.79907  92868827.67104                                        43.200          27.100
G17  20490944.50008  20490950.77006  20490950.28108                 107680855.62508  83907032.63206  83907023.62808                        49.100          39.700          48.600
G19  21073837.01608  21073840.75006                                 110743748.64608  86293870.97306                                        48.400          39.600
G28  22088940.32007  22088947.57404                                 116078232.09707  90450470.61304                                        43.700          24.100
G30  20675302.35908  20675311.17206  20675311.21108  20675312.89809 108649464.39908  84661907.97806  84661916.98708  81134337.26209        50.500          40.000          50.100          54.900
R06  24076266.25004  24076265.26204  24076273.68404                 128475389.98604 128475417.92414  99925363.08804                        29.600          28.000          24.100
R15  21175749.62507  21175749.30107  21175759.25807  21175758.62106 113156807.22307 113156685.22907  88010799.22707  88010794.23106        44.100          42.700          43.100          41.500
R16  21488378.75807  21488378.11707  21488385.46507  21488385.71506 114787068.90807 114787000.91207  89278837.11507  89278840.11806        43.300          42.600          42.000          41.400
R18  20577389.22708  20577389.32408  20577394.93007  20577396.05107 109843613.75208 109843446.76208  85433822.62507  85433851.62107        50.000          48.400          46.300          46.200
R19  19438129.18808  19438127.41808  19438132.25407  19438132.41407 103980937.21308 103980912.22008  80874087.48707  80874086.48907        51.000          50.000          47.900          46.400
R20  22978024.75805  22978023.70705  22978035.60506  22978034.90206 122873982.71505 122873792.69105  95568580.83806  95568578.84606        33.700          32.400          36.000          36.300
