     3.00           OBSERVATION DATA    M (MIXED)           RINEX VERSION / TYPE
NetR9 4.85          Receiver Operator   15-JAN-16 00:00:01  PGM / RUN BY / DATE
SPTU                                                        MARKER NAME
99588                                                       MARKER NUMBER
GEODETIC                                                    MARKER TYPE
Unesp               S ao Paulo State University             OBSERVER / AGENCY
5239K52833          Trimble NetR9       4.85                REC # / TYPE / VERS
5311118901          TRM57971.00     NONE                    ANT # / TYPE
  3766123.3132 -4567433.4630 -2367323.8334                  APPROX POSITION XYZ
        0.0081        0.0000        0.0000                  ANTENNA: DELTA H/E/N
G   12 C1C L1C S1C C2W L2W S2W C2X L2X S2X C5X L5X S5X      SYS / # / OBS TYPES
R   12 C1C L1C S1C C1P L1P S1P C2C L2C S2C C2P L2P S2P      SYS / # / OBS TYPES
E   12 C1X L1X S1X C5X L5X S5X C7X L7X S7X C8X L8X S8X      SYS / # / OBS TYPES
C    9 C2I L2I S2I C7I L7I S7I C6I L6I S6I                  SYS / # / OBS TYPES
    30.000                                                  INTERVAL
  2016     1    15     1    22   30.0000000     GPS         TIME OF FIRST OBS
L2C CARRIER PHASE MEASUREMENTS: PHASE SHIFTS REMOVED        COMMENT
L2C PHASE MATCHES L2 P PHASE                                COMMENT
GLONASS C/A & P PHASE MATCH: PHASE SHIFTS REMOVED           COMMENT
GIOVE-A if present is mapped to satellite ID 51             COMMENT
GIOVE-B if present is mapped to satellite ID 52             COMMENT
DBHZ                                                        SIGNAL STRENGTH UNIT
                                                            END OF HEADER
> 2016  1 15  1 22 30.0000000  0 22        .000000000000
G32  21995804.90607 115588790.94807        46.200    21995810.47705  90069323.62705        35.200
R 2  20587385.87508 109858286.87408        48.400    20587385.02307 109858320.87807        47.300    20587390.51607  85445403.76707        45.700    20587389.90607  85445397.76407        45.100
R18  24083092.46106 128557041.60806        39.300    24083088.80506 128557169.62306        37.500    24083095.55505  99988935.13405        35.700    24083095.74606  99988937.13706        36.500
G 8  21334603.63308 112114111.54708        48.000    21334612.29306  87361737.93106        38.900    21334612.79708  87361742.94508        49.100    21334611.95308  83721673.86108        53.500
G31  22526435.29707 118377143.49707        46.900    22526441.14806  92242116.65706        37.100    22526441.57407  92242060.66307        45.200
G11  22582886.22707 118673914.08807        47.100    22582890.37505  92473204.02105        32.400
R 1  22621035.97707 120922530.12207        42.300    22621034.90206 120922524.13306        40.400    22621039.66406  94050947.38606        36.000    22621041.39805  94050944.39405        34.600
R24  19779655.22707 105770852.30007        44.100    19779654.00407 105770785.29907        42.700    19779659.16807  82266199.68407        44.300    19779658.40607  82266214.68607        43.100
R12  23120099.86706 123503331.04406        38.300    23120099.35206 123503423.03906        36.300                                                    23120109.07006  96058262.62306        36.900
R 3  22414568.85207 119986855.31307        44.800    22414568.19907 119986938.30607        43.000    22414577.23407  93323217.90207        42.800    22414577.13706  93323214.89506        41.700
R11  23438099.03906 125246338.37206        39.100    23438099.26606 125246157.42206        37.800    23438103.80905  97413725.76805        31.400    23438104.13705  97413706.76805        31.200
G 3  23951518.01606 125866159.89306        41.100    23951528.35903  98077533.55303        23.500    23951529.08606  98077530.55906        40.600    23951529.54707  93990976.33807        44.900
G 1  23300259.39106 122443687.98206        41.900    23300267.75404  95410728.75504        27.200    23300267.68407  95410737.76307        42.600    23300266.66408  91435288.22508        48.200
G23  24939364.85207 131057141.48407        42.900    24939370.38303 102122551.73303        22.800
G10  23884263.22707 125512804.23607        42.200    23884270.98404  97802284.41604        25.600    23884270.36306  97802281.41206        40.900    23884268.99207  93727198.09607        44.900
G22  21696670.54708 114016896.55408        48.200    21696672.37505  88844425.75305        35.100
G14  22016226.74207 115696121.20307        45.700    22016231.34805  90152938.92205        30.100
E24  28253992.06305 148475632.30015        34.100    28254008.69905 110874792.64915        33.700    28254008.79305 113767180.53715        34.100    28254009.62506 112320993.13816        39.400
E11  23356096.57807 122737301.54107        47.300    23356097.65608  91654618.55308        49.900    23356098.03108  94045595.24808        50.600    23356098.69509  92850111.50309        55.600
E12  25616663.22707 134616574.97607        45.600    25616668.23407 100525441.19407        44.800    25616668.42207 103147833.33717        45.700    25616669.00808 101836643.37008        51.800
G27  21878198.53908 114970602.23008        49.100    21878208.40606  89587681.81006        37.400    21878208.59807  89587692.82007        47.000    21878208.49208  85854866.38208        51.400
C12  26878673.57806 139964298.18816        37.200    26878672.85906 108229275.89116        39.200    26878664.13706 113732422.34516        38.900
> 2016  1 15  1 23  0.0000000  0 23        .000000000000
G32  21991754.61707 115567508.34307        46.200    21991760.48005  90052739.82405        33.800
R23  23273279.63306 124496345.78316        36.200    23273278.50405 124496344.74915        34.800                                                    23273288.04705  96830494.67615        31.600
R 2  20592327.86708 109884657.17408        49.700    20592326.89808 109884691.16208        48.100    20592331.92607  85465914.02807        45.700    20592331.79307  85465908.02507        44.900
R18  24059734.58606 128432361.27106        39.200    24059733.39106 128432489.27906        38.900    24059738.44106  99891961.59406        38.100    24059739.77706  99891963.57506        38.600
G 8  21341431.10908 112149986.63408        49.000    21341439.30106  87389692.57206        38.900    21341439.80508  87389697.58508        48.800    21341438.96108  83748463.72508        53.000
G31  22515632.50807 118320374.81307        47.000    22515638.73806  92197881.20506        36.000    22515638.78507  92197825.21007        44.500
G11  22568106.27307 118596245.10507        46.100    22568110.98805  92412682.88005        33.100
R 1  22634602.47706 120995050.87706        41.900    22634601.63706 120995044.90406        40.600    22634607.28106  94107352.46806        36.100    22634608.68405  94107349.46105        34.700
R24  19792694.28907 105840578.32607        44.000    19792692.83207 105840511.33507        42.800    19792697.65207  82320431.01307        43.400    19792697.51207  82320446.02107        42.900
R12  23104589.10206 123420479.21806        36.900    23104588.23405 123420571.19505        35.500                                                    23104599.41406  95993822.50106        36.700
R 3  22407118.89807 119946980.76807        43.700    22407118.83607 119947063.79507        42.000    22407128.21907  93292204.60307        42.300    22407127.23806  93292201.59706        41.900
R11  23433302.11706 125220699.18306        39.800    23433301.87506 125220518.20106        37.500    23433307.16805  97393784.24605        31.900    23433306.37105  97393765.23605        30.800
G 3  23942740.13306 125820039.21206        40.100    23942751.61703  98041595.60003        22.800    23942752.66406  98041592.59806        41.100    23942753.44507  93956535.84707        44.900
G 1  23282820.94507 122352045.95907        44.200    23282829.84005  95339319.45205        31.100    23282829.25007  95339328.46607        44.500    23282826.52707  91366854.31807        47.000
G23  24919257.49206 130951478.40306        37.900    24919263.75002 102040216.75502        17.400
G10  23894164.83607 125564836.69407        42.200    23894171.46904  97842829.18604        25.200    23894171.09806  97842826.20406        41.100    23894170.47307  93766053.50007        44.500
G22  21703628.88307 114053470.08307        47.000    21703631.62905  88872924.62505        34.400
G14  22032751.60207 115782957.41707        45.900    22032755.30505  90220603.53305        30.100
E24  28244912.54704 148427919.54714        28.300    28244929.16404 110839162.77414        28.700    28244930.33604 113730621.20014        27.200    28244930.56605 112284898.58815        34.000
E11  23359678.35207 122756122.57007        47.000    23359678.98808  91668673.24208        49.200    23359679.55108  94060016.57908        50.400    23359680.17609  92864349.51609        55.700
E12  25631463.38307 134694348.88907        45.100    25631467.98407 100583518.99507        43.700    25631468.78107 103207426.21007        44.200    25631469.04308 101895478.71008        51.100
G27  21893967.21908 115053466.21008        48.500    21893976.82406  89652251.09806        37.800    21893976.90208  89652262.10708        48.100    21893977.37908  85916745.27708        51.600
C12  26862612.07806 139880663.71906        38.600    26862611.56606 108164604.41506        40.500    26862602.13306 113664462.46706        40.000
> 2016  1 15  1 23 30.0000000  0 23        .000000000000
G32  21987714.56307 115546278.85507        46.700    21987720.85505  90036197.50005        35.200
R23  23297772.60206 124627375.49016        37.900    23297771.70706 124627371.47916        36.900
R 2  20597299.35208 109911187.20008        48.800    20597298.38307 109911221.20307        47.600    20597303.59807  85486548.54707        45.400    20597303.11307  85486542.53607        44.800
R18  24036408.10206 128307844.41606        39.300    24036406.67206 128307972.45406        37.900    24036412.29306  99795115.18106        39.900    24036413.10906  99795117.18106        38.400
G 8  21348351.70308 112186354.62808        48.400    21348359.89106  87418031.28206        39.200    21348360.25008  87418036.28908        49.400    21348359.19508  83775621.65808        53.100
G31  22504884.18807 118263891.28207        46.700    22504890.19506  92153868.05306        37.400    22504890.42607  92153812.06007        45.500
G11  22553369.13307 118518800.34707        46.100    22553373.14805  92352336.30605        32.300
R 1  22648145.44506 121067449.51406        41.700    22648144.95706 121067443.53006        40.900    22648151.01205  94163662.53705        35.500    22648150.80105  94163659.53805        34.300
R24  19805860.28107 105910985.94307        43.700    19805859.52707 105910918.96007        42.000    19805864.67607  82375192.48007        43.800    19805864.44907  82375207.48807        42.600
R12  23089100.25806 123337738.83606        38.300    23089099.27306 123337830.84706        36.400                                                    23089110.17606  95929469.40306        38.500
R 3  22399721.98407 119907382.05507        44.300    22399720.27707 119907465.03807        42.800    22399729.74206  93261405.83206        41.600    22399728.58606  93261402.83806        41.400
R11  23428603.22706 125195597.55106        38.300    23428603.45306 125195416.51906        36.800    23428608.39505  97374260.77705        33.500    23428609.59805  97374241.77405        31.600
G 3  23933973.34406 125773965.45306        40.500    23933983.66403  98005694.18403        22.300    23933984.28106  98005691.20106        40.800    23933984.91007  93922130.37207        45.200
G 1  23265384.96107 122260422.85107        42.500    23265392.56604  95267924.89904        25.900    23265393.07406  95267933.90106        41.100    23265391.88707  91298434.56507        45.900
G23  24899178.17207 130845961.59607        42.800    24899183.64804 101957995.87504        24.800
G10  23904058.71107 125616830.69507        42.400    23904064.89803  97883344.01803        22.900    23904065.20706  97883341.03706        38.800    23904064.25807  93804880.18807        44.500
G22  21710596.36707 114090086.62207        46.000    21710599.25005  88901456.99105        33.700
G14  22049329.32807 115870076.51807        45.300    22049334.14104  90288488.55304        29.400
E24  28235777.31305 148379913.90215        32.500    28235793.78104 110803314.01114        27.900    28235794.20304 113693837.31614        27.300    28235795.84005 112248582.26315        33.000
E11  23363336.16407 122775344.07507        46.800    23363336.76208  91683026.99508        49.200    23363337.27708  94074744.77208        50.400    23363337.98409  92878890.48609        55.600
E12  25646300.13307 134772318.76407        46.100    25646305.58607 100641743.36907        45.500    25646305.02307 103267169.45407        44.700    25646305.85208 101954462.51708        52.600
G27  21909788.84408 115136607.77908        48.100    21909798.16806  89717036.70806        37.200    21909798.30107  89717047.71807        47.300    21909798.48808  85978831.47308        51.700
C12  26846588.75005 139797224.79705        34.300    26846587.99606 108100084.20706        39.900    26846578.64806 113596661.54706        40.100
> 2016  1 15  1 24  0.0000000  0 23        .000000000000
G32  21983685.07807 115525101.31407        47.400    21983690.63706  90019695.54906        36.500
R23  23322291.41405 124758529.66205        35.500    23322288.05505 124758525.68205        33.100                                                    23322300.37504  97034451.33614        28.400
R 2  20602300.33608 109937874.56208        48.800    20602299.60208 109937908.56508        48.000    20602304.70707  85507305.42107        45.900    20602304.53107  85507299.41107        45.100
R18  24013112.46106 128183495.24206        39.800    24013112.32406 128183623.26906        37.500    24013118.91806  99698399.23106        37.500    24013118.57406  99698401.23706        37.700
G 8  21355365.33608 112223213.03008        49.300    21355374.07806  87446752.13606        39.400    21355374.51608  87446757.14808        49.800    21355373.09408  83803145.81408        53.000
G31  22494190.18807 118207695.33207        45.600    22494196.51205  92110078.79805        33.200    22494196.84807  92110022.80907        43.200
G11  22538674.88307 118441582.92807        46.200    22538679.63305  92292167.12805        30.600
R 1  22661666.35207 121139725.02507        42.000    22661664.80906 121139719.05206        40.700    22661671.59405  94219876.84105        34.700    22661670.96505  94219873.84405        34.600
R24  19819154.34407 105982071.58307        43.400    19819152.77007 105982004.60807        42.100    19819158.10207  82430481.28207        43.500    19819157.58607  82430496.29207        42.900
R12  23073632.21905 123255113.05905        35.900    23073630.88305 123255205.08605        34.300                                                    23073641.27705  95865205.16505        35.600
R 3  22392375.23407 119868057.52207        44.100    22392374.81607 119868140.53507        43.100    22392383.71107  93230820.32307        42.100    22392383.09806  93230817.32306        41.600
R11  23424006.39106 125171036.33106        38.100    23424006.38306 125170855.37606        36.100    23424013.10205  97355157.65305        31.400    23424012.86304  97355138.66104        29.700
G 3  23925214.81306 125727937.75506        41.200    23925225.14503  97969828.66203        23.900    23925225.07406  97969825.68106        39.800    23925227.09407  93887759.28607        46.000
G 1  23247953.52307 122168820.55107        43.700    23247962.16404  95196546.61404        29.800    23247961.97707  95196555.62607        43.500    23247960.02307  91230030.38607        47.500
G23  24879127.75007 130740592.48207        44.600    24879132.89104 101875889.85104        27.700
G10  23913945.94507 125668786.60707        42.000    23913952.37903  97923829.16403        23.900    23913952.71906  97923826.18906        38.800    23913951.21107  93843678.43607        43.800
G22  21717572.55507 114126746.64607        45.200    21717575.85205  88930023.25405        33.600
G14  22065960.36707 115957475.03107        46.300    22065965.12904  90356591.31304        29.800
E24  28226588.58604 148331615.66814        27.400    28226605.18805 110767256.75815        32.400    28226604.48405 113656829.23315        31.800    28226605.34406 112212044.60316        37.700
E11  23367069.69507 122794965.79107        47.200    23367070.22708  91697679.60108        49.800    23367071.02308  94089779.61208        50.100    23367071.62509  92893734.21109        55.700
E12  25661174.50007 134850482.21807        45.500    25661179.36707 100700112.00307        45.700    25661179.13307 103327060.78517        46.400    25661180.22708 102013592.50308        52.300
G27  21925662.26608 115220023.77508        48.300    21925671.88306  89782036.15606        37.500    21925671.89807  89782047.16507        47.300    21925671.68008  86041122.60808        51.700
C12  26830603.16405 139713983.33715        35.100    26830601.44106 108035716.69716        39.200    26830592.78906 113529021.13716        40.300
> 2016  1 15  1 24 30.0000000  0 23        .000000000000
G32  21979664.74208 115503975.78308        48.100    21979670.53906  90003234.18306        37.900
R23  23346831.66406 124889799.71716        37.700    23346829.83206 124889790.71116        36.400                                                    23346840.77005                        31.200
R 2  20607330.95308 109964716.78608        49.100    20607329.16407 109964750.78107        47.900    20607334.91007  85528182.72807        46.700    20607334.81307  85528176.72507        45.100
R18  23989849.90606 128059317.94706        39.900    23989849.53506 128059445.91506        39.400    23989854.52005  99601816.96905        35.800    23989854.98806  99601818.96406        36.600
G 8  21362472.30508 112260560.04908        49.000    21362481.08606  87475853.72806        39.400    21362481.72708  87475858.73408        49.400    21362480.21508  83831034.85008        52.800
G31  22483552.34407 118151790.95207        45.700    22483558.69505  92066516.95405        35.400    22483559.31307  92066460.96507        45.000
G11  22524024.40607 118364594.69307        47.700    22524028.76205  92232176.49205        32.800
R 1  22675163.56307 121211876.65807        43.400    22675163.66006 121211870.67406        41.500    22675168.54305  94275994.84005        34.400    22675169.08205  94275991.83305        34.500
R24  19832572.70307 106053832.69107        43.600    19832571.24607 106053765.71907        42.100    19832577.11307  82486295.47507        43.700    19832577.01207  82486310.47807        43.100
R12  23058186.86706 123172607.06506        36.500    23058186.58605 123172699.06605        35.400                                                    23058196.89506  95801034.13006        37.700
R 3  22385079.53907 119829006.15407        43.700    22385078.65207 119829089.16307        42.100    22385088.53107  93200447.29307        42.400    22385087.98007  93200444.28807        42.100
R11  23419512.93006 125147018.38306        37.700    23419512.57006 125146837.37006        36.200    23419517.40605  97336477.09305        30.200    23419517.26204  97336458.09304        29.300
G 3  23916465.13307 125681955.51307        42.000    23916473.47704  97933998.54404        24.200    23916474.81306  97933995.56006        39.400    23916476.83207  93853422.14707        46.800
G 1  23230527.42207 122077241.31307        43.800    23230535.41804  95125186.23304        29.000    23230535.41407  95125195.24307        43.200    23230534.62508  91161643.36708        48.600
G23  24859105.64807 130635373.48507        44.600    24859109.85204 101793895.73114        26.100
G10  23923825.18006 125720705.14906        41.800    23923833.24604  97964285.18204        24.900    23923832.95706  97964282.18606        39.800    23923830.55107  93882448.78607        42.000
G22  21724557.45307 114163450.14507        46.200    21724560.10905  88958623.37505        33.800
G14  22082644.50007 116045150.73207        45.900    22082648.64804  90424910.06404        29.800
E24  28217341.17205 148283026.17415        32.300    28217357.93005 110730971.94115        34.000    28217358.07005 113619597.91615        34.300    28217359.52006 112175286.53216        39.500
E11  23370879.75007 122814987.72207        46.800    23370880.59808  91712631.06508        49.900    23370880.97308  94105121.11608        50.300    23370881.81609  92908880.69309        55.700
E12  25676085.07807 134928838.09807        46.700    25676090.16007 100758624.18707        44.000    25676089.78507 103387099.41207        44.700    25676091.15208 102072867.90808        51.800
G27  21941587.00008 115303711.39808        48.200    21941597.06606  89847247.25606        37.100    21941597.29307  89847258.26407        47.800    21941597.03908  86103616.57608        51.900
C12  26814653.90605 139630941.83505        30.500    26814654.67205 107971503.81105        35.900    26814645.69506 113461543.18906        36.700
