     3.00           OBSERVATION DATA    M (MIXED)           RINEX VERSION / TYPE
NetR9 4.85          Receiver Operator   15-JAN-16 00:00:01  PGM / RUN BY / DATE
SPTU                                                        MARKER NAME
99588                                                       MARKER NUMBER
GEODETIC                                                    MARKER TYPE
Unesp               S ao Paulo State University             OBSERVER / AGENCY
5239K52833          Trimble NetR9       4.85                REC # / TYPE / VERS
5311118901          TRM57971.00     NONE                    ANT # / TYPE
  3766123.3132 -4567433.4630 -2367323.8334                  APPROX POSITION XYZ
        0.0081        0.0000        0.0000                  ANTENNA: DELTA H/E/N
G   12 C1C L1C S1C C2W L2W S2W C2X L2X S2X C5X L5X S5X      SYS / # / OBS TYPES
R   12 C1C L1C S1C C1P L1P S1P C2C L2C S2C C2P L2P S2P      SYS / # / OBS TYPES
E   12 C1X L1X S1X C5X L5X S5X C7X L7X S7X C8X L8X S8X      SYS / # / OBS TYPES
C    9 C2I L2I S2I C7I L7I S7I C6I L6I S6I                  SYS / # / OBS TYPES
    30.000                                                  INTERVAL
  2016     1    15     0     0    0.0000000     GPS         TIME OF FIRST OBS
L2C CARRIER PHASE MEASUREMENTS: PHASE SHIFTS REMOVED        COMMENT
L2C PHASE MATCHES L2 P PHASE                                COMMENT
GLONASS C/A & P PHASE MATCH: PHASE SHIFTS REMOVED           COMMENT
GIOVE-A if present is mapped to satellite ID 51             COMMENT
GIOVE-B if present is mapped to satellite ID 52             COMMENT
DBHZ                                                        SIGNAL STRENGTH UNIT
                                                            END OF HEADER
> 2016  1 15  0  0  0.0000000  0 23        .000000000000
G32  22927070.03907 120482559.22107        46.400    22927080.24605  93882633.68305        30.700
R23  20063439.42208 107326236.02108        48.300    20063438.64507 107326033.02107        46.600    20063446.28907  83475919.22507        42.400    20063446.74206  83475930.22906        41.300
R 2  20533224.79708 109569233.67808        49.900    20533223.47708 109569267.68108        48.400    20533231.42207  85220574.86207        47.100    20533231.30107  85220568.85107        46.400
G16  24117755.57807 126739718.05007        42.000    24117762.72703  98758186.30103        21.100
G 8  21641800.77307 113728441.29207        46.800    21641809.40606  88619657.09106        37.300    21641809.98007  88619662.09707        47.300    21641808.53908  84927179.72708        51.500
G31  24631306.35206 129438280.24106        41.400    24631313.99203 100861114.29503        22.600    24631313.46506 100861108.31006        37.500
G11  25298017.58605 132942001.22105        35.600    25298024.12902 103591188.50202        17.800
R 1  20318348.20308 108613340.25608        48.800    20318347.24607 108613334.26707        47.400    20318353.27007  84477131.77307        42.200    20318353.80506  84477128.77406        40.900
R24  19561239.38307 104602897.61407        45.900    19561238.16007 104602830.62907        44.500    19561242.20307  81357793.07407        45.800    19561242.16807  81357808.07607        44.900
R 8  23613086.83606 126447130.54706        37.700    23613087.26206 126447340.58206        37.200    23613091.26206  98347866.32506        38.100    23613090.44506  98347864.32106        37.500
R 3  24449687.44507 130880998.15507        43.300    24449685.27006 130881079.15716        41.700    24449695.96506 101796439.79306        40.500    24449694.53506 101796436.79006        40.200
R22  24426054.11705 130387911.62315        33.700    24426052.91805 130387920.66115        33.100    24426058.44506 101412856.58516        36.200    24426058.46505 101412855.58015        34.400
G 3  25635292.03906 134714430.76806        37.300    25635304.98803 104972271.17503        18.600    25635305.18006 104972281.20606        37.100    25635305.82406 100598444.40606        40.500
G21  24296063.42205 127676761.84805        35.000    24296069.98402  99488341.24212        15.600
G18  24145640.71106 126886290.99706        41.200    24145644.38303  98872549.34203        18.300
G26  25262535.55505 132755702.20005        35.900    25262542.90603 103445897.76703        18.300    25262543.42206 103445885.82006        38.100    25262541.92207  99135928.94007        42.100
G10  22138454.43807 116338511.79807        47.100    22138461.78505  90653484.24205        35.700    22138461.73007  90653481.25007        46.500    22138459.62108  86876264.28808        48.600
G22  20731361.72708 108944162.29308        49.300    20731365.41806  84891643.49406        39.000
G14  20409606.70307 107253276.36507        45.700    20409611.42205  83574098.92805        33.300
E19  27135480.18006 142597987.61106        37.600    27135483.01606 106485635.27706        36.900    27135482.45305 109263509.78005        35.500    27135484.19106 107874574.63206        41.400
E11  23761108.30507 124865643.93607        47.200    23761110.21908  93243962.75508        49.300    23761110.31308  95676400.89208        49.600    23761111.07009  94460186.42409        54.800
E12  23867745.63307 125425992.25207        46.600    23867746.44907  93662356.30007        46.900    23867747.24608  96105709.96908        48.100    23867748.18809  94884039.23909        55.200
G27  20394454.79708 107173492.55808        49.900    20394464.10507  83512016.30607        42.900    20394463.90208  83512027.30908        51.500    20394463.19509  80032354.44309        54.400
> 2016  1 15  0  0 30.0000000  0 22        .000000000000
G32  22919066.76607 120440502.45407        46.800    22919076.41005  93849862.22505        31.700
R23  20074883.43008 107387451.25908        50.800    20074882.06608 107387248.27208        49.400    20074889.50007  83523531.07007        44.700    20074890.76207  83523542.08207        43.100
R 2  20527110.28108 109536604.14208        49.900    20527108.96108 109536638.14608        48.700    20527116.66407  85195196.38807        46.800    20527116.00407  85195190.38507        46.200
G16  24131418.02306 126811516.58806        40.800    24131425.23803  98814133.19803        20.900
G 8  21631373.43807 113673645.59307        47.000    21631382.18406  88576959.11906        36.900    21631382.74207  88576964.12507        47.800    21631381.31308  84886260.83108        51.500
G31  24619020.03906 129373717.82706        38.700    24619028.21903 100810805.42103        18.600    24619028.26205 100810799.46505        34.600
G11  25281523.30506 132855325.95906        39.900    25281530.09803 103523649.39003        19.300
R 1  20330646.65608 108679087.66408        48.500    20330646.16807 108679081.67507        47.200    20330652.44106  84528268.64006        41.600    20330653.00806  84528265.64806        41.200
R24  19551361.14807 104550073.29107        43.400    19551360.04307 104550006.31007        42.400    19551364.64807  81316707.37107        42.500    19551364.39507  81316722.38007        42.300
R 8  23632822.66406 126552804.88306        38.600    23632820.86306 126553014.90406        36.500    23632824.88306  98430057.50206        38.900    23632825.34006  98430055.51306        37.900
R 3  24432511.46105 130789061.34005        35.700    24432511.16405 130789142.38305        34.600    24432520.82005 101724933.44205        33.500    24432519.50805 101724930.45205        34.200
G 3  25623112.96905 134650428.18505        34.400    25623124.40202 104922399.09502        15.600    25623125.26205 104922409.08905        35.100    25623126.87906 100550650.31006        39.300
G21  24309876.52307 127749350.13007        42.700    24309884.06603  99544903.45803        21.800
G18  24161284.50006 126968500.31406        40.400    24161288.16403  98936608.62003        18.300
G26  25273714.52306 132814451.44206        36.000    25273722.58603 103491676.59903        19.600    25273722.36706 103491664.63706        37.000    25273721.01206  99179800.33206        41.900
G10  22149438.00007 116396231.52207        46.700    22149445.12505  90698460.65905        35.000    22149444.99607  90698457.67107        46.400    22149443.01608  86919366.68908        49.000
G22  20735395.12508 108965358.15208        49.100    20735398.77706  84908159.75306        38.600
G14  20410819.46908 107259649.08608        48.200    20410823.99206  83579064.77806        38.900
E19  27149381.43006 142671037.27006        38.400    27149384.42206 106540185.36606        37.700    27149383.95306 109319482.91306        36.000    27149385.26606 107929836.24706        41.900
E11  23753411.93807 124825199.43207        47.700    23753413.91408  93213760.66508        49.200    23753413.96108  95645410.93008        49.300    23753414.77309  94429590.40009        54.800
E12  23873434.20307 125455887.16807        46.600    23873434.98007  93684680.51707        44.900    23873436.38707  96128616.54507        46.500    23873436.86308  94906654.63408        53.200
G27  20395005.08608 107176384.63308        49.300    20395014.07007  83514269.82707        43.200    20395014.24208  83514280.83708        52.100    20395013.51209  80034514.07609        55.200
> 2016  1 15  0  1  0.0000000  0 21        .000000000000
G32  22911101.80507 120398643.61607        47.000    22911110.78905  93817245.00705        31.900
R23  20086448.82808 107449316.50708        48.400    20086446.76207 107449113.52107        46.500    20086454.55907  83571648.65407        42.400    20086455.10506  83571659.65806        41.000
R 2  20521091.42208 109504486.98408        50.100    20521090.21908 109504520.98008        48.100    20521098.00007  85170216.43807        46.000    20521097.54707  85170210.43507        46.000
G16  24145066.19506 126883240.63606        41.600    24145073.93003  98870022.18303        22.300
G 8  21621039.53907 113619342.07307        47.500    21621048.86706  88534644.65106        36.900    21621049.07807  88534649.66307        47.900    21621048.05908  84845709.46408        51.400
G31  24606702.87506 129308986.39316        41.000    24606710.40603 100760365.17513        22.900    24606710.48806 100760359.20616        36.000
G11  25265013.85206 132768567.41406        39.200    25265019.98803 103456045.33903        18.300
R 1  20342998.05508 108745105.90708        48.500    20342996.86308 108745099.91908        48.000    20343002.62906  84579616.17606        41.600    20343003.38306  84579613.17706        41.100
R24  19541598.70307 104497866.72207        44.900    19541597.59807 104497799.73607        43.100    19541601.98407  81276102.22607        43.400    19541601.43007  81276117.23607        42.600
R 8  23652530.10906 126658342.30006        37.800    23652529.01206 126658552.27506        36.700    23652533.50806  98512142.19706        38.100    23652532.71106  98512140.19306        37.300
G 3  25610962.73406 134586576.94606        37.700    25610974.84803 104872644.91503        21.500    25610975.65206 104872654.94706        38.100    25610977.26607 100502969.22407        44.500
G21  24323720.94506 127822101.21316        39.200    24323728.14103  99601592.28713        19.000
G18  24176912.25006 127050626.75706        39.900    24176917.64503  99000603.24003        18.600
G26  25284842.09405 132872920.51805        35.400    25284848.37903 103537236.92403        18.300    25284848.27306 103537224.94906        38.200    25284847.27707  99223462.28707        42.000
G10  22160424.47707 116453965.40007        46.600    22160432.23805  90743448.09605        35.100    22160432.00807  90743445.10707        46.100    22160429.43008  86962479.65408        48.500
G22  20739463.18008 108986733.34708        48.800    20739466.16806  84924815.76206        38.500
G14  20412149.65607 107266639.93907        47.900    20412153.60506  83584512.16606        39.700
E19  27163273.76606 142744041.71206        38.300    27163276.95706 106594701.69606        37.700    27163276.25405 109375421.41605        35.600    27163277.64507 107985063.66307        42.000
E11  23745766.50007 124785022.47107        47.700    23745768.35508  93183758.33808        49.200    23745768.26208  95614625.93308        49.500    23745769.34009  94399196.74009        54.700
E12  23879187.71107 125486121.29407        47.800    23879188.63307  93707257.92007        47.000    23879189.52308  96151782.92708        48.000    23879190.23809  94929526.52409        55.300
G27  20395670.09408 107179878.80408        49.600    20395679.64507  83516992.32407        42.200    20395679.59008  83517003.32608        51.200    20395678.67608  80037123.07408        53.400
> 2016  1 15  0  1 30.0000000  0 22        .000000000000
G32  22903173.84407 120356981.57107        46.300    22903182.73805  93784781.14105        31.900
R23  20098133.56308 107511828.91608        48.800    20098132.90207 107511625.92907        47.000    20098139.76207  83620269.50307        43.300    20098140.66006  83620280.50606        40.400
R 2  20515168.43008 109472880.94708        50.300    20515166.99208 109472914.94208        48.800    20515174.81307  85145634.03907        46.400    20515174.15207  85145628.02807        45.700
G16  24158700.56306 126954886.53406        40.900    24158707.86303  98925850.48003        21.700
G 8  21610800.52307 113565532.70807        46.800    21610809.67206  88492715.24306        37.100    21610810.08208  88492720.25608        48.200    21610808.80108  84805527.10408        50.900
G31  24594352.80506 129244087.92306        38.600    24594360.47303 100709792.07413        22.300    24594360.10905 100709786.05315        34.500
G11  25248489.00806 132681726.60806        38.500    25248494.02702 103388377.11602        17.800
R 1  20355397.34407 108811391.07707        47.900    20355396.38707 108811385.09007        46.400    20355402.51606  84631171.31806        41.700    20355403.31606  84631168.31906        41.000
R24  19531950.63307 104446280.53007        43.400    19531950.93806 104446213.54006        41.800    19531955.03107  81235979.78807        42.200    19531954.68806  81235994.79206        41.700
R 8  23672212.35906 126763740.41406        37.800    23672212.66806 126763950.40006        37.500    23672216.21906  98594118.56606        38.600    23672216.42206  98594116.55406        37.300
R 3  24398319.80507 130606026.92517        42.200    24398318.68406 130606109.92316        41.100    24398328.27006 101582573.14516        40.500    24398327.62906 101582570.12016        40.200
G 3  25598841.25806 134522876.18106        40.200    25598853.05903 104823007.87503        20.900    25598853.78106 104823017.89206        36.700    25598855.18407 100455400.46407        42.200
G21  24337596.49206 127895016.67406        41.600
G18  24192523.57806 127132669.91106        39.900    24192529.38303  99064532.97603        19.600
G26  25295913.25006 132931108.65806        38.600    25295921.41003 103582578.65803        19.600    25295921.14506 103582566.69406        38.500    25295920.59807  99266914.85807        44.100
G10  22171412.74207 116511711.82007        46.900    22171420.60505  90788445.32305        34.200    22171420.13707  90788442.33307        46.000    22171417.85508  87005602.01808        48.600
G22  20743564.56308 109008286.29608        49.200    20743566.87106  84941610.27406        39.700
G14  20413597.36707 107274248.39907        47.100    20413601.37906  83590440.63406        37.300
E19  27177157.18806 142816999.52906        37.600    27177160.27306 106649183.21706        38.600    27177160.27306 109431324.18606        36.500    27177160.99207 108040255.80507        42.400
E11  23738172.35207 124745114.27007        47.100    23738174.14108  93153956.72008        49.200    23738173.85908  95584046.88508        49.200    23738175.09809  94369006.40309        54.700
E12  23885005.39108 125516695.09608        48.500    23885006.42207  93730089.52107        47.900    23885007.40608  96175210.08108        48.500    23885007.82409  94952655.90409        55.900
G27  20396449.76608 107183975.33308        50.200    20396459.13307  83520184.40607        43.600    20396459.00808  83520195.41508        51.900    20396458.22709  80040182.15309        54.700
> 2016  1 15  0  2  0.0000000  0 23        .000000000000
G32  22895282.60907 120315516.02207        46.700    22895292.02005  93752470.38705        31.800
R23  20109940.81308 107574988.11108        50.500    20109939.68408 107574785.12608        48.800    20109946.67207  83669393.40307        45.700    20109947.56307  83669404.40807        44.300
R 2  20509341.18808 109441785.60708        50.100    20509340.33608 109441819.61008        48.900    20509347.90607  85121448.82307        46.500    20509347.33607  85121442.81907        46.100
G16  24172317.96906 127026451.56006        39.200    24172326.35503  98981615.61703        21.300
G 8  21600655.30507 113512219.48607        46.600    21600664.40606  88451172.44506        37.700    21600664.98008  88451177.45808        48.200    21600663.59408  84765715.24408        51.700
G31  24581970.49206 129179024.65706        41.300    24581979.02004 100659093.67504        25.500    24581978.84406 100659087.66106        38.300
G11  25231946.39805 132594805.16005        35.700    25231952.82802 103320646.09002        17.400
R 1  20367846.57808 108877940.27508        48.500    20367845.27007 108877934.29407        47.000    20367851.56307  84682931.80507        42.400    20367852.21506  84682928.80606        41.400
R24  19522421.40607 104395318.42807        45.000    19522420.06607 104395251.43707        42.700    19522424.65607  81196342.66907        45.100    19522424.39507  81196357.67307        44.300
R 8  23691868.51606 126868997.57506        39.800    23691867.88706 126869207.58706        38.100    23691871.41406  98675985.26306        37.700    23691871.24206  98675983.25506        37.100
R 3  24381301.07006 130514929.08006        38.100    24381300.41806 130515012.07606        36.700    24381309.60506 101511719.24606        37.200    24381309.38306 101511716.24206        36.100
R22  24517752.07805 130877361.39915        34.700    24517751.11305 130877420.46715        33.600                                                    24517756.80904                        28.900
G 3  25586748.18806 134459326.13106        39.200    25586759.09403 104773488.38303        20.900    25586760.66006 104773498.36106        37.500    25586761.97707 100407944.25407        43.400
G21  24351501.63306 127968095.20406        39.600    24351509.24603  99715362.32813        22.800
G18  24208120.94506 127214629.25806        39.500    24208124.93403  99128397.46903        19.000
G26  25306932.18806 132989013.26006        39.300    25306939.94103 103627699.10003        19.900    25306940.25406 103627687.15906        36.700    25306939.30506  99310155.28806        41.900
G10  22182403.85907 116569470.04307        46.700    22182411.58605  90833451.73605        34.300    22182411.21507  90833448.74607        45.800    22182409.77308  87048733.15408        49.300
G22  20747699.44508 109030015.72008        49.200    20747702.46506  84958542.29906        39.100
G14  20415162.84407 107282475.65907        47.600    20415167.09805  83596851.73305        35.400
E19  27191031.25006 142889909.86206        37.800    27191035.05106 106703629.26706        38.900    27191034.16005 109487190.57405        35.700    27191035.30107 108095412.02807        42.700
E11  23730629.53107 124705476.75307        47.600    23730631.11308  93124357.24108        49.000    23730631.11308  95553675.25308        49.600    23730632.32009  94339020.85309        54.700
E12  23890888.02308 125547607.36108        48.500    23890888.91007  93753173.40007        47.400    23890889.94108  96198896.13208        48.000    23890890.21109  94976040.86709        55.300
G27  20397343.77308 107188674.09908        50.700    20397352.98407  83523845.76707        43.800    20397352.88708  83523856.76908        51.700    20397352.36709  80043690.95209        54.900
