     3.03           OBSERVATION DATA    M                   RINEX VERSION / TYPE
BNC 2.12.1          rtproc              20160618 005944 UTC PGM / RUN BY / DATE
PORTIONS OF THIS HEADER GENERATED BY BKG                    COMMENT
RTCM_3 mgex.igs-ip.net/UCAL7                                COMMENT
UCAL                                                        MARKER NAME
49106M001                                                   MARKER NUMBER
                                                            MARKER TYPE
                    DLR                                     OBSERVER / AGENCY
5230K51053          TRIMBLE NETR9       5.14                REC # / TYPE / VERS
5000112670          TRM57971.00     NONE                    ANT # / TYPE
 -1641945.2000 -3664804.1000  4940009.3000                  APPROX POSITION XYZ
        0.1500        0.0000        0.0000                  ANTENNA: DELTA H/E/N
C   10 C2I L2I D2I S2I C6I L6I S6I C7I L7I S7I              SYS / # / OBS TYPES
E   13 C1X L1X D1X S1X C7X L7X S7X C8X L8X S8X C5X L5X S5X  SYS / # / OBS TYPES
G   13 C1C L1C D1C S1C C2W L2W S2W C2X L2X S2X C5X L5X S5X  SYS / # / OBS TYPES
J   19 C1C L1C D1C S1C C1Z L1Z S1Z C6L L6L S6L C2X L2X S2X  SYS / # / OBS TYPES
       C5X L5X S5X C1X L1X S1X                              SYS / # / OBS TYPES
R   13 C1C L1C D1C S1C C1P L1P S1P C2C L2C S2C C2P L2P S2P  SYS / # / OBS TYPES
S    7 C1C L1C D1C S1C C5I L5I S5I                          SYS / # / OBS TYPES
  2016     6    18     1     0    0.0000000     GPS         TIME OF FIRST OBS
C L2I  0.00000                                              SYS / PHASE SHIFT
C L6I  0.00000                                              SYS / PHASE SHIFT
C L7I  0.00000                                              SYS / PHASE SHIFT
E L1X  0.00000                                              SYS / PHASE SHIFT
E L7X  0.00000                                              SYS / PHASE SHIFT
E L8X  0.00000                                              SYS / PHASE SHIFT
E L5X  0.00000                                              SYS / PHASE SHIFT
G L1C  0.00000                                              SYS / PHASE SHIFT
G L2W  0.00000                                              SYS / PHASE SHIFT
G L2X  0.00000                                              SYS / PHASE SHIFT
G L5X  0.00000                                              SYS / PHASE SHIFT
J L1C  0.00000                                              SYS / PHASE SHIFT
J L1Z  0.00000                                              SYS / PHASE SHIFT
J L6L  0.00000                                              SYS / PHASE SHIFT
J L2X  0.00000                                              SYS / PHASE SHIFT
J L5X  0.00000                                              SYS / PHASE SHIFT
J L1X  0.00000                                              SYS / PHASE SHIFT
R L1C  0.00000                                              SYS / PHASE SHIFT
R L1P  0.00000                                              SYS / PHASE SHIFT
R L2C  0.00000                                              SYS / PHASE SHIFT
R L2P  0.00000                                              SYS / PHASE SHIFT
S L1C  0.00000                                              SYS / PHASE SHIFT
S L5I  0.00000                                              SYS / PHASE SHIFT
                                                            GLONASS COD/PHS/BIS
  0                                                         GLONASS SLOT / FRQ #
                                                            END OF HEADER
> 2016 06 18 01 00  0.0000000  0 33
G02  20918964.242   109930430.057       -1339.727          48.000    20918965.293    85659166.179          39.812
G05  21809407.742   114609872.946        2606.066          48.688    21809411.148    89305416.449          38.125    21809411.098    89306330.448          46.375
G06  23939045.805   125799966.315       -3368.485          42.000    23939051.328    98026003.442          25.312    23939051.844    98026527.429          40.375    23939052.535    93942103.985          44.375
G09  24817491.734   130416140.657         582.988          38.312    24817496.910   101623506.409          18.625    24817497.598   101623681.427          37.625    24817500.692    97389354.839          43.812
G12  21568356.555   113342792.277       -2872.016          49.312    21568360.070    88318916.521          38.000    21568360.371    88319038.515          46.000
G20  24466617.859   128573679.284        3888.215          38.812    24466622.770   100186786.614          17.812
G23  25601689.258   134538028.421        -539.734          31.812
G25  20811073.352   109363576.950        -607.992          50.188    20811080.016    85217958.199          39.625    20811080.215    85217361.191          48.875    20811080.902    81666639.723          54.375
G29  21166927.438   111233630.635        2181.707          48.812    21166931.297    86675126.324          38.000    21166931.207    86674964.319          46.375
G31  24014151.594   126195076.512        -346.356          43.312    24014153.172    98334207.357          27.625    24014154.008    98333962.339          40.125
R01  21276093.508   113733170.438        2917.977          46.312    21276091.965   113733170.439          45.125    21276096.262    88459016.315          38.688    21276097.027    88458490.321          38.625
R02  24406052.914   130234945.091        4515.602          39.812    24406053.121   130234752.080          37.375    24406059.516   101294586.098          37.188    24406059.074   101294595.102          35.625
R07  24171268.687   129390154.398       -3680.840          41.375    24171266.637   129390154.410          40.688    24171271.594   100637217.891          37.688    24171271.668   100637225.895          37.188
R08  21308915.133   114108323.881        -838.562          47.125    21308913.098   114108251.892          45.125    21308916.152    88750988.687          44.688    21308916.610    88751107.682          44.125
R14  21767717.188   116034956.760       -3823.856          39.125    21767716.531   116034956.727          37.688    21767723.774    90248261.980          36.875    21767723.508    90248261.983          35.875
R15  20851781.766   111425551.716        -980.754          45.688    20851780.738   111425287.721          44.500    20851785.765    86664061.270          45.812    20851785.485    86664067.281          44.625
R16  22996795.563   122844493.349        2988.394          40.000    22996795.039   122845143.361          38.000    22996794.992    95545982.304          26.125    22996795.129    95545882.292          23.625
R17  21005738.609   112405904.968        2620.449          47.812    21005736.383   112405548.972          46.125    21005739.379    87426684.220          46.500    21005739.910    87426687.221          45.188
R23  22193573.133   118720302.459       -3154.941          44.875    22193572.238   118720302.455          43.375    22193577.121    92338818.951          36.688    22193578.867    92338819.940          35.625
R24  19517489.125   104368007.599        -705.664          44.500    19517487.317   104368007.615          42.312    19517489.203    81176153.192          37.812    19517488.860    81175170.197          37.000
E11  23669541.500   124384387.583        1400.449          47.188    23669539.711    95307505.868          46.625    23669540.789    94095377.752          54.000    23669540.555    92884433.428          46.875
E12  24273011.719   127556293.646        -863.078          47.375    24273010.719    97737416.586          50.125    24273011.090    96495006.597          56.125    24273011.000    95252573.400          49.375
E14  16128843.445    84758421.478        1540.793          50.875    16128854.988    64944277.677          52.000    16128855.922    64118722.619          59.875    16128856.629    63293153.351          52.688
E19  25793550.039   135546127.828        1665.418          41.875    25793551.586   103859997.904          41.312    25793552.164   102539750.390          47.688    25793552.664   101219495.668          42.688
E20  22287837.508   117123056.225        -658.606          37.125
E24  25765879.852   135400938.508       -3110.687          44.875    25765895.297   103748614.282          45.625    25765895.891   102429729.373          51.188    25765895.672   101110893.255          45.875
S33  38672724.078   203225738.793        -113.309          41.625    38672711.278   151760562.078          41.000
S35  38700339.969   203372330.316          -3.625          44.125    38700327.660   151868438.253          42.812
S38  38502631.828   202332770.295          -5.137          44.312    38502627.629   151093088.374          46.000
C07  40267985.070   209686450.484         797.051          37.625    40267972.566   170386982.404          39.375    40267980.230   162142482.821          37.875
C11  21841727.062   113735201.196          90.051          48.500    21841715.379    92419513.743          51.375    21841722.926    87947667.059          51.625
C12  23805288.492   123960403.718       -2471.590          45.000    23805276.515   100727620.813          48.375    23805283.594    95853711.786          45.875
C14  25923316.430   134989613.956        3463.473          39.812    25923305.332   109690018.623          40.375    25923313.172   104382475.109          38.500
> 2016 06 18 01 00  1.0000000  0 33
G02  20919219.984   109931769.740       -1339.910          48.500    20919219.922    85660210.085          39.875
G05  21808912.086   114607267.016        2605.742          48.688    21808915.785    89303385.849          38.125    21808915.617    89304299.856          46.625
G06  23939687.024   125803334.809       -3368.539          41.812    23939692.605    98028628.233          23.375    23939693.238    98029152.230          40.812    23939693.813    93944619.417          44.312
G09  24817381.164   130415557.841         582.551          37.688    24817385.754   101623052.268          18.312    24817386.617   101623227.292          37.875    24817389.301    97388919.612          43.688
G12  21568903.304   113345664.408       -2872.320          48.625    21568906.703    88321154.538          37.688    21568906.711    88321276.538          46.000
G20  24465877.789   128569790.996        3888.223          39.625    24465883.051   100183756.807          17.812
G23  25601791.734   134538568.383        -540.430          31.312
G25  20811189.305   109364185.179        -608.590          49.875    20811195.617    85218432.142          40.125    20811195.992    85217835.142          49.125    20811196.855    81667093.919          54.312
G29  21166512.250   111231448.979        2181.485          48.688    21166515.992    86673426.338          37.625    21166515.727    86673264.333          46.188
G31  24014217.492   126195423.020        -346.879          43.875    24014219.012    98334477.373          26.375    24014219.730    98334232.348          39.625
R01  21275547.531   113730252.660        2917.406          46.500    21275546.457   113730252.670          45.000    21275550.875    88456746.938          39.188    21275551.641    88456220.944          38.875
R02  24405206.430   130230429.304        4515.930          39.375    24405206.285   130230236.338          36.688    24405212.797   101291073.830          36.875    24405212.121   101291082.830          35.500
R07  24171956.305   129393835.376       -3681.035          41.875    24171954.723   129393835.400          40.375    24171959.797   100640080.877          38.625    24171959.988   100640088.877          37.000
R08  21309070.297   114109162.693        -839.270          47.125    21309068.848   114109090.703          45.000    21309072.371    88751641.106          44.875    21309072.125    88751760.101          44.000
R14  21768433.602   116038780.650       -3824.211          39.312    21768433.180   116038780.671          38.125    21768440.422    90251236.120          37.000    21768440.391    90251236.117          36.125
R15  20851965.039   111426532.844        -981.606          45.312    20851964.832   111426268.879          44.188    20851970.094    86664824.375          45.812    20851969.695    86664830.379          44.688
R16  22996234.516   122841505.190        2987.754          39.312    22996234.578   122842155.225          38.125    22996234.887    95543658.169          25.812    22996234.903    95543558.157          22.688
R17  21005248.555   112403284.469        2620.351          47.625    21005246.680   112402928.451          45.688    21005250.027    87424646.054          47.000    21005250.558    87424649.055          45.312
R23  22194162.227   118723457.303       -3154.953          44.688    22194162.387   118723457.312          43.625    22194167.504    92341272.717          36.125    22194169.137    92341273.712          35.812
R24  19517620.812   104368713.385        -706.023          44.375    19517619.824   104368713.401          42.312    19517621.359    81176702.139          38.125    19517621.016    81175719.136          36.875
E11  23669274.914   124382987.091        1400.293          47.688    23669273.391    95306432.760          46.375    23669274.410    94094318.290          54.000    23669274.141    92883387.605          46.625
E12  24273176.180   127557156.726        -863.238          47.812    24273175.102    97738077.910          49.875    24273175.360    96495659.514          56.125    24273175.336    95253217.907          49.375
E14  16128550.391    84756881.181        1539.629          51.000    16128561.910    64943097.451          52.188    16128562.910    64117557.399          59.875    16128563.738    63292003.130          52.875
E19  25793233.211   135544462.610        1664.992          42.375    25793234.899   103858721.962          41.188    25793235.566   102538490.662          47.688    25793236.070   101218252.160          42.688
E20  22287962.820   117123715.051        -659.023          37.688
E24  25766472.125   135404049.200       -3110.879          44.375    25766486.906   103750997.797          45.500    25766487.676   102432082.592          51.188    25766487.422   101113216.174          46.000
S33  38672744.656   203225851.952        -113.055          42.125    38672732.043   151760646.547          40.500
S35  38700339.844   203372333.757          -3.480          43.875    38700328.754   151868440.811          43.000
S38  38502631.875   202332775.329          -5.066          44.312    38502629.316   151093092.175          45.812
C07  40267832.063   209685653.399         797.129          37.312    40267819.144   170386334.711          39.625    40267826.813   162141866.465          37.625
C11  21841709.953   113735111.109          89.867          48.625    21841697.508    92419440.547          51.625    21841705.230    87947597.396          51.500
C12  23805762.938   123962875.281       -2471.695          45.188    23805751.489   100729629.164          48.625    23805758.566    95855622.952          45.688
C14  25922651.633   134986150.374        3463.610          39.375    25922640.242   109687204.181          40.375    25922647.672   104379796.849          39.000
> 2016 06 18 01 00  2.0000000  0 33
G02  20919474.735   109933109.775       -1340.024          48.375    20919475.258    85661254.272          39.188
G05  21808416.227   114604661.613        2605.281          48.875    21808420.219    89301355.662          38.000    21808419.582    89302269.667          46.625
G06  23940328.133   125806703.358       -3368.488          41.812    23940334.535    98031253.077          22.625    23940335.168    98031777.070          40.500    23940335.977    93947134.896          43.875
G09  24817270.234   130414975.519         582.101          37.625    24817274.824   101622598.511          18.625    24817275.629   101622773.537          38.125    24817278.429    97388484.762          43.875
G12  21569450.148   113348536.975       -2872.645          48.688    21569453.371    88323392.905          37.188    21569453.379    88323514.904          46.375
G20  24465138.750   128565902.733        3888.371          39.125    24465142.664   100180726.980          17.812
G23  25601893.929   134539108.867        -540.754          30.688
G25  20811305.297   109364794.075        -609.152          49.812    20811311.199    85218906.607          39.875    20811310.988    85218309.601          49.188    20811312.203    81667548.615          54.312
G29  21166097.352   111229267.657        2181.379          48.812    21166101.328    86671726.605          38.312    21166101.238    86671564.600          46.375
G31  24014282.906   126195770.132        -347.246          43.625    24014285.656    98334747.856          27.688    24014285.848    98334502.835          39.375
R01  21275001.102   113727335.527        2916.992          46.625    21275000.027   113727335.537          44.875    21275004.680    88454478.053          39.188    21275005.328    88453952.058          39.125
R02  24404361.586   130225913.471        4516.063          38.875    24404360.383   130225720.510          36.688    24404367.129   101287561.522          36.312    24404366.223   101287570.518          35.312
R07  24172643.828   129397516.757       -3681.394          42.312    24172642.129   129397516.774          40.812    24172646.735   100642944.173          37.875    24172647.043   100642952.177          36.500
R08  21309228.742   114110002.410        -839.992          47.188    21309226.707   114109930.429          45.125    21309229.879    88752294.216          44.812    21309229.633    88752413.212          44.688
R14  21769151.867   116042605.065       -3824.449          39.875    21769151.445   116042605.053          37.812    21769158.336    90254210.658          37.125    21769158.305    90254210.662          35.875
R15  20852149.344   111427514.908        -982.270          45.375    20852148.316   111427250.929          43.875    20852153.110    86665588.197          45.812    20852152.824    86665594.207          44.625
R16  22995677.563   122838517.693        2987.308          39.625    22995675.516   122839167.704          38.312    22995675.703    95541334.556          25.375    22995675.602    95541234.534          22.812
R17  21004758.805   112400664.250        2620.278          47.500    21004756.578   112400308.246          45.688    21004760.394    87422608.105          47.188    21004760.691    87422611.106          45.000
R23  22194754.039   118726612.355       -3154.945          44.375    22194753.027   118726612.358          43.375    22194757.441    92343726.650          36.625    22194759.305    92343727.639          35.625
R24  19517753.031   104369419.626        -706.273          44.312    19517751.574   104369419.621          42.625    19517753.578    81177251.433          38.312    19517752.648    81176268.438          37.125
E11  23669008.570   124381586.797        1400.301          47.812    23669006.812    95305359.808          46.625    23669007.961    94093258.977          53.875    23669007.891    92882341.935          46.625
E12  24273340.250   127558020.063        -863.363          47.875    24273339.390    97738739.429          50.000    24273339.617    96496312.623          56.125    24273339.531    95253862.608          49.312
E14  16128257.352    84755342.200        1538.488          51.312    16128268.871    64941918.233          52.500    16128269.812    64116393.171          59.875    16128270.511    63290853.893          52.875
E19  25792916.234   135542797.755        1664.703          42.688    25792917.789   103857446.292          41.125    25792918.527   102537231.214          47.688    25792919.055   101217008.924          42.625
E20  22288088.422   117124374.355        -659.418          37.000
E24  25767064.039   135407160.006       -3110.727          44.188    25767079.235   103753381.400          45.375    25767079.867   102434435.896          51.125    25767079.515   101115539.177          45.375
S33  38672766.828   203225964.973        -112.879          42.312    38672753.394   151760730.927          40.500
S35  38700340.203   203372337.320          -3.426          44.625    38700329.347   151868443.504          43.000
S38  38502632.906   202332780.332          -4.777          44.688    38502630.653   151093095.910          45.875
C07  40267678.656   209684856.488         797.094          37.500    40267666.328   170385687.150          39.188    40267673.934   162141250.236          37.875
C11  21841692.914   113735021.377          89.793          48.375    21841680.645    92419367.633          51.000    21841688.543    87947528.011          51.500
C12  23806237.633   123965346.994       -2471.555          45.625    23806225.949   100731637.633          48.000    23806233.027    95857534.239          45.375
C14  25921985.266   134982686.746        3463.855          39.375    25921974.754   109684389.701          40.375    25921982.535   104377118.555          39.000
> 2016 06 18 01 00  3.0000000  0 33
G02  20919729.922   109934450.251       -1340.699          48.125    20919730.445    85662298.798          39.625
G05  21807920.063   114602056.766        2604.457          48.688    21807924.055    89299325.913          38.500    21807923.828    89300239.911          46.688
G06  23940970.164   125810072.102       -3368.879          42.188    23940975.395    98033878.073          23.188    23940976.145    98034402.062          40.625    23940976.660    93949650.511          44.312
G09  24817159.305   130414393.887         581.316          37.312    24817164.539   101622145.301          18.312    24817165.402   101622320.318          38.188    24817168.145    97388050.422          43.688
G12  21569996.797   113351410.062       -2873.371          49.000    21570000.547    88325631.675          37.812    21570000.555    88325753.668          46.500
G20  24464398.430   128562014.555        3888.156          38.812    24464402.754   100177697.209          16.875
G23  25601996.719   134539649.954        -541.434          31.000
G25  20811420.922   109365403.724        -610.090          49.812    20811427.469    85219381.656          40.125    20811427.433    85218784.656          49.500    20811428.414    81668003.871          54.312
G29  21165682.734   111227086.699        2180.738          49.312    21165686.008    86670027.158          38.375    21165686.269    86669865.153          46.312
G31  24014348.414   126196117.936        -348.141          43.875    24014350.754    98335018.867          26.875    24014350.125    98334773.856          39.312
R01  21274456.383   113724419.140        2915.953          46.312    21274454.957   113724419.135          45.188    21274459.371    88452209.752          39.625    21274460.258    88451683.758          39.000
R02  24403514.867   130221397.613        4515.918          39.312    24403513.664   130221204.587          37.125    24403520.410   101284049.182          36.188    24403519.387   101284058.186          35.375
R07  24173332.203   129401198.586       -3682.062          42.500    24173330.504   129401198.597          40.375    24173335.578   100645807.823          37.375    24173335.652   100645815.827          36.500
R08  21309384.680   114110843.128        -841.242          47.188    21309384.168   114110771.145          45.188    21309387.223    88752948.105          44.875    21309387.098    88753067.100          44.812
R14  21769869.469   116046429.992       -3825.309          39.625    21769869.164   116046429.970          38.000    21769875.703    90257185.604          37.125    21769875.789    90257185.599          36.375
R15  20852333.227   111428497.963        -983.539          45.500    20852332.434   111428233.970          44.000    20852336.758    86666352.794          45.688    20852336.828    86666358.805          44.688
R16  22995116.625   122835530.874        2986.422          39.188    22995116.102   122836180.866          38.375    22995116.645    95539011.462          24.375    22995116.777    95538911.447          22.688
R17  21004268.726   112398044.381        2619.653          47.375    21004267.320   112397688.371          46.000    21004270.907    87420570.433          47.000    21004271.434    87420573.434          45.125
R23  22195342.555   118729767.639       -3155.398          44.500    22195342.246   118729767.648          43.375    22195347.129    92346180.758          36.375    22195348.758    92346181.747          35.000
R24  19517885.281   104370126.368        -707.066          43.812    19517883.824   104370126.374          43.125    19517885.476    81177801.124          38.312    19517885.250    81176818.129          37.000
E11  23668742.195   124380186.769        1399.867          47.625    23668740.281    95304287.067          46.375    23668741.586    94092199.869          53.875    23668741.453    92881296.463          46.688
E12  24273504.648   127558883.672        -863.773          48.000    24273503.976    97739401.156          50.188    24273504.066    96496965.933          56.188    24273503.976    95254507.511          49.312
E14  16127964.976    84753804.573        1536.941          51.312    16127976.316    64940740.055          52.812    16127977.254    64115229.964          60.000    16127978.098    63289705.669          53.188
E19  25792599.500   135541133.369        1664.035          42.688    25792601.336   103856170.985          41.500    25792602.067   102535972.119          47.688    25792602.508   101215766.042          42.375
E20  22288214.055   117125034.210        -660.199          37.312
E24  25767656.015   135410271.081       -3111.324          44.375    25767671.094   103755765.206          45.312    25767671.801   102436789.399          51.188    25767671.375   101117862.386          45.375
S33  38672787.359   203226078.078        -113.055          42.625    38672775.098   151760815.420          40.500
S35  38700341.281   203372341.004          -3.676          44.312    38700329.090   151868446.338          42.875
S38  38502634.250   202332785.415          -5.105          44.188    38502630.426   151093099.690          45.812
C07  40267526.297   209684059.803         796.477          37.812    40267513.145   170385039.776          40.312    40267520.754   162140634.186          38.375
C11  21841675.414   113734932.036          89.133          48.000    21841663.965    92419295.034          51.625    21841671.629    87947458.928          51.125
C12  23806712.485   123967819.001       -2472.215          44.875    23806700.449   100733646.340          48.688    23806707.644    95859445.750          45.375
C14  25921320.524   134979223.210        3463.313          39.688    25921310.070   109681575.304          40.875    25921317.617   104374440.341          38.500
> 2016 06 18 01 00  4.0000000  0 33
G02  20919984.398   109935791.032       -1340.922          48.312    20919985.039    85663343.554          39.188
G05  21807424.734   114599452.348        2604.137          48.688    21807428.492    89297296.499          38.125    21807428.148    89298210.499          46.188
G06  23941609.930   125813440.872       -3368.824          42.312    23941615.863    98036503.074          22.188    23941616.789    98037027.074          40.812    23941617.070    93952166.149          44.000
G09  24817049.211   130413812.783         580.965          37.688    24817054.328   101621692.479          18.312    24817055.191   101621867.506          38.312    24817057.875    97387616.478          43.812
G12  21570544.063   113354283.562       -2873.730          49.000    21570547.461    88327870.759          37.500    21570547.469    88327992.758          46.312
G20  24463658.453   128558126.372        3888.137          39.500    24463663.656   100174667.453          17.375
G23  25602098.500   134540191.617        -541.867          30.500
G25  20811537.047   109366014.006        -610.582          50.000    20811543.242    85219857.203          39.812    20811543.559    85219260.196          49.312    20811544.422    81668459.598          54.312
G29  21165267.734   111224905.987        2180.605          49.375    21165271.008    86668327.903          38.000    21165271.094    86668165.890          46.625
G31  24014414.484   126196466.324        -348.727          43.688    24014418.348    98335290.331          27.375    24014417.426    98335045.331          39.688
R01  21273909.836   113721503.342        2915.535          46.375    21273908.762   113721503.345          45.125    21273913.883    88449941.913          39.188    21273914.297    88449415.925          38.875
R02  24402668.883   130216881.627        4515.848          39.125    24402668.031   130216688.642          36.875    24402674.543   101280536.742          36.688    24402673.754   101280545.747          35.375
R07  24174019.672   129404880.797       -3682.301          42.500    24174017.621   129404880.823          40.625    24174022.344   100648671.768          37.312    24174022.769   100648679.768          37.125
R08  21309542.289   114111684.729        -842.023          46.688    21309541.543   114111612.740          45.000    21309544.949    88753602.684          45.125    21309544.469    88753721.679          44.688
R14  21770587.976   116050255.340       -3825.629          39.812    21770586.496   116050255.316          38.000    21770593.391    90260160.874          37.188    21770593.473    90260160.870          36.688
R15  20852517.000   111429481.876        -984.336          45.188    20852516.324   111429217.890          43.812    20852520.649    86667118.054          45.125    20852520.602    86667124.065          44.500
R16  22994558.031   122832544.637        2985.941          39.125    22994556.687   122833194.640          38.125    22994557.344    95536688.818          26.688    22994557.480    95536588.821          23.500
R17  21003779.273   112395424.743        2619.558          47.125    21003777.281   112395068.754          46.000    21003780.980    87418532.947          46.500    21003781.277    87418535.934          45.312
R23  22195932.969   118732923.061       -3155.492          44.625    22195931.840   118732923.077          43.625    22195936.488    92348634.973          35.812    22195938.352    92348635.962          35.312
R24  19518016.680   104370833.509        -707.321          44.125    19518014.988   104370833.524          42.875    19518016.758    81178351.118          38.188    19518016.649    81177368.129          37.125
E11  23668475.688   124378786.902        1399.875          47.500    23668473.836    95303214.441          46.375    23668474.934    94091140.879          54.000    23668474.773    92880251.109          46.688
E12  24273668.953   127559747.462        -863.871          47.688    24273667.984    97740063.016          50.188    24273668.250    96497619.387          56.188    24273668.219    95255152.550          49.375
E14  16127672.774    84752268.199        1535.789          51.125    16127684.035    64939562.835          52.500    16127684.859    64114067.706          59.875    16127685.723    63288558.372          53.125
E19  25792282.742   135539469.339        1663.910          42.375    25792284.641   103854895.955          41.500    25792285.406   102534713.292          47.688    25792285.953   101214523.426          42.625
E20  22288339.656   117125694.458        -660.465          37.125
E24  25768248.195   135413382.218       -3111.129          44.375    25768262.992   103758149.064          45.500    25768263.676   102439142.952          51.125    25768263.227   101120185.632          45.312
S33  38672810.672   203226191.096        -112.902          42.312    38672797.051   151760899.796          40.375
S35  38700341.844   203372344.592          -3.555          44.375    38700330.168   151868449.077          42.875
S38  38502635.234   202332790.459          -4.922          44.688    38502632.511   151093103.437          45.812
C07  40267373.414   209683263.160         796.465          38.125    40267360.438   170384392.445          40.375    40267367.871   162140018.174          38.125
C11  21841658.742   113734842.981          88.926          47.875    21841646.472    92419222.666          51.875    21841654.371    87947390.066          51.125
C12  23807187.101   123970291.100       -2472.207          44.688    23807175.183   100735655.119          48.188    23807182.555    95861357.334          45.688
C14  25920654.985   134975759.576        3463.683          39.375    25920644.590   109678760.827          40.688    25920652.254   104371762.042          38.625
