     2.11           OBSERVATION DATA    G (GPS)             RINEX VERSION / TYPE
teqc  2008Feb15     IGN-E (SPG)         20080528 01:30:32UTCPGM / RUN BY / DATE
Linux 2.4.20-8|Pentium IV|gcc -static|Linux|486/DX+         COMMENT
BIT 2 OF LLI FLAGS DATA COLLECTED UNDER A/S CONDITION       COMMENT
ACOR                                                        MARKER NAME
13434M001                                                   MARKER NUMBER
Programas GeodesicosInstituto Geografico Nacional           OBSERVER / AGENCY
459187              LEICA GRX1200PRO    5.62                REC # / TYPE / VERS
103033              LEIAT504        LEIS                    ANT # / TYPE
  4594489.8901  -678368.0104  4357065.9041                  APPROX POSITION XYZ
        3.0460        0.0000        0.0000                  ANTENNA: DELTA H/E/N
     1     1                                                WAVELENGTH FACT L1/2
     6    L1    L2    C1    P2    S1    S2                  # / TYPES OF OBSERV
    30.0000                                                 INTERVAL
Forced Modulo Decimation to 30 seconds                      COMMENT
Predeterminado                                              COMMENT
Project creator:                                            COMMENT
Servicios Programas Geodesicos                              COMMENT
 SNR is mapped to RINEX snr flag value [0-9]                COMMENT
  L1 & L2: min(max(int(snr_dBHz/6), 0), 9)                  COMMENT
  2008     5    27     0     0    0.0000000     GPS         TIME OF FIRST OBS
                                                            END OF HEADER
 08  5 27  0  0  0.0000000  0 10G31G30G 6G 3G24G13G23G29G16G21
 114441509.377 8  89175215.86747  21777491.001    21777490.3494         49.500
        47.0004
 129932491.077 6 101246108.02945  24725331.990    24725334.4214         40.250
        33.2504
 113728459.890 8  88619612.18947  21641800.637    21641801.5394         48.250
        45.7504
 121421732.111 7  94614327.14546  23105783.270    23105784.4914         44.250
        37.7504
 117976394.365 7  91929710.56247  22450152.806    22450154.0364         47.000
        43.2504
 131092246.976 6 102149796.01545  24946024.296    24946025.5164         38.250
        33.2504
 129024505.619 6 100538576.66245  24552547.757    24552545.3414         38.000
        33.0004
 121346516.504 7  94555764.03447  23091456.502    23091457.5744         44.750
        42.2504
 109849479.772 8  85596995.22048  20903654.092    20903653.5424         50.250
        48.7504
 111341726.840 8  86759816.32348  21187618.173    21187617.1584         50.000
        48.0004
 08  5 27  0  0 30.0000000  0 11G18G31G30G10G 6G 3G24G13G29G16G21
 134074945.445 5 104473983.57744  25513614.750    25513614.1624         35.250
        27.7504
 114519350.482 8  89235871.27047  21792303.564    21792302.9344         49.000
        47.0004
 130034226.096 6 101325382.09145  24744692.114    24744693.4454         41.750
        32.2504
 133074777.364 6 103694633.91944  25323288.944    25323289.0854         36.000
        27.7504
 113669973.828 8  88574038.64647  21630671.092    21630671.9614         48.250
        45.7504
 121331538.003 7  94544046.07046  23088619.824    23088621.0894         43.750
        37.7504
 118042592.899 7  91981293.84647  22462749.766    22462751.1624         46.750
        43.2504
 131084160.750 6 102143495.07545  24944485.687    24944486.2434         38.250
        34.5004
 121431328.880 7  94621851.60947  23107595.666    23107596.5684         45.250
        42.7504
 109801557.955 8  85559653.55248  20894534.874    20894534.3024         50.250
        48.7504
 111320526.788 8  86743296.81648  21183583.938    21183582.9494         50.000
        48.2504
 08  5 27  0  1  0.0000000  0 12G18G31G30G10G 6G 3G24G13G23G29G16G21
 133994390.867 6 104411200.28144  25498284.392    25498282.2454         38.500
        28.0004
 114597593.892 8  89296840.15747  21807192.665    21807192.2354         49.250
        47.0004
 130136063.300 6 101404735.80245  24764071.679    24764072.0504         40.750
        30.7504
 133101795.901 5 103715687.33646  25328431.132    25328431.1784         35.500
        36.7504
 113611759.615 8  88528676.93747  21619593.295    21619594.1924         48.500
        46.0004
 121241531.739 7  94473911.35646  23071492.172    23071493.6594         43.500
        38.5004
 118109245.042 7  92033230.57047  22475433.122    22475434.6564         47.250
        42.5004
 131076649.461 6 102137642.12745  24943056.348    24943056.1614         38.000
        33.0004
 129108822.13416 100604282.54255  24568591.990    24568593.2194         36.750
        32.2504
 121516235.514 7  94688012.62647  23123752.992    23123754.0314         44.500
        43.7504
 109753926.679 8  85522538.28148  20885470.920    20885470.3744         50.250
        49.0004
 111299847.737 8  86727183.28148  21179648.809    21179647.8214         50.000
        48.0004
 08  5 27  0  1 30.0000000  0 11G18G31G30G10G 6G 3G24G13G29G16G21
 133913802.874 6 104348404.44944  25482949.334    25482946.5034         37.750
        29.7504
 114676234.184 8  89358118.30647  21822157.504    21822157.0694         49.250
        47.0004
 130237998.862 6 101484166.15144  24783469.591    24783470.3254         41.000
        29.7504
 133129355.510 5 103737162.33443  25333675.117    25333674.9354         34.000
        20.2504
 113553814.574 8  88483524.98047  21608566.632    21608567.5544         48.500
        46.0004
 121151710.915 7  94403921.15546  23054399.576    23054401.2684         43.500
        39.5004
 118176345.669 7  92085516.78247  22488201.977    22488203.6514         46.500
        43.0004
 131069709.654 6 102132234.42944  24941735.676    24941735.5464         38.750
        27.7504
 121601231.986 7  94754243.61747  23139927.515    23139928.6824         45.250
        42.5004
 109706584.269 8  85485648.10248  20876461.947    20876461.3934         50.250
        49.0004
 111279687.206 8  86711473.79048  21175812.341    21175811.3654         50.000
        48.2504
 08  5 27  0  2  0.0000000  0 11G18G31G30G10G 6G 3G24G13G29G16G21
 133833185.446 5 104285585.84345  25467607.194    25467607.3664         35.750
        33.7504
 114755265.136 8  89419700.85847  21837196.552    21837196.1344         49.000
        47.0004
 130340027.987 6 101563669.40545  24802884.898    24802885.8784         40.000
        34.5004
 133157450.897 6 103759054.80944  25339020.653    25339022.4314         36.500
        25.7504
 113496134.829 8  88438579.73647  21597590.523    21597591.4214         48.500
        46.0004
 121062072.630 7  94334073.16246  23037342.067    23037343.5144         43.000
        39.0004
 118243888.404 7  92138147.47847  22501054.837    22501056.5594         47.000
        42.5004
 131063337.305 6 102127268.96945  24940523.064    24940523.5254         40.000
        32.7504
 121686312.616 7  94820540.19147  23156118.278    23156119.2194         45.750
        42.5004
 109659528.155 8  85448981.00948  20867507.454    20867506.9294         50.500
        49.0004
 111260041.243 8  86696165.26048  21172073.749    21172072.8354         50.000
        48.2504
 08  5 27  0  2 30.0000000  0 11G18G31G30G10G 6G 3G24G13G29G16G21
 133752543.822 6 104222748.22045  25452261.210    25452262.1134         38.500
        32.2504
 114834686.584 8  89481587.69547  21852310.047    21852309.5244         49.250
        46.7504
 130442151.835 6 101643246.40645  24822318.057    24822318.6084         39.750
        31.7504
 133186084.141 6 103781366.43445  25344468.736    25344471.4634         37.000
        31.5004
 113438723.011 8  88393843.26747  21586665.388    21586666.2644         48.500
        46.2504
 120972619.616 7  94264369.55846  23020319.623    23020320.9694         43.000
        38.7504
 118311872.868 7  92191122.39047  22513991.999    22513993.3674         47.250
        42.2504
 131057534.458 6 102122747.31045  24939418.979    24939419.6334         39.000
        33.7504
 121771479.418 7  94886903.90447  23172325.338    23172325.9154         45.500
        42.2504
 109612762.000 8  85412539.85748  20858608.168    20858607.5744         50.250
        49.0004
 111240912.530 8  86681259.78848  21168433.569    21168432.6824         49.750
        48.2504
 08  5 27  0  3  0.0000000  0 11G31G30G10G 6G 3G24G13G23G29G16G21
 114914498.734 8  89543778.98147  21867497.865    21867497.2714         49.000
        46.7504
 130544371.868 6 101722898.47343  24841769.062    24841770.7004         39.750
        23.5004
 133215256.663 6 103804098.28145  25350020.576    25350021.9344         37.500
        30.0004
 113381581.712 8  88349317.60347  21575791.617    21575792.6274         48.750
        46.0004
 120883355.320 7  94194813.00646  23003333.067    23003334.4954         43.000
        40.0004
 118380299.456 7  92244441.81347  22527013.282    22527014.4234         47.000
        42.2504
 131052303.653 6 102118671.37245  24938423.418    24938423.8584         38.250
        34.5004
 129282778.074 5 100739833.97245  24601694.675    24601695.0424         35.250
        34.5004
 121856733.340 7  94953335.51447  23188549.150    23188548.8424         46.000
        42.2504
 109566289.616 8  85376327.61948  20849764.804    20849764.1534         50.250
        49.0004
 111222303.960 8  86666759.62048  21164892.375    21164891.5554         49.750
        48.5004
 08  5 27  0  3 30.0000000  0 12G18G31G30G10G 6G 3G24G13G23G29G16G21
 133591174.673 6 104097032.58743  25421556.929    25421556.2484         39.500
        22.5004
 114994683.891 8  89606260.91247  21882756.480    21882755.8984         49.000
        47.0004
 130646671.706 6 101802612.61046  24861235.444    24861238.5924         39.250
        36.0004
 133244952.030 5 103827237.44845  25355671.993    25355673.4964         35.250
        30.7504
 113324695.572 8  88304990.74947  21564966.616    21564967.5344         48.500
        46.0004
 120794265.081 7  94125392.08446  22986379.628    22986381.0744         44.500
        39.0004
 118449150.203 7  92298091.74747  22540115.209    22540116.4074         46.500
        42.7504
 131047628.934 6 102115028.73345  24937533.872    24937534.1514         39.000
        30.7504
 129327347.783 6 100774560.39146  24610176.235    24610176.2674         36.250
        36.2504
 121942057.654 7  95019821.98647  23204785.993    23204785.0144         46.000
        42.7504
 109520096.849 8  85340333.26648  20840974.523    20840973.9414         50.250
        49.0004
 111204201.253 8  86652653.63248  21161447.490    21161446.7214         50.000
        48.0004
 08  5 27  0  4  0.0000000  0 11G31G30G10G 6G 3G24G13G23G29G16G21
 115075258.379 8  89669046.22947  21898089.373    21898088.7064         49.250
        46.7504
 130749068.932 6 101882402.64045  24880720.429    24880722.8504         39.750
        30.0004
 133275188.480 6 103850798.34845  25361425.864    25361426.7354         36.750
        35.2504
 113268083.480 8  88260877.45147  21554193.788    21554194.5634         48.750
        46.2504
 120705368.370 7  94056121.95246  22969463.384    22969464.4714         44.000
        39.5004
 118518441.424 7  92352084.91247  22553300.991    22553302.2654         47.250
        42.0004
 131043528.645 6 102111833.77244  24936753.637    24936754.2834         39.000
        28.7504
 129372356.253 6 100809631.91445  24618742.453    24618741.2904         37.250
        34.0004
 122027469.788 7  95086376.88247  23221039.287    23221038.8494         44.750
        42.5004
 109474204.064 8  85304572.66248  20832241.410    20832240.7764         50.250
        49.0004
 111186622.956 8  86638956.27348  21158102.452    21158101.6864         50.000
        48.2504
 08  5 27  0  4 30.0000000  0 12G18G31G30G10G 6G 3G24G13G23G29G16G21
 133429759.651 6 103971236.05245  25390838.650    25390839.0214         41.250
        32.5004
 115156203.892 8  89732120.65247  21913492.804    21913492.2234         49.000
        46.7504
 130851547.085 6 101962255.83346  24900221.754    24900223.9914         38.000
        37.5004
 133305949.252 5 103874767.77644  25367278.963    25367279.5824         34.250
        28.0004
 113211730.177 8  88216965.80247  21543470.088    21543470.9354         48.750
        46.0004
 120616649.825 7  93986990.64846  22952580.836    22952581.6874         44.250
        38.7504
 118588155.276 7  92406407.39546  22566567.179    22566568.4544         47.500
        41.5004
 131039987.182 6 102109074.17745  24936079.677    24936080.5534         38.500
        33.7504
 129417784.880 6 100845030.83945  24627387.382    24627386.1764         37.500
        35.2504
 122112953.147 7  95152987.26146  23237305.516    23237306.3114         45.250
        41.7504
 109428596.645 8  85269034.42048  20823562.643    20823561.9824         50.250
        49.2504
 111169553.911 8  86625655.73148  21154854.338    21154853.5584         49.750
        48.2504
 08  5 27  0  5  0.0000000  0 12G18G31G30G10G 6G 3G24G13G23G29G16G21
 133349026.174 5 103908326.68144  25375475.188    25375473.6364         34.750
        27.7504
 115237532.019 8  89795493.20447  21928969.038    21928968.4484         49.250
        46.2504
 130954118.935 6 102042181.93245  24919740.599    24919743.9064         38.500
        35.5004
 133337247.743 5 103899156.20444  25373234.850    25373236.3704         35.000
        26.5004
 113155649.797 8  88173266.81947  21532798.346    21532799.1364         48.750
        46.0004
 120528124.877 7  93918010.21246  22935735.015    22935736.0284         44.500
        39.0004
 118658303.235 7  92461068.14846  22579915.821    22579916.8864         47.000
        41.5004
 131037018.515 6 102106760.97144  24935514.693    24935515.3854         38.500
        27.7504
 129463644.953 6 100880765.99645  24636114.294    24636113.0664         37.000
        31.7504
 122198520.337 7  95219662.98847  23253588.167    23253589.1814         45.000
        42.0004
 109383290.091 8  85233730.61948  20814941.092    20814940.4484         50.250
        49.2504
 111153008.193 8  86612762.97648  21151705.793    21151705.0084         49.750
        48.5004
 08  5 27  0  5 30.0000000  0 12G18G31G30G10G 6G 3G24G13G23G29G16G21
 133268269.579 6 103845398.97645  25360110.258    25360110.1234         40.750
        31.7504
 115319233.598 8  89859156.77247  21944516.510    21944515.6884         49.000
        46.2504
 131056776.415 6 102122174.90845  24939276.400    24939278.4424         40.000
        32.0004
 133369075.418 5 103923956.98345  25379291.889    25379292.4094         34.250
        33.7504
 113099835.494 8  88129775.16747  21522177.321    21522178.0384         48.750
        46.5004
 120439786.609 7  93849175.22746  22918924.903    22918925.8754         44.750
        39.5004
 118728875.818 7  92516059.77646  22593345.444    22593346.1444         47.000
        41.5004
 131034614.169 6 102104887.49945  24935057.161    24935057.4364         38.000
        34.0004
 129509926.981 6 100916829.87645  24644921.525    24644920.0814         38.000
        35.0004
 122284163.329 7  95286397.75946  23269885.105    23269886.2804         44.250
        41.7504
 109338278.553 8  85198656.70148  20806375.705    20806375.0544         50.250
        49.2504
 111136978.666 8  86600272.44748  21148655.457    21148654.7014         49.750
        48.7504
 08  5 27  0  6  0.0000000  0 12G18G31G30G10G 6G 3G24G13G23G29G16G21
 133187516.249 5 103782474.25342  25344744.350    25344743.3394         35.500
        16.2504
 115401305.491 8  89923108.88947  21960134.147    21960133.5244         48.750
        46.7504
 131159518.757 6 102202233.84745  24958828.087    24958829.9364         39.750
        34.7504
 133401431.620 5 103949169.60545  25385449.224    25385450.5744         35.750
        32.2504
 113044286.985 8  88086490.63347  21511606.791    21511607.5514         48.750
        46.5004
 120351635.302 7  93780485.93746  22902150.368    22902151.2654         44.500
        37.5004
 118799870.467 7  92571380.28647  22606855.169    22606856.2604         46.500
        42.2504
 131032774.031 6 102103453.62445  24934707.048    24934707.2854         38.750
        35.0004
 129556628.158 6 100953220.41645  24653808.380    24653807.0614         37.250
        35.5004
 122369880.608 7  95353190.46847  23286196.430    23286197.6284         45.000
        42.0004
 109293563.264 8  85163813.62848  20797866.663    20797866.0124         50.250
        49.2504
 111121466.626 8  86588185.15648  21145703.590    21145702.8304         49.750
        48.2504
 08  5 27  0  6 30.0000000  0 12G18G31G30G10G 6G 3G24G13G23G29G16G21
 133106760.845 6 103719552.13645  25329375.079    25329374.9944         38.000
        35.7504
 115483753.972 8  89987354.45047  21975823.606    21975823.0304         49.250
        46.2504
 131262352.842 6 102282364.33745  24978396.971    24978399.1084         39.250
        34.0004
 133434323.501 5 103974799.59742  25391708.359    25391710.0304         35.500
        16.7504
 112989012.815 8  88043419.86947  21501088.436    21501089.1854         48.750
        46.5004
 120263680.274 7  93711949.59146  22885413.047    22885413.9744         44.250
        39.0004
 118871292.939 7  92627034.16346  22620446.099    22620447.7494         46.500
        41.7504
 131031506.094 6 102102465.64345  24934465.697    24934466.2394         38.500
        31.7504
 129603754.500 6 100989942.20846  24662776.058    24662775.2724         36.750
        39.0004
 122455679.421 7  95420046.66947  23302523.265    23302524.1674         43.750
        42.5004
 109249154.352 8  85129209.29248  20789415.880    20789415.2954         50.250
        49.5004
 111106480.315 8  86576507.51848  21142851.749    21142850.9944         50.000
        48.2504
 08  5 27  0  7  0.0000000  0 12G18G31G30G10G 6G 3G24G13G23G29G16G21
 133026005.211 6 103656625.65645  25314007.829    25314009.1014         37.500
        31.0004
 115566566.994 8  90051884.07847  21991582.353    21991581.8174         48.750
        46.5004
 131365268.131 6 102362558.14445  24997980.719    24997981.8664         38.500
        33.2504
 133467740.722 6 104000838.97645  25398067.331    25398068.4114         36.250
        31.2504
 112934003.790 8  88000555.71247  21490620.626    21490621.2744         48.750
        46.2504
 120175912.955 7  93643559.50946  22868711.255    22868712.2804         44.500
        39.2504
 118943131.522 7  92683012.28747  22634116.479    22634117.8964         46.750
        42.2504
 131030800.756 6 102101916.06445  24934331.255    24934331.6364         38.750
        32.5004
 129651294.003 6 101026985.97946  24671822.400    24671821.5864         39.250
        37.7504
 122541549.205 7  95486958.16747  23318864.039    23318864.6694         45.000
        42.0004
 109205043.452 8  85094837.17148  20781021.825    20781021.2424         50.250
        49.5004
 111092010.059 8  86565232.00748  21140098.162    21140097.3764         50.000
        48.2504
 08  5 27  0  7 30.0000000  0 12G18G31G30G10G 6G 3G24G13G23G29G16G21
 132945248.625 5 103593698.63745  25298640.165    25298642.7954         34.750
        31.0004
 115649742.992 8  90116696.53647  22007410.011    22007409.5904         48.750
        46.0004
 131468264.752 6 102442815.21845  25017580.229    25017581.7154         38.250
        32.0004
 133501683.096 5 104027287.59344  25404526.338    25404527.8144         35.750
        26.7504
 112879261.003 8  87957899.01347  21480203.391    21480204.0504         48.750
        46.2504
 120088335.401 7  93575317.29046  22852045.962    22852046.9404         44.250
        40.2504
 119015384.850 7  92739313.58646  22647865.616    22647866.9204         46.250
        41.5004
 131030658.340 6 102101805.09445  24934304.249    24934304.7654         39.500
        32.2504
 129699245.141 6 101064350.48646  24680947.245    24680946.3424         38.750
        38.7504
 122627489.601 7  95553924.69847  23335218.660    23335219.2134         45.750
        42.2504
 109161232.882 8  85060699.07748  20772684.927    20772684.3554         50.250
        49.5004
 111078057.355 8  86554359.77948  21137443.075    21137442.2594         50.000
        48.2504
 08  5 27  0  8  0.0000000  0 12G18G31G30G10G 6G 3G24G13G23G29G16G21
 132864498.302 6 103530776.23345  25283274.371    25283274.5704         39.250
        34.0004
 115733283.975 8  90181793.40147  22023307.468    22023306.9324         49.000
        46.0004
 131571345.765 6 102523138.07144  25037194.627    25037197.7194         36.250
        27.0004
 133536154.043 5 104054148.02844  25411085.918    25411087.0484         33.750
        26.2504
 112824789.043 8  87915453.34847  21469837.716    21469838.3854         49.000
        46.5004
 120000952.212 7  93507226.55246  22835417.238    22835418.5174         44.500
        41.0004
 119088054.762 7  92795939.49047  22661694.134    22661695.6894         46.000
        42.7504
 131031082.681 6 102102135.76044  24934385.171    24934385.4264         38.250
        27.2504
 129747609.893 6 101102037.29446  24690150.650    24690149.6634         39.000
        36.2504
 122713504.100 7  95620948.96646  23351587.193    23351587.5294         46.250
        41.5004
 109117728.330 8  85026799.43548  20764406.322    20764405.7094         50.250
        49.5004
 111064626.624 8  86543894.28648  21134887.298    21134886.4634         50.000
        48.2504
 08  5 27  0  8 30.0000000  0 11G18G31G30G 6G 3G24G13G23G29G16G21
 132783752.329 5 103467857.35044  25267909.619    25267909.7094         34.500
        28.5004
 115817183.325 8  90247169.51447  22039272.978    22039272.5074         48.750
        46.5004
 131674505.866 6 102603522.57045  25056825.537    25056827.6494         39.250
        35.5004
 112770583.611 8  87873215.36647  21459522.735    21459523.4084         48.750
        46.5004
 119913759.551 7  93439284.23946  22818825.080    22818826.2114         44.500
        39.2504
 119161134.331 7  92852884.60946  22675600.820    22675602.6204         46.500
        41.7504
 131032069.138 6 102102904.42345  24934572.632    24934573.5304         37.750
        32.0004
 129796381.310 6 101140040.98645  24699431.614    24699430.8354         40.000
        33.2504
 122799587.302 7  95688026.75247  23367968.602    23367968.2974         44.000
        42.5004
 109074527.004 8  84993136.07548  20756185.341    20756184.7504         50.250
        49.5004
 111051713.798 8  86533832.35648  21132430.098    21132429.2224         50.000
        48.2504
 08  5 27  0  9  0.0000000  0 12G18G31G30G10G 6G 3G24G13G23G29G16G21
 132703015.725 6 103404945.74245  25252546.216    25252545.7614         40.500
        33.5004
 115901440.144 8  90312824.17747  22055306.565    22055306.0164         48.750
        46.0004
 131777746.015 6 102683969.32545  25076471.592    25076473.7824         38.250
        35.5004
 133606673.115 5 104109106.32445  25424504.353    25424505.9454         34.750
        34.5004
 112716646.861 8  87831186.74447  21449258.877    21449259.6044         48.750
        46.2504
 119826760.441 7  93371492.77446  22802269.640    22802270.7974         44.500
        38.5004
 119234623.146 7  92910148.62047  22689585.366    22689587.0924         46.500
        42.0004
 131033618.701 6 102104111.90845  24934867.344    24934868.3274         38.500
        33.0004
 129845558.532 6 101178360.91145  24708789.710    24708788.9754         40.000
        34.0004
 122885739.937 7  95755158.64446  23384362.779    23384362.3624         45.500
        41.2504
 109031632.402 8  84959711.71848  20748022.776    20748022.1804         50.250
        49.5004
 111039321.409 8  86524175.96248  21130071.929    21130071.0244         50.000
        48.5004
 08  5 27  0  9 30.0000000  0 12G18G31G30G10G 6G 3G24G13G23G29G16G21
 132622288.501 6 103342041.35145  25237185.073    25237183.8064         37.000
        35.2504
 115986049.628 8  90378753.64647  22071407.280    22071406.6964         48.500
        46.0004
 131881062.604 6 102764475.83244  25096133.185    25096134.5914         40.750
        29.5004
 133642706.155 6 104137170.55645  25431361.777    25431361.4634         37.000
        34.7504
 112662976.368 8  87789365.60147  21439045.704    21439046.3784         49.000
        46.2504
 119739953.069 7  93303850.70446  22785750.764    22785751.8904         44.500
        40.2504
 119308516.157 7  92967727.60046  22703646.941    22703648.2454         46.250
        41.5004
 131035728.659 6 102105756.04245  24935268.944    24935270.0014         39.000
        33.7504
 129895136.645 6 101216993.20246  24718224.242    24718223.1464         39.750
        36.5004
 122971958.135 7  95822341.66646  23400769.538    23400769.2564         45.000
        41.5004
 108989042.967 8  84926525.15348  20739918.288    20739917.6444         50.250
        49.7504
 111027446.754 8  86514922.99148  21127812.287    21127811.3324         50.000
        48.5004
 08  5 27  0 10  0.0000000  0 12G18G31G30G10G 6G 3G24G13G23G29G16G21
 132541578.064 6 103279150.20445  25221825.704    25221824.7644         39.250
        33.5004
 116071013.779 8  90444959.46447  22087575.218    22087574.8104         48.500
        46.0004
 131984459.500 6 102845044.84846  25115808.906    25115809.8564         39.000
        36.0004
 133679269.137 5 104165661.22744  25438320.374    25438319.5274         35.500
        28.2504
 112609577.022 8  87747755.74347  21428884.105    21428884.8104         49.000
        46.5004
 119653342.426 7  93236361.91646  22769269.182    22769270.2024         45.000
        38.7504
 119382815.644 7  93025623.30046  22717785.752    22717786.9294         46.500
        41.7504
 131038403.301 6 102107840.17744  24935777.870    24935778.7474         38.500
        29.0004
 129945117.705 6 101255939.46246  24727735.203    24727734.1594         38.500
        36.7504
 123058245.992 7  95889578.93946  23417189.102    23417189.3694         45.250
        41.5004
 108946764.980 8  84893581.27748  20731873.007    20731872.4284         50.250
        49.5004
 111016094.758 8  86506077.29348  21125652.116    21125651.1144         50.000
        48.2504
 08  5 27  0 10 30.0000000  0 12G18G31G30G10G 6G 3G24G13G23G29G16G21
 132460888.295 5 103216275.05045  25206470.720    25206470.0624         35.000
        30.7504
 116156331.338 8  90511440.68047  22103810.651    22103810.1184         48.750
        46.0004
 132087936.287 6 102925676.15145  25135500.455    25135501.3244         41.000
        33.2504
 133716362.90816 104194575.98053  25445377.906    25445380.5994         37.250
        19.2504
 112556449.762 8  87706357.89347  21418774.305    21418775.0254         49.000
        46.7504
 119566930.182 7  93169027.73146  22752825.544    22752826.5674         44.750
        38.7504
 119457520.010 7  93083834.50946  22732001.663    22732002.9754         46.750
        41.7504
 131041642.504 6 102110364.21844  24936394.252    24936395.2664         37.250
        28.5004
 129995500.100 6 101295198.45946  24737322.357    24737321.5774         39.500
        37.0004
 123144602.967 7  95956870.08447  23433622.002    23433622.6464         43.500
        42.2504
 108904800.622 8  84860881.78648  20723887.449    20723886.8714         50.250
        49.5004
 111005266.731 8  86497639.87748  21123591.587    21123590.5804         50.000
        48.2504
 08  5 27  0 11  0.0000000  0 12G18G31G30G10G 6G 3G24G13G23G29G16G21
 132380215.184 6 103153412.89146  25191118.251    25191118.3364         38.000
        38.0004
 116241993.136 8  90578190.12747  22120111.496    22120111.0454         48.500
        46.0004
 132191486.452 6 103006364.66845  25155205.313    25155206.7884         37.750
        34.7504
 133753966.322 6 104223877.26045  25452532.236    25452534.6384         37.250
        30.7504
 112503588.637 8  87665167.42847  21408715.192    21408715.8544         49.000
        46.5004
 119480711.080 7  93101844.05946  22736418.577    22736419.5064         45.250
        39.7504
 119532620.451 7  93142354.33746  22746292.718    22746294.2524         46.250
        41.7504
 131045439.664 6 102113323.03144  24937116.988    24937117.4114         38.500
        29.5004
 130046275.097 6 101334763.42446  24746984.535    24746983.6314         39.250
        36.5004
 123231021.898 7  96024209.46646  23450066.276    23450068.0304         44.250
        41.2504
 108863145.217 8  84828423.03948  20715960.748    20715960.0914         50.250
        49.5004
 110994955.623 8  86489605.26248  21121629.413    21121628.3924         49.750
        48.5004
 08  5 27  0 11 30.0000000  0 12G18G31G30G10G 6G 3G24G13G23G29G16G21
 132299567.462 6 103090570.47745  25175771.607    25175771.8744         38.500
        34.5004
 116328002.397 8  90645210.32047  22136478.544    22136478.1374         48.500
        45.7504
 132295113.463 6 103087112.98545  25174924.313    25174925.5964         39.750
        33.7504
 133792089.954 5 104253575.99044  25459787.327    25459788.2114         35.000
        27.2504
 112450999.374 8  87624188.79747  21398707.776    21398708.4314         49.000
        46.7504
 119394691.326 7  93034815.68746  22720049.526    22720050.1954         44.250
        40.0004
 119608120.093 7  93201185.21446  22760659.727    22760660.9724         46.000
        40.7504
 131049799.764 6 102116720.49045  24937946.551    24937947.8224         38.000
        32.5004
 130097445.436 6 101374636.43845  24756721.844    24756721.0894         40.500
        34.0004
 123317507.264 7  96091600.65846  23466523.989    23466525.3954         45.250
        40.2504
 108821805.833 8  84796210.53648  20708094.125    20708093.4384         50.250
        49.7504
 110985168.128 8  86481978.65548  21119766.867    21119765.8894         49.750
        48.5004
 08  5 27  0 12  0.0000000  0 11G18G31G30G 6G 3G24G13G23G29G16G21
 132218947.141 6 103027749.49445  25160430.004    25160430.3414         36.750
        32.2504
 116414356.266 8  90712499.04947  22152911.240    22152910.7324         48.250
        45.7504
 132398816.556 6 103167920.58445  25194657.273    25194658.6224         36.750
        30.0004
 112398681.673 8  87583421.77747  21388752.013    21388752.6704         49.000
        46.5004
 119308871.637 7  92967943.24546  22703718.481    22703719.4534         45.000
        39.7504
 119684016.394 7  93260325.21846  22775102.450    22775103.1834         46.250
        41.7504
 131054721.683 6 102120555.80644  24938883.286    24938884.2324         38.750
        28.2504
 130149007.898 6 101414814.95846  24766533.967    24766532.8354         39.750
        36.5004
 123404057.733 7  96159042.58847  23482993.966    23482994.6794         44.000
        42.0004
 108780783.341 8  84764244.96748  20700287.775    20700287.1354         50.250
        49.5004
 110975903.507 8  86474759.48248  21118003.838    21118002.8934         49.750
        48.5004
 08  5 27  0 12 30.0000000  0 11G18G31G30G 6G 3G24G13G23G29G16G21
 132138350.435 6 102964946.79944  25145093.205    25145093.2284         39.750
        29.5004
 116501045.005 8  90780048.70547  22169407.517    22169407.0334         48.500
        45.5004
 132502587.640 6 103248781.19745  25214404.503    25214406.0834         39.500
        35.2504
 112346628.850 8  87542861.15647  21378846.583    21378847.3754         49.000
        46.7504
 119223245.296 7  92901221.45246  22687424.336    22687425.3024         45.250
        39.7504
 119760299.754 7  93319766.79547  22789618.447    22789619.7294         45.000
        42.0004
 131060197.719 6 102124822.80145  24939925.603    24939926.1614         38.000
        32.5004
 130200953.484 6 101455292.05646  24776419.044    24776417.9314         40.000
        37.7504
 123490665.194 7  96226528.89946  23499475.038    23499475.4494         44.750
        40.7504
 108740072.134 8  84732521.95348  20692540.678    20692540.0434         50.250
        49.5004
 110967155.092 8  86467942.54948  21116339.058    21116338.1674         50.000
        48.2504
 08  5 27  0 13  0.0000000  0 11G18G31G30G 6G 3G24G13G23G29G16G21
 132057787.519 5 102902170.56445  25129762.527    25129762.8364         34.750
        34.7504
 116588073.695 8  90847863.25747  22185968.597    22185968.1544         48.500
        45.5004
 132606433.324 6 103329699.87345  25234165.490    25234166.5634         37.750
        32.5004
 112294848.340 8  87502512.72247  21368993.067    21368993.8224         49.000
        47.0004
 119137820.470 7  92834656.67646  22671168.497    22671169.4584         45.250
        41.0004
 119836975.100 7  93379513.80646  22804209.042    22804210.7044         46.000
        41.2504
 131066234.815 6 102129527.04945  24941074.120    24941074.7814         37.250
        31.2504
 130253286.783 6 101496071.25745  24786377.704    24786376.7964         41.000
        33.5004
 123577335.879 7  96294064.46846  23515968.230    23515968.7064         44.750
        40.7504
 108699680.870 8  84701048.25148  20684854.452    20684853.8514         50.250
        49.7504
 110958929.520 8  86461533.02648  21114773.808    21114772.9114         50.000
        48.5004
 08  5 27  0 13 30.0000000  0 12G18G31G30G10G 6G 3G24G13G23G29G16G21
 131977256.465 6 102839419.03144  25114438.488    25114438.4924         39.000
        29.7504
 116675435.044 8  90915937.04047  22202592.939    22202592.4064         48.250
        45.2504
 132710347.549 6 103410672.08345  25253940.137    25253941.6134         38.750
        31.0004
 133949744.233 5                  25489789.169                          32.500

 112243335.534 8  87462372.88947  21359190.548    21359191.2654         49.000
        47.0004
 119052593.104 7  92768245.77946  22654950.161    22654951.2544         44.750
        41.0004
 119914035.059 7  93439560.55546  22818873.202    22818874.3674         45.500
        40.7504
 131072827.369 6 102134664.12545  24942328.779    24942329.6354         39.750
        32.2504
 130306000.349 6 101537146.73046  24796408.893    24796407.4494         40.250
        36.2504
 123664064.426 7  96361645.13046  23532472.630    23532472.6094         45.250
        41.2504
 108659606.833 8  84669821.73648  20677228.610    20677228.0324         50.250
        49.7504
 110951223.483 8  86455528.33248  21113307.421    21113306.4884         50.000
        48.5004
 08  5 27  0 14  0.0000000  0 11G18G31G30G 6G 3G24G13G23G29G16G21
 131896762.483 6 102776696.43245  25099121.117    25099120.4674         37.500
        31.5004
 116763129.760 8  90984270.57347  22219280.677    22219280.1224         48.500
        45.7504
 132814332.295 6 103491699.14845  25273727.907    25273728.6774         38.750
        35.5004
 112192093.548 8  87422444.08247  21349439.498    21349440.2354         49.000
        47.0004
 118967567.115 7  92701991.77246  22638770.420    22638771.1204         45.250
        40.2504
 119991480.148 7  93499907.36947  22833610.262    22833611.6224         45.250
        42.2504
 131079977.711 6 102140235.82244  24943689.473    24943689.7594         38.750
        24.2504
 130359094.465 6 101578518.79545  24806512.373    24806511.1364         40.250
        35.7504
 123750852.474 7  96429272.15146  23548988.179    23548987.6054         44.750
        40.5004
 108619853.802 8  84638845.35348  20669663.830    20669663.2834         50.250
        50.0004
 110944039.188 8  86449930.19048  21111940.307    21111939.3724         50.000
        48.5004
 08  5 27  0 14 30.0000000  0 11G18G31G30G 6G 3G24G13G23G29G16G21
 131816308.553 6 102714005.12045  25083811.428    25083811.1954         38.500
        30.2504
 116851155.124 8  91052861.76547  22236031.501    22236030.9064         48.500
        45.5004
 132918386.557 6 103572780.48844  25293529.001    25293529.5994         40.500
        28.5004
 112141122.765 8  87382726.60947  21339740.033    21339740.8144         49.000
        47.0004
 118882743.074 7  92635895.15746  22622628.906    22622629.8344         45.000
        40.7504
 120069308.271 7  93560552.64946  22848420.557    22848422.3154         46.000
        41.7504
 131087685.267 6 102146241.74044  24945156.160    24945156.4124         39.000
        27.5004
 130412566.637 6 101620185.39445  24816687.682    24816686.6904         40.750
        35.7504
 123837699.208 7  96496944.93046  23565514.890    23565514.1184         45.000
        41.2504
 108580423.626 8  84608120.54648  20662160.541    20662159.9114         50.250
        50.0004
 110937376.691 8  86444738.64448  21110672.458    21110671.5444         50.000
        48.5004
 08  5 27  0 15  0.0000000  0 11G18G31G30G 6G 3G24G13G23G29G16G21
 131735896.561 6 102651346.38344  25068509.874    25068508.8874         39.250
        28.0004
 116939507.132 8  91121707.47147  22252844.276    22252843.6694         48.250
        45.2504
 133022508.157 6 103653914.21745  25313342.998    25313344.3154         37.500
        34.0004
 112090421.910 8  87343219.46347  21330091.993    21330092.7514         49.000
        46.7504
 118798120.329 7  92569955.37346  22606525.757    22606526.7124         45.500
        40.7504
 120147515.348 7  93621493.23246  22863303.107    22863304.7724         45.750
        41.0004
 131095947.653 6 102152679.95244  24946728.690    24946729.0934         38.000
        28.0004
 130466412.593 6 101662143.26246  24826934.238    24826933.2534         41.500
        38.2504
 123924602.488 7  96564661.73346  23582051.684    23582051.5354         42.750
        41.5004
 108541316.210 8  84577647.24148  20654718.647    20654718.0264         50.250
        50.0004
 110931235.118 8  86439953.01548  21109503.732    21109502.8754         50.000
        48.2504
 08  5 27  0 15 30.0000000  0 11G18G31G30G 6G 3G24G13G23G29G16G21
 131655532.267 6 102588724.86745  25053216.730    25053216.0354         38.000
        33.5004
 117028186.670 8  91190808.40747  22269719.508    22269718.7474         48.500
        45.5004
 133126699.392 6 103735102.22645  25333169.919    25333171.0504         38.750
        31.5004
 112039994.438 8  87303925.34547  21320495.982    21320496.7414         49.250
        47.0004
 118713702.947 7  92504175.62846  22590461.657    22590462.4354         45.750
        40.0004
 120226102.096 7  93682729.65446  22878257.632    22878258.9124         45.750
        41.0004
 131104767.417 6 102159552.51245  24948406.655    24948407.1374         38.500
        35.2504
 130520633.224 7 101704393.11246  24837252.046    24837251.0674         43.000
        37.2504
 124011564.394 7  96632424.20246  23598599.663    23598599.8234         45.250
        39.5004
 108502536.496 8  84547429.28848  20647339.089    20647338.4704         50.250
        49.7504
 110925617.599 8  86435575.73648  21108434.760    21108433.9144         50.000
        48.2504
 08  5 27  0 16  0.0000000  0 11G18G31G30G 6G 3G24G13G23G29G16G21
 131575214.015 6 102526139.25445  25037932.657    25037932.0514         38.000
        31.7504
 117117186.529 8  91260158.93347  22286655.588    22286654.9694         48.000
        45.5004
 133230954.220 6 103816339.89445  25353009.173    25353009.6074         38.500
        32.5004
 111989835.775 8  87264840.68347  21310951.124    21310951.8294         49.250
        47.0004
 118629486.942 7  92438552.79146  22574435.855    22574436.6914         45.250
        40.0004
 120305061.261 7  93744256.29546  22893283.305    22893284.3084         46.000
        41.2504
 131114139.175 6 102166855.18145  24950190.261    24950190.9054         39.000
        31.0004
 130575221.232 7 101746929.22945  24847639.775    24847638.7074         42.250
        34.5004
 124098579.405 7  96700228.11546  23615158.105    23615158.4674         44.000
        40.2504
 108464081.340 8  84517464.23548  20640021.311    20640020.6534         50.250
        49.7504
 110920519.472 8  86431603.17948  21107464.601    21107463.7604         50.000
        48.5004
 08  5 27  0 16 30.0000000  0 11G18G31G30G 6G 3G24G13G23G29G16G21
 131494948.424 6 102463594.62444  25022658.349    25022658.4414         38.750
        26.5004
 117206508.186 8  91329760.21847  22303652.946    22303652.2674         48.250
        45.2504
 133335275.823 6 103897629.47245  25372860.438    25372861.6194         37.250
        33.7504
 111939950.159 8  87225968.79147  21301458.237    21301458.9014         49.000
        46.5004
 118545476.973 7  92373090.49046  22558449.081    22558450.1294         45.750
        40.7504
 120384394.541 7  93806074.42846  22908379.873    22908381.3474         45.750
        41.2504
 131124065.989 6 102174590.37445  24952079.164    24952079.6974         37.000
        31.7504
 130630177.711 7 101789752.48546  24858097.740    24858096.4774         43.000
        36.7504
 124185650.766 7  96768075.88946  23631726.300    23631728.0064         43.000
        40.5004
 108425955.713 8  84487755.96548  20632766.239    20632765.5974         50.250
        50.0004
 110915944.602 8  86428038.35648  21106593.990    21106593.1404         50.000
        48.2504
 08  5 27  0 17  0.0000000  0 11G18G31G30G 6G 3G24G13G23G29G16G21
 131414736.341 6 102401091.71646  25007394.497    25007394.9364         39.250
        36.7504
 117296146.781 8  91399608.47547  22320710.491    22320709.7504         48.000
        45.0004
 133439661.058 6 103978968.67245  25392723.794    25392725.8644         37.000
        30.2504
 111890335.608 8  87187308.11747  21292016.878    21292017.5624         49.000
        47.0004
 118461672.252 7  92307788.13646  22542501.668    22542502.6424         45.250
        40.7504
 120464097.610 7  93868180.71246  22923546.875    22923548.3134         45.500
        41.5004
 131134545.015 6 102182755.84645  24954073.113    24954073.1634         38.500
        32.5004
 130685498.159 6 101832859.33146  24868624.752    24868623.7164         41.250
        36.2504
 124272775.319 7  96835965.13246  23648305.658    23648307.1544         43.250
        40.7504
 108388159.248 8  84458304.18148  20625573.829    20625573.2014         50.250
        50.0004
 110911890.764 8  86424879.53048  21105822.547    21105821.6924         50.000
        48.5004
 08  5 27  0 17 30.0000000  0 11G18G31G30G 6G 3G24G13G23G29G16G21
 131334580.413 6 102338632.57045  24992141.480    24992141.5454         38.000
        33.7504
 117386099.570 8  91469701.54447  22337827.795    22337827.2854         48.000
        45.2504
 133544108.838 5 104060356.53744  25412598.517    25412600.9484         33.750
        29.5004
 111840992.019 8  87148858.57747  21282627.081    21282627.7694         49.250
        47.0004
 118378072.932 7  92242645.83246  22526593.121    22526594.0734         46.000
        40.0004
 120544167.120 7  93930572.55046  22938783.715    22938784.7404         46.000
        40.5004
 131145574.749 6 102191350.49744  24956172.157    24956172.6754         37.250
        27.2504
 130741179.291 6 101876247.23045  24879220.561    24879219.5834         40.000
        34.0004
 124359951.763 7  96903894.80846  23664894.701    23664895.9164         43.500
        41.7504
 108350692.994 8  84429109.70348  20618444.232    20618443.5974         50.250
        50.2504
 110908357.191 8  86422126.10848  21105150.083    21105149.2554         50.000
        48.5004
 08  5 27  0 18  0.0000000  0 11G18G31G30G 6G 3G24G13G23G29G16G21
 131254483.177 6 102276219.11845  24976899.150    24976899.5584         39.750
        33.5004
 117476363.735 7  91540037.25947  22355004.577    22355004.0534         47.750
        44.7504
 133648617.903 6 104141792.22845  25432485.949    25432488.7264         38.750
        32.7504
 111791919.162 8  87110619.99947  21273288.833    21273289.4794         49.250
        47.2504
 118294679.535 7  92177663.98146  22510723.963    22510724.9644         45.500
        41.0004
 120624600.666 7  93993248.04346  22954089.692    22954090.8124         45.500
        40.5004
 131157154.565 6 102200373.72544  24958375.508    24958376.3694         38.250
        27.2504
 130797218.348 6 101919914.07944  24889884.409    24889883.6034         40.500
        26.0004
 124447178.964 7  96971864.01246  23681493.580    23681494.5674         43.750
        40.5004
 108313558.069 8  84400173.40548  20611377.661    20611377.0574         50.250
        50.0004
 110905344.108 8  86419778.26848  21104576.694    21104575.8814         50.000
        48.5004
 08  5 27  0 18 30.0000000  0 11G18G31G30G 6G 3G24G13G23G29G16G21
 131174446.187 6 102213852.60845  24961668.956    24961669.1344         39.250
        35.0004
 117566935.304 8  91610612.49847  22372239.720    22372239.1794         48.000
        44.5004
 133753185.594 5 104223273.54244  25452384.358    25452387.1664         35.500
        29.0004
 111743115.973 8  87072591.55547  21264001.883    21264002.4994         49.000
        47.0004
 118211491.099 7  92112841.85846  22494893.712    22494894.7934         45.750
        41.0004
 120705394.521 7  94056204.29646  22969464.096    22969465.7844         45.500
        41.0004
 131169282.202 6 102209823.82144  24960683.713    24960684.1184         38.250
        29.7504
 130853610.851 6 101963856.34545  24900615.736    24900614.6314         38.250
        32.5004
 124534454.672 7  97039871.03546  23698102.172    23698103.1494         44.750
        40.2504
 108276754.823 8  84371495.55848  20604374.218    20604373.6264         50.000
        50.2504
 110902850.229 8  86417834.99248  21104102.119    21104101.2754         50.000
        48.5004
 08  5 27  0 19  0.0000000  0 11G18G31G30G 6G 3G24G13G23G29G16G21
 131094475.744 6 102151537.99844  24946450.789    24946451.0184         40.250
        28.2504
 117657815.135 8  91681427.94947  22389533.708    22389533.1274         48.000
        44.7504
 133857814.877 6 104304803.03544  25472295.214    25472296.8674         37.250
        28.7504
 111694586.083 8  87034776.07047  21254766.922    21254767.5864         49.250
        47.2504
 118128511.983 7  92048182.82046  22479103.263    22479104.2044         45.750
        40.5004
 120786549.563 7  94119441.97646  22984907.054    22984908.8574         45.500
        40.5004
 131181959.640 6 102219702.34445  24963095.929    24963096.1884         37.500
        31.5004
 130910358.076 6 102008074.96144  24911414.207    24911412.9874         36.500
        25.2504
 124621781.491 7  97107917.87546  23714720.324    23714721.2344         43.250
        41.7504
 108240288.127 8  84343079.95848  20597434.783    20597434.1854         50.250
        50.2504
 110900878.421 8  86416298.52848  21103726.866    21103726.0324         50.000
        48.7504
 08  5 27  0 19 30.0000000  0 11G18G31G30G 6G 3G24G13G23G29G16G21
 131014571.549 6 102089275.00745  24931245.592    24931245.3244         38.500
        31.0004
 117748997.796 8  91752479.36047  22406885.179    22406884.6074         48.000
        44.5004
 133962501.030 6 104386376.61344  25492216.826    25492218.3354         36.750
        27.7504
 111646326.500 8  86997171.21447  21245583.411    21245584.0664         49.000
        47.2504
 118045740.254 7  91983685.38546  22463352.363    22463353.2574         46.000
        40.5004
 120868060.003 7  94182956.61546  23000417.981    23000419.4074         45.500
        39.5004
 131195183.104 6 102230006.36344  24965612.449    24965613.0234         37.500
        27.5004
 130967453.992 6 102052565.26745  24922279.306    24922278.4704         37.000
        32.0004
 124709155.207 7  97176001.25646  23731347.090    23731347.3114         44.750
        39.5004
 108204156.192 8  84314925.20848  20590559.092    20590558.5314         50.250
        50.2504
 110899425.773 8  86415166.60648  21103450.443    21103449.6054         50.000
        48.7504
 08  5 27  0 20  0.0000000  0 11G18G31G30G 6G 3G24G13G23G29G16G21
 130934738.931 6 102027067.78445  24916053.878    24916053.8684         39.750
        34.0004
 117840482.868 8  91823766.43347  22424294.400    22424293.5544         48.250
        44.7504
 134067246.150 6 104467996.21544  25512149.486    25512150.9194         37.500
        27.7504
 111598339.815 8  86959779.00847  21236451.771    21236452.5384         49.250
        47.2504
 117963178.429 7  91919351.51946  22447641.370    22447642.3614         45.750
        40.2504
 120949926.098 7  94246748.37946  23015996.474    23015997.9314         45.250
        40.7504
 131208954.269 6 102240737.15945  24968232.724    24968232.7844         38.250
        33.5004
 131024898.362 6 102097327.21244  24933210.553    24933208.7254         38.000
        26.0004
 124796577.641 7  97244122.61746  23747983.674    23747983.4264         46.000
        39.0004
 108168363.145 8  84287034.53048  20583747.938    20583747.3504         50.250
        50.2504
 110898494.412 8  86414440.87948  21103273.240    21103272.3604         50.000
        48.5004
 08  5 27  0 20 30.0000000  0 11G18G31G30G 6G 3G24G13G23G29G16G21
 130854977.993 6 101964916.41345  24900876.192    24900876.0604         39.250
        32.0004
 117932265.620 7  91895285.45447  22441760.208    22441759.3524         47.750
        45.0004
 134172046.708 6 104549659.11045  25532092.578    25532093.1384         38.250
        30.5004
 111550623.852 8  86922597.75247  21227371.696    21227372.4734         49.250
        47.5004
 117880825.268 7  91855180.24046  22431970.120    22431970.9354         46.000
        40.7504
 121032142.579 7  94310813.18246  23031641.804    23031643.3784         45.250
        40.7504
 131223269.373 6 102251891.78243  24970957.023    24970957.5594         38.250
        23.2504
 131082685.957 6 102142356.50544  24944207.030    24944206.0034         37.000
        29.7504
 124884045.551 7  97312279.35247  23764628.044    23764628.4094         43.000
        42.2504
 108132907.763 8  84259406.96448  20577001.033    20577000.4014         50.250
        50.2504
 110898081.221 8  86414118.92248  21103194.648    21103193.7274         50.000
        48.5004
 08  5 27  0 21  0.0000000  0 11G18G31G30G 6G 3G24G13G23G29G16G21
 130775294.627 6 101902825.47845  24885713.076    24885712.4074         38.000
        33.5004
 118024345.919 7  91967036.32547  22459282.310    22459281.7084         47.500
        44.7504
 134276904.401 6 104631366.32645  25552046.375    25552046.8064         38.500
        31.5004
 111503181.531 8  86885629.72047  21218343.692    21218344.4714         49.250
        47.5004
 117798684.192 7  91791174.22646  22416339.217    22416339.9894         46.000
        41.2504
 121114709.859 7  94375151.31446  23047353.811    23047355.4074         44.750
        40.7504
 131238130.208 6 102263471.70545  24973784.583    24973784.3884         37.750
        32.2504
 131140816.889 6 102187653.27944  24955269.061    24955267.2894         37.000
        29.0004
 124971560.712 7  97380473.01346  23781281.661    23781281.3954         44.750
        39.2504
 108097794.503 8  84232045.98948  20570319.207    20570318.5564         50.000
        50.2504
 110898189.758 8  86414203.50948  21103215.344    21103214.3694         50.000
        48.5004
 08  5 27  0 21 30.0000000  0 11G18G31G30G 6G 3G24G13G23G29G16G21
 130695690.927 6 101840796.62445  24870564.853    24870564.4194         40.000
        33.0004
 118116720.192 7  92039016.27747  22476860.353    22476859.8644         47.500
        44.2504
 134381816.944 6 104713116.42543  25572010.366    25572011.5644         36.750
        23.2504
 111456011.913 8  86848874.19247  21209367.589    21209368.3654         49.250
        47.2504
 117716754.688 7  91727333.06846  22400748.545    22400749.4414         46.500
        40.7504
 121197624.296 7  94439759.98346  23063132.124    23063133.3364         45.750
        40.2504
 131253534.970 6 102275475.39745  24976716.197    24976716.1634         37.750
        30.5004
 131199287.267 6 102233214.60145  24966395.551    24966394.2494         38.500
        31.0004
 125059121.420 7  97448702.08846  23797943.625    23797943.3574         43.750
        39.5004
 108063023.542 8  84204951.74348  20563702.454    20563701.8424         50.250
        50.2504
 110898818.463 8  86414693.42048  21103334.971    21103333.9954         50.000
        48.5004
 08  5 27  0 22  0.0000000  0 11G18G31G30G 6G 3G24G13G23G29G16G21
 130616169.761 6 101778832.12645  24855431.961    24855432.4524         39.250
        32.7504
 118209386.188 7  92111223.53847  22494493.940    22494493.7374         47.500
        44.2504
 134486783.853 5 104794909.02144  25591984.334    25591985.8774         34.750
        29.7504
 111409115.229 8  86812331.33847  21200443.464    21200444.2044         49.250
        47.2504
 117635037.580 7  91663657.40846  22385198.266    22385198.9274         46.000
        41.7504
 121280883.808 7  94504637.54846  23078975.710    23078977.0544         44.500
        40.5004
 131269482.692 6 102287902.19645  24979750.840    24979751.1284         37.000
        32.7504
 131258094.236 6 102279038.27344  24977586.228    24977584.8274         39.750
        29.7504
 125146726.762 6  97516965.93046  23814613.814    23814614.6114         41.750
        41.7504
 108028596.435 8  84178125.43048  20557151.170    20557150.5294         50.000
        50.2504
 110899967.076 8  86415588.45448  21103553.515    21103552.5414         50.000
        48.5004
 08  5 27  0 22 30.0000000  0 10G18G31G 6G 3G24G13G23G29G16G21
 130536735.311 6 101716935.18445  24840315.957    24840316.3434         38.750
        34.2504
 118302342.700 7  92183657.18347  22512183.095    22512182.8344         47.500
        44.2504
 111362493.319 8  86776002.58547  21191571.669    21191572.2684         49.250
        47.2504
 117553535.249 7  91600149.11746  22369688.877    22369689.5694         46.500
        41.0004
 121364487.246 7  94569783.06146  23094884.897    23094886.5974         45.500
        41.5004
 131285973.441 6 102300752.20145  24982888.806    24982889.1704         37.250
        32.2504
 131317236.649 6 102325123.30944  24988840.602    24988839.4694         39.500
        28.0004
 125234377.398 7  97585265.10046  23831292.931    23831294.1724         44.500
        39.5004
 107994516.395 8  84151569.56248  20550665.954    20550665.3604         50.000
        50.2504
 110901637.096 8  86416889.77948  21103871.279    21103870.3304         50.000
        48.2504
 08  5 27  0 23  0.0000000  0  9G18G31G 6G 3G24G13G29G16G21
 130457386.403 6 101655104.92845  24825216.273    24825216.9544         40.250
        34.0004
 118395582.610 7  92256311.65947  22529926.131    22529925.6464         47.500
        44.5004
 111316141.772 8  86739884.51147  21182751.263    21182751.8884         49.250
        47.2504
 117472244.743 7  91536805.88946  22354219.754    22354220.4984         46.750
        40.7504
 121448427.919 7  94635191.39046  23110858.562    23110860.0404         45.500
        40.0004
 131303002.040 6 102314021.25644  24986129.235    24986129.9064         37.750
        28.2504
 125322068.388 6  97653595.70847  23847979.883    23847980.7464         41.500
        42.0004
 107960780.570 8  84125281.91248  20544246.287    20544245.6254         50.250
        50.5004
 110903823.690 8  86418593.63048  21104287.327    21104286.3904         50.000
        48.5004
 08  5 27  0 23 30.0000000  0 10G18G31G30G 6G 3G24G13G29G16G21
 130378125.327 6 101593343.07246  24810133.659    24810134.0934         38.000
        36.7504
 118489103.142 7  92329184.79247  22547722.425    22547722.1314         47.500
        44.5004
 134801997.50715                  25651967.170                          33.000

 111270060.416 8  86703976.97347  21173982.231    21173982.9004         49.250
        47.5004
 117391165.537 7  91473627.29646  22338790.894    22338791.6184         46.500
        40.7504
 121532702.680 7  94700860.02846  23126895.605    23126896.7864         44.750
        41.2504
 131320566.845 6 102327708.04045  24989471.986    24989472.0534         38.250
        31.5004
 125409798.273 7  97721956.61446  23864674.170    23864675.0404         42.500
        40.0004
 107927389.709 8  84099263.06748  20537892.289    20537891.5724         50.250
        50.2504
 110906526.191 8  86420699.48748  21104801.560    21104800.6384         50.000
        48.5004
 08  5 27  0 24  0.0000000  0 10G18G31G25G 6G 3G24G13G29G16G21
 130298958.498 6 101531654.66345  24795068.689    24795068.8714         39.750
        31.7504
 118582905.161 7  92402277.25947  22565572.386    22565572.1124         47.250
        43.7504
 130897959.846 6 101998414.76245  24909053.065    24909053.8674         40.250
        33.5004
 111224253.209 8  86668283.05547  21165265.397    21165266.0284         49.250
        47.5004
 117310302.294 7  91410617.00146  22323403.024    22323403.8534         46.500
        40.7504
 121617312.751 7  94766789.95946  23142996.711    23142997.5184         46.000
        40.2504
 131338670.306 6 102341814.73245  24992916.746    24992916.9524         36.500
        34.0004
 125497570.027 7  97790350.14646  23881376.770    23881378.3934         43.750
        40.0004
 107894349.038 8  84073517.09648  20531604.834    20531604.1514         50.250
        50.2504
 110909748.355 8  86423210.27548  21105414.711    21105413.7914         50.000
        48.2504
 08  5 27  0 24 30.0000000  0 11G18G31G25G 6G 3G24G13G23G29G16G21
 130219883.957 6 101470038.20445  24780021.827    24780021.4344         41.000
        33.2504
 118676980.935 7  92475583.05647  22583474.523    22583474.0754         47.500
        43.7504
 130818548.360 6 101936535.70545  24893941.716    24893942.4084         40.000
        35.5004
 111178714.914 8  86632798.68147  21156599.790    21156600.3744         49.250
        47.5004
 117229650.428 7  91347771.40746  22308055.585    22308056.2484         46.500
        41.2504
 121702250.447 7  94832975.17546  23159159.799    23159161.0064         45.250
        40.2504
 131357306.085 6 102356336.06245  24996463.046    24996463.4694         37.000
        30.2504
 131557076.557 6 102512000.78945  25034479.108    25034477.7294         36.750
        32.0004
 125585377.790 6  97858771.72846  23898086.371    23898088.0164         41.750
        40.0004
 107861654.887 8  84048041.13948  20525383.297    20525382.6164         50.000
        50.5004
 110913484.416 8  86426121.50448  21106125.672    21106124.7584         50.000
        48.5004
 08  5 27  0 25  0.0000000  0 11G18G31G25G 6G 3G24G13G23G29G16G21
 130140912.044 6 101408501.68245  24764993.603    24764993.5484         39.250
        32.0004
 118771335.405 7  92549106.01147  22601429.707    22601429.1854         47.000
        44.5004
 130739458.813 6 101874907.51945  24878891.512    24878892.1984         41.000
        35.0004
 111133453.375 8  86597529.96247  21147986.752    21147987.3924         49.250
        47.5004
 117149218.621 7  91285097.29246  22292749.838    22292750.6044         46.500
        41.5004
 121787520.836 7  94899419.61846  23175385.977    23175387.4324         45.250
        40.2504
 131376480.586 6 102371277.18945  25000111.815    25000111.6264         36.250
        32.5004
 131617839.893 6 102559348.79845  25046041.321    25046039.9024         40.750
        30.5004
 125673228.180 7  97927226.55846  23914803.934    23914804.4614         43.750
        39.7504
 107829316.200 8  84022842.16948  20519229.390    20519228.7704         50.000
        50.5004
 110917741.650 8  86429438.83648  21106935.832    21106934.8844         50.000
        48.5004
 08  5 27  0 25 30.0000000  0 11G18G31G25G 6G 3G24G13G23G29G16G21
 130062040.882 6 101347043.66445  24749984.510    24749984.3084         40.000
        31.7504
 118865961.212 7  92622840.39947  22619436.292    22619435.8004         47.250
        44.0004
 130660688.944 6 101813528.39845  24863902.211    24863902.5154         40.750
        32.2504
 111088463.865 8  86562473.22047  21139425.556    21139426.1854         49.500
        47.7504
 117069002.196 7  91222591.00246  22277485.195    22277486.0294         46.250
        41.5004
 121873116.649 7  94966117.66346  23191674.419    23191675.4184         44.750
        39.5004
