     2              OBSERVATION DATA    G (GPS)             RINEX VERSION / TYPE
TRRINEXO V2.9.7 LHm ICC                 31-JAN-02 03:46     PGM / RUN BY / DATE
Rinex conversion                                            COMMENT
BIT 2 OF LLI (+4) FLAGS DATA COLLECTED UNDER "AS" CONDITION COMMENT
BELL                                                        MARKER NAME
13431M001                                                   MARKER NUMBER
ICC                 ICC                                     OBSERVER / AGENCY
18091               TRIMBLE 4000SSI      7.29 / 3.07        REC # / TYPE / VERS
0220080346          TRM29659.00                             ANT # / TYPE
  4775849.6200   116814.1000  4213018.7100                  APPROX POSITION XYZ
        0.0540        0.0000        0.0000                  ANTENNA: DELTA H/E/N
     1     1                                                WAVELENGTH FACT L1/2
     5    C1    L1    L2    P2    P1                        # / TYPES OF OBSERV
    30                                                      INTERVAL
  2002     1    30     0     0    0.000000                  TIME OF FIRST OBS
                                                            END OF HEADER
 02  1 30  0  0  0.0000000  0  7 07 04 27 20 01 24 13
  24111321.349     8313863.354 5   5566499.27045  24111332.8234
  20990842.688   -24616122.248 8 -10318261.73447  20990847.9034
  23330162.173    -6127529.564 6  -4588767.68946  23330168.3354
  22893718.283   -16289473.861 6 -12558085.09446  22893724.4604
  21372448.483   -13284821.249 8 -10192060.75547  21372454.2524
  23521288.725    -9895585.518 6  -7512983.92046  23521294.3654
  20476060.808   -23660439.657 8 -18205317.73947  20476064.5984
 02  1 30  0  0 30.0000000  0  7 07 04 27 20 01 24 13
  24125796.575     8389930.673 5   5625772.34045  24125806.3514
  20984658.329   -24648621.204 8 -10343585.58647  20984663.6494
  23311848.422    -6223768.874 6  -4663759.27746  23311854.6764
  22906322.060   -16223240.266 6 -12506474.57846  22906327.9154
  21382095.501   -13234125.853 8 -10152557.85847  21382101.4074
  23503124.550    -9991038.611 6  -7587362.92846  23503130.8774
  20473970.994   -23671421.433 8 -18213874.95647  20473974.5634
 02  1 30  0  1  0.0000000  0  7 07 04 27 20 01 24 13
  24140294.675     8466117.337 4   5685138.30445  24140305.3024
  20978573.129   -24680599.187 6 -10368503.50147  20978577.8674
  23293573.024    -6319806.742 6  -4738593.93646  23293579.8194
  22918960.948   -16156822.701 6 -12454720.67946  22918967.1804
  21391800.334   -13183126.444 8 -10112818.03647  21391805.7614
  23485004.946   -10086257.435 6  -7661559.37646  23485010.5424
  20471968.210   -23681946.103 8 -18222075.98447  20471971.8104
 02  1 30  0  1 30.0000000  0  7 07 04 27 20 01 24 13
  24154814.519     8542418.349 5   5744593.49945  24154825.1134
  20972587.012   -24712056.536 6 -10393015.71647  20972591.8364
  23275336.092    -6415642.424 6  -4813271.02746  23275343.1184
  22931634.547   -16090223.013 6 -12402824.84146  22931640.0444
  21401562.339   -13131826.623 8 -10072844.17247  21401568.4114
  23466930.022   -10181241.358 6  -7735572.79346  23466937.5384
  20470051.878   -23692016.563 8 -18229923.08847  20470055.7874
 02  1 30  0  2  0.0000000  0  7 07 04 27 20 01 24 13
  24169355.797     8618832.862 5   5804137.09145  24169368.9404
  20966700.616   -24742989.936 6 -10417119.66447  20966705.6044
  23257138.431    -6511271.271 6  -4887786.93846  23257144.8234
  22944343.059   -16023439.789 6 -12350785.98346  22944349.5024
  21411381.586   -13080226.206 7 -10032636.04747  21411386.8454
  23448900.846   -10275985.102 6  -7809399.03346  23448907.5464
  20468222.182   -23701631.712 8 -18237415.39647  20468225.8064
 02  1 30  0  2 30.0000000  0  7 07 04 27 20 01 24 13
  24183917.900     8695356.485 4   5863765.60545  24183927.2944
  20960913.908   -24773399.543 6 -10440815.46547  20960918.9894
  23238980.328    -6606692.543 6  -4962141.12846  23238987.0214
  22957086.139   -15956474.841 6 -12298605.53246  22957092.9164
  21421257.423   -13028328.572 8  -9992196.34347  21421262.9124
  23430917.548   -10370488.115 6  -7883037.71946  23430923.2414
  20466478.662   -23710793.849 8 -18244554.71447  20466482.4524
 02  1 30  0  3  0.0000000  0  7 07 04 27 20 01 24 13
  24198499.643     8771983.402 5   5923474.74845  24198511.8934
  20955226.539   -24803286.924 8 -10464104.32547  20955231.7384
  23220861.696    -6701906.412 6  -5036333.69046  23220867.8664
  22969863.231   -15889331.054 6 -12246285.74346  22969868.8364
  21431188.922   -12976138.366 7  -9951528.64947  21431194.4554
  23412979.849   -10464751.160 6  -7956489.39146  23412986.3594
  20464820.701   -23719506.316 8 -18251343.63447  20464824.4934
 02  1 30  0  3 30.0000000  0  7 07 04 27 20 01 24 13
  24213101.561     8848715.850 5   5983265.98745  24213111.3334
  20949639.721   -24832645.544 8 -10486981.15747  20949644.9834
  23202783.981    -6796905.304 6  -5110358.72946  23202790.8234
  22982675.225   -15822003.755 6 -12193822.91746  22982681.3004
  21441176.691   -12923652.589 8  -9910630.64947  21441182.0774
  23395089.232   -10558766.523 6  -8029748.08346  23395095.8414
  20463249.049   -23727765.285 8 -18257779.17547  20463252.7764
 02  1 30  0  4  0.0000000  0  7 07 04 27 20 01 24 13
  24227721.793     8925545.476 5   6043133.06545  24227733.9064
  20944152.784   -24861479.240 8 -10509448.96547  20944158.2134
  23184746.612    -6891691.947 6  -5184218.35946  23184752.7954
  22995521.072   -15754498.552 6 -12141221.55446  22995527.7234
  21451219.316   -12870878.338 8  -9869507.84847  21451224.5654
  23377245.388   -10652536.448 6  -8102815.54846  23377252.2104
  20461762.510   -23735576.862 8 -18263866.10847  20461766.2424
 02  1 30  0  4 30.0000000  0  7 07 04 27 20 01 24 13
  24242361.092     9002475.049 4   6103077.92445  24242372.3694
  20938767.097   -24889781.149 8 -10531502.39147  20938772.6054
  23166751.129    -6986258.303 6  -5257906.38846  23166758.1604
  23008401.770   -15686810.152 6 -12088477.35746  23008408.7454
  21461317.539   -12817811.844 8  -9828157.33647  21461323.9554
  23359449.809   -10746052.897 6  -8175685.50646  23359456.6264
  20460361.972   -23742936.469 8 -18269600.86147  20460365.9714
 02  1 30  0  5  0.0000000  0  7 07 04 27 20 01 24 13
  24257019.279     9079502.667 5   6163099.19145  24257029.3754
  20933483.071   -24917549.041 7 -10553139.70947  20933487.9794
  23148798.236    -7080600.967 6  -5331420.09646  23148804.6334
  23021317.495   -15618937.751 6 -12035589.82846  23021323.8354
  21471471.218   -12764453.975 8  -9786579.76847  21471476.5124
  23341703.095   -10839312.621 6  -8248355.37446  23341709.5314
  20459047.511   -23749843.824 8 -18274983.18647  20459051.8494
 02  1 30  0  5 30.0000000  0  7 07 04 27 20 01 24 13
  24271694.113     9156618.134 5   6223188.90645  24271704.7344
  20928299.505   -24944788.992 7 -10574365.64747  20928304.5654
  23130886.960    -7174724.862 6  -5404763.31146  23130893.8774
  23034266.736   -15550888.956 6 -11982564.83246  23034273.4034
  21481678.584   -12710813.943 8  -9744782.33847  21481684.4914
  23324004.289   -10932320.768 6  -8320829.23446  23324010.6864
  20457817.584   -23756307.285 8 -18280019.64347  20457821.0244
 02  1 30  0  6  0.0000000  0  7 07 04 27 20 01 24 13
  24286385.784     9233822.218 5   6283347.68445  24286394.6744
  20923217.366   -24971495.761 8 -10595176.12847  20923222.8444
  23113018.583    -7268623.503 6  -5477931.02946  23113025.4344
  23047250.233   -15482660.058 6 -11929399.51246  23047257.0494
  21491940.005   -12656889.747 8  -9702763.48047  21491945.5184
  23306354.567   -11025070.864 6  -8393102.01746  23306361.9144
  20456672.787   -23762323.529 8 -18284707.63847  20456676.2104
 02  1 30  0  6 30.0000000  0  7 07 04 27 20 01 24 13
  24301092.458     9311105.230 5   6343568.00445  24301100.5774
  20918235.592   -24997675.080 8 -10615575.59647  20918241.2274
  23095192.255    -7362301.446 6  -5550926.76146  23095199.4774
  23060266.649   -15414258.359 6 -11876099.52946  23060273.8724
  21502253.836   -12602690.121 8  -9660530.00147  21502259.7004
  23288753.117   -11117567.145 6  -8465177.01246  23288759.6664
  20455611.572   -23767900.176 8 -18289053.06147  20455615.6144
 02  1 30  0  7  0.0000000  0  7 07 04 27 20 01 24 13
  24315814.433     9388468.525 5   6403850.73045  24315828.6394
  20913355.201   -25023321.642 7 -10635559.92047  20913360.1664
  23077409.142    -7455752.080 6  -5623745.37246  23077416.5414
  23073316.695   -15345679.832 6 -11822661.74246  23073322.7184
  21512620.510   -12548212.759 8  -9618080.10747  21512625.2154
  23271201.248   -11209802.685 6  -8537048.83646  23271208.3454
  20454634.441   -23773034.739 8 -18293053.99447  20454638.4474
 02  1 30  0  7 30.0000000  0  7 07 04 27 20 01 24 13
  24330551.241     9465909.798 4   6464194.28145  24330562.8524
  20908576.549   -25048433.590 7 -10655127.65647  20908581.5544
  23059669.838    -7548972.364 6  -5696384.49346  23059676.9164
  23086400.399   -15276924.434 6 -11769086.16146  23086407.3924
  21523039.757   -12493459.120 8  -9575414.91847  21523045.5044
  23253699.504   -11301774.842 6  -8608715.44446  23253706.7014
  20453741.480   -23777727.323 8 -18296710.53647  20453745.0254
 02  1 30  0  8  0.0000000  0  7 07 04 27 20 01 24 13
  24345302.611     9543428.178 5   6524597.98445  24345314.9114
  20903900.286   -25073007.364 8 -10674276.05647  20903905.7084
  23041975.312    -7641957.433 6  -5768840.32446  23041981.9744
  23099518.234   -15207989.997 6 -11715371.08446  23099524.5514
  21533511.696   -12438428.533 8  -9532533.95247  21533517.4584
  23236248.874   -11393478.329 6  -8680172.70046  23236255.7634
  20452932.902   -23781976.621 8 -18300021.68147  20452936.8524
 02  1 30  0  8 30.0000000  0  7 07 04 27 20 01 24 13
  24360069.076     9621025.780 5   6585063.36945  24360079.1334
  20899327.559   -25097037.120 8 -10693000.54447  20899333.3804
  23024326.944    -7734700.109 6  -5841107.27946  23024333.9654
  23112671.059   -15138871.972 6 -11661512.92346  23112676.9684
  21544036.916   -12383118.068 8  -9489434.88447  21544043.1284
  23218850.678   -11484906.074 6  -8751415.03446  23218857.8014
  20452209.373   -23785778.795 8 -18302984.40247  20452213.1404
 02  1 30  0  9  0.0000000  0  7 07 04 27 20 01 24 13
  24374848.020     9698688.888 5   6645579.75845  24374859.8154
  20894856.566   -25120532.506 7 -10711308.64047  20894862.2444
  23006723.106    -7827208.790 6  -5913191.90746  23006729.6274
  23125856.632   -15069581.466 6 -11607520.36046  23125862.6234
  21554613.011   -12327540.191 8  -9446127.47347  21554618.6524
  23201503.480   -11576066.133 6  -8822448.82746  23201510.3954
  20451568.704   -23789145.407 8 -18305607.72947  20451572.2914
 02  1 30  0  9 30.0000000  0  7 07 04 27 20 01 24 13
  24389639.519     9776418.227 3   6706147.75945  24389651.3224
  20890488.179   -25143488.688 7 -10729196.57147  20890493.6774
  22989164.955    -7919477.388 6  -5985089.43146  22989170.8404
  23139075.626   -15000114.950 6 -11553390.67846  23139081.9124
  21565240.314   -12271693.294 8  -9402610.41147  21565247.0204
  23184208.395   -11666952.371 6  -8893269.25946  23184215.0204
  20451011.463   -23792073.807 8 -18307889.58647  20451015.2814
 02  1 30  0 10  0.0000000  0  7 07 04 27 20 01 24 13
  24404444.161     9854216.345 4   6766769.38245  24404457.2964
  20886223.637   -25165898.903 8 -10746659.06747  20886228.6424
  22971653.977    -8011497.995 6  -6056793.77546  22971659.8984
  23152329.145   -14930467.480 6 -11499119.96746  23152335.7024
  21575919.527   -12215573.781 8  -9358880.92947  21575925.4074
  23166966.819   -11757557.190 6  -8963870.37046  23166973.1244
  20450538.415   -23794559.848 8 -18309826.75947  20450542.0844
 02  1 30  0 10 30.0000000  0  7 07 04 27 20 01 24 13
  24419259.808     9932071.312 5   6827435.25745  24419267.6244
  20882061.397   -25187771.393 8 -10763702.57347  20882066.9894
  22954188.898    -8103277.420 6  -6128310.16346  22954195.3134
  23165615.339   -14860648.428 6 -11444715.54446  23165621.8684
  21586648.493   -12159192.693 8  -9314947.60347  21586653.7284
  23149777.585   -11847887.169 6  -9034257.34746  23149783.4334
  20450147.652   -23796613.295 8 -18311426.84947  20450151.0194
 02  1 30  0 11  0.0000000  0  7 07 04 27 20 01 24 13
  24434085.831    10009980.712 4   6888143.50045  24434096.4974
  20878001.807   -25209104.616 8 -10780325.86647  20878007.4634
  22936770.278    -8194812.559 6  -6199636.18946  22936776.7334
  23178934.250   -14790657.432 6 -11390177.18446  23178941.1234
  21597427.052   -12102551.181 8  -9270811.37547  21597432.3254
  23132641.111   -11937939.285 6  -9104427.83646  23132648.4654
  20449839.082   -23798234.765 8 -18312690.33247  20449842.7534
 02  1 30  0 11 30.0000000  0  7 07 04 27 20 01 24 13
  24448921.196    10087939.808 4   6948890.57145  24448933.4174
  20874044.706   -25229899.410 8 -10796529.61147  20874049.9224
  22919398.277    -8286102.854 6  -6270771.42746  22919404.4554
  23192285.495   -14720496.772 6 -11335506.58146  23192291.7224
  21608254.417   -12045653.080 8  -9226475.19647  21608259.5244
  23115557.671   -12027712.768 6  -9174381.16946  23115564.8164
  20449612.135   -23799427.370 8 -18313619.62247  20449615.7044
 02  1 30  0 12  0.0000000  0  7 07 04 27 20 01 24 13
  24463766.595    10165950.924 4   7009678.06445  24463777.1914
  20870191.291   -25250149.384 7 -10812308.81747  20870196.0984
  22902074.264    -8377140.762 6  -6341710.01246  22902080.8734
  23205669.977   -14650161.625 6 -11280700.01046  23205674.6564
  21619131.254   -11988494.998 8  -9181936.44147  21619136.9794
  23098528.847   -12117200.015 6  -9244111.48246  23098535.9784
  20449467.689   -23800186.393 8 -18314211.07147  20449471.1024
 02  1 30  0 12 30.0000000  0  7 07 04 27 20 01 24 13
  24478621.950    10244015.475 3   7070507.21345  24478634.2294
  20866442.541   -25269849.320 8 -10827659.42247  20866447.7674
  22884799.585    -8467919.509 6  -6412446.66446  22884806.7784
  23219088.374   -14579648.019 6 -11225754.38546  23219093.7814
  21630058.075   -11931074.264 8  -9137193.01547  21630062.7214
  23081555.848   -12206393.959 6  -9313613.22046  23081562.3244
  20449406.227   -23800509.297 8 -18314462.67047  20449410.2044
 02  1 30  0 13  0.0000000  0  7 07 04 27 20 01 24 13
  24493486.306    10322128.519 2   7131374.29845  24493499.1754
  20862798.258   -25289000.212 7 -10842582.19347  20862803.3064
  22867574.353    -8558438.821 6  -6482981.16546  22867581.7794
  23232540.222   -14508958.225 6 -11170671.46846  23232546.6634
  21641034.126   -11873394.947 8  -9092248.09347  21641039.0784
  23064638.831   -12295293.873 7  -9382885.83646  23064644.6394
  20449427.210   -23800398.974 8 -18314376.69047  20449430.5924
 02  1 30  0 13 30.0000000  0  7 07 04 27 20 01 24 13
  24508358.404    10400280.563 3   7192271.51545  24508369.5724
  20859257.367   -25307607.704 8 -10857081.53647  20859262.5644
  22850397.679    -8648703.008 7  -6553316.83546  22850404.9164
  23246024.239   -14438099.248 6 -11115456.76146  23246029.6734
  21652057.735   -11815465.561 8  -9047108.30947  21652062.8664
  23047776.821   -12383904.501 6  -9451933.05046  23047783.5344
  20449529.243   -23799862.760 8 -18313958.85947  20449532.4034
 02  1 30  0 14  0.0000000  0  7 07 04 27 20 01 24 13
  24523238.147    10478472.578 3   7253199.99645  24523250.6194
  20855820.793   -25325667.046 6 -10871153.75147  20855825.7534
  22833270.703    -8738705.744 6  -6623448.77446  22833277.3334
  23259541.157   -14367067.349 6 -11060107.24046  23259546.7924
  21663129.342   -11757283.892 8  -9001771.94447  21663134.6514
  23030971.028   -12472219.215 6  -9520749.69146  23030977.2224
  20449712.809   -23798898.162 8 -18313207.20547  20449716.5914
 02  1 30  0 14 30.0000000  0  7 07 04 27 20 01 24 13
  24538125.334    10556703.779 3   7314158.97445  24538137.9524
  20852489.076   -25343175.438 7 -10884796.66147  20852494.0344
  22816194.311    -8828442.640 6  -6693373.59046  22816201.2334
  23273091.234   -14295860.976 6 -11004621.80246  23273097.3894
  21674248.952   -11698850.080 8  -8956239.11747  21674254.3984
  23014222.399   -12560233.748 6  -9589332.45246  23014228.2284
  20449978.056   -23797504.433 8 -18312121.20147  20449981.2064
 02  1 30  0 15  0.0000000  0  7 07 04 27 20 01 24 13
  24553019.785    10634973.152 3   7375147.69245  24553034.9074
  20849262.775   -25360129.933 8 -10898007.95847  20849267.9494
  22799169.330    -8917909.349 6  -6763087.86346  22799175.5244
  23286674.866   -14224478.391 6 -10948999.06246  23286681.7394
  21685416.564   -11640163.768 8  -8910509.50746  21685422.2784
  22997531.771   -12647943.319 6  -9657677.55246  22997537.2444
  20450325.121   -23795680.592 8 -18310700.02147  20450328.2954
 02  1 30  0 15 30.0000000  0  7 07 04 27 20 01 24 13
  24567920.179    10713273.814 3   7436160.87645  24567934.2944
  20846141.266   -25376533.658 8 -10910790.08647  20846146.4564
  22782195.329    -9007107.696 6  -6832593.02246  22782201.5754
  23300291.202   -14152924.270 6 -10893242.63646  23300297.7584
  21696631.055   -11581230.934 7  -8864587.83346  21696636.7484
  22980898.863   -12735349.533 6  -9725786.28046  22980904.8524
  20450753.015   -23793431.803 8 -18308947.71747  20450756.6194
 02  1 30  0 16  0.0000000  0  7 07 04 27 20 01 24 13
  24582825.575    10791600.664 4   7497194.29945  24582837.6364
  20843124.275   -25392387.940 8 -10923144.06447  20843129.5654
  22765272.546    -9096037.224 6  -6901888.71946  22765279.3534
  23313939.737   -14081200.882 6 -10837354.30346  23313945.6134
  21707891.718   -11522055.451 8  -8818477.06246  21707897.9024
  22964323.840   -12822451.946 7  -9793658.26546  22964330.2064
  20451261.211   -23790761.129 8 -18306866.66147  20451264.7274
 02  1 30  0 16 30.0000000  0  7 07 04 27 20 01 24 13
  24597736.673    10869957.160 4   7558250.95045  24597749.1764
  20840213.155   -25407685.836 8 -10935064.50147  20840218.5774
  22748402.501    -9184689.605 6  -6970968.46146  22748409.5814
  23327621.582   -14009302.486 6 -10781329.60046  23327627.6624
  21719199.385   -11462633.143 8  -8772173.96646  21719204.6474
  22947808.273   -12909242.045 7  -9861286.88546  22947813.8474
  20451850.617   -23787663.898 8 -18304453.22047  20451853.8544
 02  1 30  0 17  0.0000000  0  7 07 04 27 20 01 24 13
  24612652.710    10948339.728 3   7619327.83245  24612667.4934
  20837407.994   -25422427.042 6 -10946551.15847  20837412.8424
  22731585.598    -9273063.078 7  -7039830.86546  22731592.8704
  23341336.567   -13937229.876 5 -10725169.16345  23341343.4094
  21730553.591   -11402966.380 7  -8725680.41146  21730559.3974
  22931352.430   -12995717.899 6  -9928670.64346  22931359.1584
  20452520.846   -23784141.817 8 -18301708.73547  20452524.2394
 02  1 30  0 17 30.0000000  0  7 07 04 27 20 01 24 13
  24627572.098    11026740.117 3   7680418.70845  24627582.3524
  20834707.903   -25436616.291 6 -10957607.73647  20834712.9534
  22714821.099    -9361160.982 7  -7108478.50846  22714827.9244
  23355083.582   -13864989.157 6 -10668877.74145  23355089.9634
  21741952.933   -11343062.500 8  -8679002.05946  21741958.1344
  22914955.787   -13081882.550 6  -9995811.88146  22914963.4284
  20453270.599   -23780201.667 8 -18298638.48447  20453274.4054
 02  1 30  0 18  0.0000000  0  7 07 04 27 20 01 24 13
  24642494.691    11105157.033 4   7741522.35145  24642505.4544
  20832113.276   -25450251.224 7 -10968232.35447  20832118.5164
  22698109.760    -9448979.457 6  -7176908.44546  22698115.9394
  23368862.954   -13792578.761 6 -10612454.10546  23368869.2814
  21753397.386   -11282921.630 8  -8632139.06046  21753402.9314
  22898619.250   -13167731.670 7 -10062707.27346  22898625.8774
  20454100.074   -23775842.643 8 -18295241.82947  20454103.3594
 02  1 30  0 18 30.0000000  0  7 07 04 27 20 01 24 13
  24657421.363    11183595.569 4   7802642.87445  24657441.3434
  20829625.776   -25463322.964 7 -10978418.11947  20829630.7474
  22681453.614    -9536507.981 7  -7245112.43146  22681459.5734
  23382676.019   -13719991.034 6 -10555892.25046  23382681.5154
  21764888.149   -11222537.473 8  -8585086.47946  21764893.7334
  22882344.758   -13253254.953 7 -10129348.79946  22882350.0334
  20455010.707   -23771057.342 8 -18291513.01647  20455014.2494
 02  1 30  0 19  0.0000000  0  7 07 04 27 20 01 24 13
  24672350.536    11262047.333 3   7863773.62045  24672367.8604
  20827244.484   -25475836.536 8 -10988168.94647  20827249.9284
  22664851.906    -9623749.992 6  -7313093.18246  22664857.9834
  23396521.555   -13647232.330 6 -10499197.23446  23396527.5304
  21776423.730   -11161917.801 8  -8537850.37946  21776429.6084
  22866131.632   -13338455.502 6 -10195738.81846  22866138.1564
  20456000.857   -23765853.982 8 -18287458.43747  20456004.7794
 02  1 30  0 19 30.0000000  0  7 07 04 27 20 01 24 13
  24687280.663    11340503.636 4   7924908.02945  24687294.0054
  20824968.466   -25487797.102 8 -10997488.87047  20824974.2614
  22648304.071    -9710709.028 6  -7380853.42146  22648310.1754
  23410398.490   -13574308.621 6 -10442373.59746  23410403.9654
  21788002.726   -11101069.992 7  -8490436.51746  21788008.6824
  22849979.223   -13423336.775 6 -10261880.04446  22849984.9994
  20457069.325   -23760238.999 8 -18283083.11347  20457073.2124
 02  1 30  0 20  0.0000000  0  7 07 04 27 20 01 24 13
  24702213.795    11418975.095 2   7986054.12045  24702227.1644
  20822800.380   -25499190.634 7 -11006366.95747  20822805.5604
  22631813.131    -9797369.329 7  -7448380.87046  22631818.9404
  23424309.252   -13501206.851 5 -10385411.25145  23424315.3704
  21799627.301   -11039982.562 8  -8442835.94046  21799632.4774
  22833890.658   -13507882.568 6 -10327759.87646  22833896.2774
  20458218.488   -23754200.039 8 -18278377.42647  20458222.0884
 02  1 30  0 20 30.0000000  0  7 07 04 27 20 01 24 13
  24717146.615    11497446.192 3   8047199.92745  24717159.4104
  20820737.963   -25510028.908 7 -11014812.38547  20820743.2454
  22615377.081    -9883741.237 6  -7515683.61446  22615383.7464
  23438251.440   -13427940.058 5 -10328320.29145  23438258.0964
  21811294.741   -10978669.936 8  -8395059.85246  21811300.7044
  22817863.867   -13592103.678 6 -10393386.70646  22817869.8284
  20459445.653   -23747751.107 8 -18273352.26647  20459449.4264
 02  1 30  0 21  0.0000000  0  7 07 04 27 20 01 24 13
  24732079.285    11575915.979 4   8108344.83345  24732091.1624
  20818781.645   -25520309.574 7 -11022823.30247  20818786.4954
  22598996.691    -9969820.762 7  -7582758.53446  22599003.2814
  23452225.355   -13354506.787 5 -10271099.62045  23452231.9344
  21823005.039   -10917131.853 8  -8347108.10246  21823009.8974
  22801899.833   -13675995.170 7 -10458756.68846  22801906.0634
  20460750.995   -23740891.300 8 -18268006.95547  20460754.9054
 02  1 30  0 21 30.0000000  0  7 07 04 27 20 01 24 13
  24747012.547    11654388.091 4   8169491.39145  24747024.4344
  20816932.771   -25530025.408 8 -11030394.08347  20816938.0384
  22582673.643   -10055599.040 7  -7649598.72246  22582679.8984
  23466232.204   -13280900.797 6 -10213744.35645  23466238.0714
  21834759.139   -10855363.688 8  -8298977.05546  21834764.3194
  22786000.219   -13759548.193 7 -10523862.89646  22786006.6144
  20462135.514   -23733615.528 8 -18262337.52147  20462139.0924
 02  1 30  0 22  0.0000000  0  7 07 04 27 20 01 24 13
  24761943.172    11732848.746 2   8230629.14245  24761960.2814
  20815189.358   -25539186.858 8 -11037532.86647  20815194.4644
  22566406.211   -10141084.899 7  -7716211.03546  22566412.4404
  23480269.777   -13207133.245 6 -10156263.14745  23480276.8104
  21846554.556   -10793378.271 7  -8250676.74646  21846560.4054
  22770163.380   -13842771.419 6 -10588712.12246  22770169.3474
  20463596.868   -23725936.068 8 -18256353.52447  20463600.4914
 02  1 30  0 22 30.0000000  0  7 07 04 27 20 01 24 13
  24776873.379    11811305.676 2   8291763.70644  24776888.4404
  20813553.562   -25547782.964 8 -11044231.13047  20813558.8124
  22550196.789   -10226265.623 7  -7782585.57346  22550203.3454
  23494339.943   -13133194.305 6 -10098648.46745  23494346.5224
  21858392.966   -10731166.974 8  -8202200.41246  21858398.0684
  22754391.696   -13925651.829 6 -10653294.23446  22754396.9944
  20465136.810   -23717843.580 8 -18250047.69547  20465140.5604
 02  1 30  0 23  0.0000000  0  7 07 04 27 20 01 24 13
  24791800.560    11889747.093 3   8352886.55745  24791819.1034
  20812023.868   -25555821.715 6 -11050495.09647  20812028.7924
  22534044.222   -10311147.683 7  -7848727.38546  22534050.5754
  23508440.893   -13059093.189 6 -10040907.37845  23508447.5234
  21870272.358   -10668740.281 7  -8153556.25346  21870277.7144
  22738684.050   -14008195.955 6 -10717614.30346  22738689.2604
  20466753.369   -23709348.370 8 -18243428.02947  20466757.3584
 02  1 30  0 23 30.0000000  0  7 07 04 27 20 01 24 13
  24806725.291    11968175.098 2   8413998.68045  24806743.3544
  20810601.152   -25563298.095 8 -11056320.85247  20810606.5614
  22517949.847   -10395724.143 6  -7914631.07946  22517956.1084
  23522573.529   -12984825.430 5  -9983036.44645  23522579.7694
  21882193.294   -10606095.253 7  -8104741.94246  21882198.9334
  22723041.803   -14090396.377 6 -10781666.60146  22723048.2734
  20468447.310   -23700446.791 8 -18236491.74747  20468450.9094
 02  1 30  0 24  0.0000000  0  7 07 04 27 20 01 24 13
  24821647.700    12046591.003 3   8475101.45745  24821663.9304
  20809286.336   -25570207.301 8 -11061704.65847  20809292.1694
  22501914.799   -10479988.715 6  -7980291.73446  22501921.1454
  23536738.565   -12910387.402 6  -9925032.79745  23536744.9944
  21894156.222   -10543229.595 8  -8055755.71846  21894161.3284
  22707466.189   -14172246.473 6 -10845445.87046  22707473.6164
  20470219.134   -23691136.012 8 -18229236.60447  20470222.3524
 02  1 30  0 24 30.0000000  0  7 07 04 27 20 01 24 13
  24836565.820    12124984.645 2   8536186.89444  24836585.8814
  20808078.185   -25576556.184 6 -11066651.84547  20808083.5064
  22485938.146   -10563946.523 7  -8045713.35546  22485944.9174
  23550934.565   -12835786.842 5  -9866902.57245  23550940.4344
  21906159.401   -10480152.488 7  -8006604.74546  21906164.5474
  22691956.388   -14253750.996 7 -10908955.86846  22691962.6384
  20472067.223   -23681424.092 8 -18221668.88047  20472071.0714
 02  1 30  0 25  0.0000000  0  7 07 04 27 20 01 24 13
  24851479.659    12203354.519 2   8597253.48643  24851501.3974
  20806977.001   -25582343.136 6 -11071161.16747  20806981.7474
  22470020.497   -10647594.166 7  -8110893.29946  22470026.7624
  23565161.804   -12761022.777 6  -9808644.91445  23565168.9774
  21918202.721   -10416864.465 7  -7957289.41246  21918208.9184
  22676512.980   -14334906.632 6 -10972194.02246  22676518.9404
  20473991.420   -23671312.450 8 -18213789.67447  20473995.0804
 02  1 30  0 25 30.0000000  0  6 04 27 20 01 24 13
  20805983.273   -25587565.266 7 -11075230.35347  20805988.0584
  22454162.784   -10730926.726 7  -8175827.73846  22454169.1754
  23579420.572   -12686093.101 6  -9750258.20345  23579427.5924
  21930286.315   -10353364.675 7  -7907809.03946  21930292.2124
  22661136.907   -14415708.203 6 -11035156.26246  22661143.7434
  20475992.126   -23660798.809 8 -18205597.23647  20475995.7854
 02  1 30  0 26  0.0000000  0  7 04 27 20 01 08 24 13
  20805097.442   -25592220.326 8 -11078857.67647  20805102.8004
  22438365.691   -10813940.722 7  -8240513.90746  22438372.0354
  23593711.025   -12610996.659 6  -9691741.51245  23593716.9464
  21942410.145   -10289653.372 7  -7858163.87646  21942415.8104
  24461144.877      -20109.90315
  22645829.003   -14496151.699 6 -11097839.47946  22645835.4584
  20478069.295   -23649883.042 8 -18197091.40747  20478073.3284
 02  1 30  0 26 30.0000000  0  7 04 27 20 01 08 24 13
  20804319.273   -25596309.582 7 -11082044.11447  20804324.7754
  22422629.364   -10896635.378 7  -8304951.23846  22422635.8584
  23608032.881   -12535735.170 6  -9633096.23645  23608040.4724
  21954573.606   -10225733.762 7  -7808356.40046  21954579.1244
  24438181.192     -140781.893 5
  22630589.442   -14576236.102 7 -11160242.88746  22630595.7714
  20480222.460   -23638567.973 8 -18188274.45547  20480226.4614
 02  1 30  0 27  0.0000000  0  7 04 27 20 01 08 24 13
  20803648.734   -25599833.418 6 -11084789.96747  20803653.6504
  22406954.147   -10979009.017 7  -8369138.42446  22406960.8294
  23622385.870   -12460309.791 5  -9574323.27345  23622392.8054
  21966776.326   -10161608.155 7  -7758388.41746  21966782.3024
  24415220.711     -261438.230 5
  22615418.519   -14655960.009 7 -11222365.39946  22615424.7174
  20482451.345   -23626854.981 8 -18179147.44047  20482454.9984
 02  1 30  0 27 30.0000000  0  7 04 27 20 01 08 24 13
  20803086.661   -25602787.200 7 -11087091.61547  20803091.6294
  22391341.195   -11061055.399 7  -8433070.58946  22391348.2264
  23636770.705   -12384716.934 5  -9515419.79845  23636777.0584
  21979018.705   -10097274.074 7  -7708257.96246  21979023.9944
  24392264.600     -382072.012 5    -65796.06055  24392274.4614
  22600317.497   -14735316.210 7 -11284201.38346  22600323.5314
  20484756.226   -23614742.609 8 -18169709.22947  20484759.9024
 02  1 30  0 28  0.0000000  0  7 04 27 20 01 08 24 13
  20802631.446   -25605179.331 7 -11088955.60247  20802636.4524
  22375789.228   -11142781.398 7  -8496753.13646  22375796.1294
  23651185.630   -12308966.030 5  -9456393.15245  23651191.8324
  21991298.726   -10032742.241 7  -7657973.41246  21991304.0044
  24369311.479     -502689.729 3   -159783.59045  24369320.0824
  22585285.130   -14814311.685 7 -11345756.29346  22585290.9494
  20487135.215   -23602240.772 8 -18159967.53647  20487138.8644
 02  1 30  0 28 30.0000000  0  7 04 27 20 01 08 24 13
  20802283.214   -25607009.255 8 -11090381.52847  20802288.6364
  22360298.766   -11224184.426 7  -8560184.04646  22360304.8964
  23665630.755   -12233056.656 6  -9397243.02445  23665638.1714
  22003616.143    -9968014.043 7  -7607535.86746  22003621.7914
  24346362.258     -623288.334 4   -253756.20545  24346370.3654
  22570321.994   -14892943.241 7 -11407027.62346  22570327.6204
  20489588.339   -23589349.492 8 -18149922.39247  20489591.8224
 02  1 30  0 29  0.0000000  0  7 04 27 20 01 08 24 13
  20802044.192   -25608265.358 8 -11091360.31147  20802049.7124
  22344872.248   -11305251.049 7  -8623352.79246  22344877.5484
  23680108.057   -12156978.084 6  -9337961.12345  23680115.0964
  22015972.721    -9903079.852 7  -7556937.78046  22015978.3804
  24323419.170     -743853.907 4   -347703.15945  24323429.4484
  22555430.765   -14971197.380 7 -11468004.84646  22555436.6954
  20492117.399   -23576059.407 8 -18139566.48447  20492120.8744
 02  1 30  0 29 30.0000000  0  7 04 27 20 01 08 24 13
  20801913.001   -25608954.933 7 -11091897.65447  20801918.5134
  22329508.686   -11385986.614 7  -8686263.61146  22329514.7974
  23694616.134   -12080738.118 5  -9278553.40545  23694621.9994
  22028366.740    -9837948.862 7  -7506186.38846  22028371.7204
  24300481.493     -864391.113 4   -441627.94645  24300487.2584
  22540610.393   -15049079.282 7 -11528692.00046  22540616.5394
  20494720.720   -23562378.966 8 -18128906.38947  20494724.0494
 02  1 30  0 30  0.0000000  0  7 04 27 20 01 08 24 13
  20801888.547   -25609083.592 6 -11091997.91147  20801893.4324
  22314207.429   -11466395.057 7  -8748919.52346  22314213.5394
  23709153.684   -12004343.296 5  -9219025.03745  23709160.2594
  22040796.766    -9772628.732 7  -7455287.60446  22040802.8534
  24277548.582     -984903.481 5   -535533.49645  24277555.3254
  22525860.282   -15126591.956 7 -11589091.48346  22525866.9014
  20497396.791   -23548316.028 8 -18117948.24647  20497400.4644
 02  1 30  0 30 30.0000000  0  7 04 27 20 01 08 24 13
  20801972.773   -25608641.038 6 -11091653.07047  20801977.6464
  22298970.737   -11546464.109 7  -8811310.95846  22298977.5234
  23723722.465   -11927783.864 6  -9159368.32145  23723728.7654
  22053264.340    -9707111.195 7  -7404234.97846  22053269.9074
  24254622.717    -1105378.417 4   -629409.78145  24254627.9814
  22511182.713   -15203723.084 7 -11649193.63046  22511189.2914
  20500147.539   -23533860.872 7 -18106684.49047  20500150.8604
 02  1 30  0 31  0.0000000  0  7 04 27 20 01 08 24 13
  20802165.153   -25607630.015 6 -11090865.27847  20802170.4514
  22283798.549   -11626194.403 7  -8873438.43546  22283805.4354
  23738321.896   -11851063.176 5  -9099585.99845  23738329.3154
  22065768.651    -9641400.702 7  -7353032.02746  22065774.4544
  24231703.999    -1225815.984 4   -723257.04345  24231711.7034
  22496577.536   -15280473.259 6 -11708998.94946  22496584.5394
  20502972.029   -23519018.041 8 -18095118.64747  20502975.8564
 02  1 30  0 31 30.0000000  0  7 04 27 20 01 08 24 13
  20802464.467   -25606057.033 8 -11089639.59647  20802469.9994
  22268689.927   -11705590.794 7  -8935305.72046  22268696.7454
  23752950.597   -11774188.429 5  -9039683.63445  23752956.8524
  22078308.033    -9575505.770 7  -7301685.31946  22078313.4024
  24208791.536    -1346220.562 4   -817078.50945  24208798.0494
  22482044.019   -15356846.943 7 -11768510.91446  22482051.2724
  20505868.448   -23503797.154 8 -18083258.20847  20505872.2034
 02  1 30  0 32  0.0000000  0  7 04 27 20 01 08 24 13
  20802871.721   -25603916.952 6 -11087972.01447  20802877.1364
  22253646.213   -11784646.095 7  -8996907.24846  22253651.9644
  23767609.553   -11697155.095 5  -8979657.67345  23767615.8544
  22090883.106    -9509423.143 7  -7250192.37146  22090889.7244
  24185886.890    -1466584.469 4   -910868.38245  24185895.3974
  22467583.548   -15432836.933 7 -11827723.88646  22467589.8924
  20508837.765   -23488193.415 8 -18071099.46947  20508841.6484
 02  1 30  0 32 30.0000000  0  7 04 27 20 01 08 24 13
  20803387.048   -25601209.026 6 -11085861.94547  20803392.3234
  22238667.872   -11863357.654 7  -9058240.87246  22238673.2194
  23782298.737   -11619962.924 6  -8919507.95545  23782305.8844
  22103493.691    -9443153.835 7  -7198553.98946  22103499.4684
  24162990.495    -1586904.488 4  -1004623.97645  24163002.6634
  22453196.758   -15508439.777 6 -11886635.17046  22453203.2994
  20511879.981   -23472206.387 8 -18058642.03947  20511883.6124
 02  1 30  0 33  0.0000000  0  7 04 27 20 01 08 24 13
  20804010.412   -25597933.240 6 -11083309.38947  20804015.2804
  22223755.340   -11941723.285 7  -9119304.98046  22223761.6534
  23797018.164   -11542612.194 5  -8859234.74645  23797026.1104
  22116139.501    -9376699.469 7  -7146771.37246  22116146.9624
  24140102.857    -1707177.927 3  -1098343.28745  24140113.6094
  22438884.070   -15583653.203 7 -11945243.00146  22438890.0994
  20514994.422   -23455839.747 8 -18045888.79647  20514998.1244
 02  1 30  0 33 30.0000000  0  7 04 27 20 01 08 24 13
  20804742.123   -25594087.882 8 -11080313.01347  20804747.5784
  22208909.312   -12019739.780 7  -9180097.05946  22208915.8164
  23811767.938   -11465102.380 5  -8798837.50345  23811774.0534
  22128820.476    -9310060.488 7  -7094844.91946  22128826.3364
  24117225.043    -1827400.951 5  -1192023.36345  24117231.6974
  22424646.236   -15658473.729 7 -12003544.71846  22424652.1474
  20518181.472   -23439091.753 8 -18032838.41747  20518185.1884
 02  1 30  0 34  0.0000000  0  7 04 27 20 01 08 24 13
  20805582.687   -25589670.784 6 -11076871.13647  20805587.6904
  22194130.545   -12097402.589 7  -9240613.49846  22194136.3194
  23826548.231   -11387431.490 5  -8738314.74945  23826553.7934
  22141536.756    -9243236.028 7  -7042773.92746  22141542.5894
  24094357.630    -1947568.364 4  -1285660.08745  24094368.6094
  22410484.148   -15732896.355 7 -12061536.36546  22410489.9794
  20521441.145   -23421961.946 8 -18019490.50547  20521445.1184
 02  1 30  0 34 30.0000000  0  7 04 27 20 01 08 24 13
  20806531.369   -25584685.612 6 -11072986.59947  20806536.1304
  22179418.758   -12174713.620 7  -9300855.85146  22179425.0554
  23841358.232   -11309603.453 5  -8677669.63745  23841364.7594
  22154287.302    -9176231.684 7  -6990562.75946  22154293.4064
  24071500.823    -2067681.390 5  -1379254.43645  24071510.5044
  22396397.477   -15806922.638 7 -12119219.18046  22396404.1234
  20524772.275   -23404456.662 8 -18005850.01947  20524776.0234
 02  1 30  0 35  0.0000000  0  7 04 27 20 01 08 24 13
  20807588.616   -25579129.733 7 -11068657.34447  20807593.9474
  22164774.817   -12251668.132 7  -9360820.39346  22164781.4354
  23856198.693   -11231616.268 5  -8616900.42545  23856205.7044
  22167072.288    -9109046.342 7  -6938210.56846  22167078.7624
  24048655.237    -2187734.885 4  -1472802.38345  24048664.3754
  22382387.124   -15880547.594 7 -12176589.26646  22382393.2484
  20528175.294   -23386573.627 8 -17991915.18647  20528179.4674
 02  1 30  0 35 30.0000000  0  7 04 27 20 01 08 24 13
  20808754.634   -25573002.173 6 -11063882.60847  20808759.6864
  22150199.226   -12328263.336 7  -9420504.95446  22150205.5684
  23871069.674   -11153469.464 5  -8556006.82645  23871075.2474
  22179891.557    -9041680.825 7  -6885717.95846  22179898.3544
  24025821.740    -2307725.156 3  -1566301.13145  24025829.9564
  22368453.704   -15953768.280 7 -12233644.33346  22368460.3124
  20531650.156   -23368313.073 7 -17977686.17747  20531654.1814
 02  1 30  0 36  0.0000000  0  7 04 27 20 01 08 24 13
  20810029.480   -25566302.892 6 -11058662.40747  20810034.7084
  22135692.405   -12404497.056 8  -9479907.81246  22135697.9154
  23885970.995   -11075163.145 5  -8494988.96545  23885977.7384
  22192744.810    -8974136.598 7  -6833086.11246  22192749.8124
  24003000.767    -2427649.346 3  -1659748.35445  24003007.9544
  22354597.735   -16026581.907 7 -12290382.17846  22354603.3024
  20535196.640   -23349676.335 8 -17963164.02747  20535200.1664
 02  1 30  0 36 30.0000000  0  7 04 27 20 01 08 24 13
  20811410.566   -25559045.399 6 -11053007.22847  20811415.6374
  22121252.208   -12480380.670 7  -9539037.87446  22121258.2374
  23900899.967   -10996711.422 5  -8433857.81045  23900907.2544
  22205629.205    -8906428.790 7  -6780326.79046  22205635.2644
  23980190.436    -2547518.475 5  -1753152.69445  23980196.7694
  22340817.208   -16098999.361 8 -12346811.36246  22340822.3064
  20538811.811   -23330678.334 8 -17948360.37247  20538815.5594
 02  1 30  0 37  0.0000000  0  7 04 27 20 01 08 24 13
  20812899.750   -25551219.781 6 -11046909.36747  20812904.4554
  22106880.907   -12555902.332 7  -9597885.90546  22106888.1224
  23915858.280   -10918104.995 5  -8372606.06445  23915865.1844
  22218546.257    -8838549.240 7  -6727433.63246  22218552.1334
  23957392.857    -2667319.943 5  -1846504.32645  23957398.4744
  22327114.328   -16171008.455 7 -12402922.34146  22327120.3724
  20542497.292   -23311310.941 8 -17933268.90247  20542501.0704
 02  1 30  0 37 30.0000000  0  7 04 27 20 01 08 24 13
  20814497.118   -25542825.754 6 -11040368.57747  20814501.9294
  22092578.998   -12631059.502 7  -9656449.93646  22092585.2304
  23930846.041   -10839343.581 5  -8311233.59645  23930852.6414
  22231495.832    -8770498.819 7  -6674407.34946  22231501.7044
  23934608.691    -2787050.474 3  -1939800.70145  23934619.2354
  22313489.600   -16242606.548 7 -12458713.02846  22313495.2444
  20546252.926   -23291574.965 8 -17917890.21347  20546256.7264
 02  1 30  0 38  0.0000000  0  7 04 27 20 01 08 24 13
  20816202.363   -25533864.683 7 -11033385.92847  20816206.9484
  22078346.506   -12705851.796 7  -9714729.60346  22078352.3344
  23945862.915   -10760429.230 5  -8249742.00145  23945870.3614
  22244477.302    -8702280.852 7  -6621250.50046  22244482.8554
  23911838.381    -2906708.965 3  -2033041.01845  23911849.7994
  22299943.284   -16313792.468 7 -12514182.56146  22299949.0884
  20550078.090   -23271473.494 8 -17902226.71447  20550081.7544
 02  1 30  0 38 30.0000000  0  7 04 27 20 01 08 24 13
  20818016.352   -25524332.054 6 -11025957.91047  20818021.4894
  22064184.696   -12780272.496 8  -9772719.66846  22064189.6204
  23960909.775   -10681357.785 5  -8188127.92345  23960917.5444
  22257491.311    -8633891.903 7  -6567960.42146  22257497.1454
  23889083.036    -3026287.928 3  -2126219.18245  23889085.0834
  22286476.766   -16384559.347 6 -12569325.58646  22286483.5104
  20553973.692   -23251001.970 8 -17886274.87647  20553977.1484
 02  1 30  0 39  0.0000000  0  7 04 27 20 01 08 24 13
  20819936.955   -25514239.301 6 -11018093.44547  20819942.1454
  22050091.764   -12854330.971 7  -9830427.48746  22050097.2514
  23975984.486   -10602140.632 6  -8126400.22545  23975991.5344
  22270535.399    -8565344.869 7  -6514547.17546  22270541.4784
  23866341.038    -3145796.040 2  -2219342.32345  23866349.0934
  22273088.299   -16454916.236 7 -12624149.12146  22273094.8344
  20557937.039   -23230174.433 8 -17870045.61747  20557941.6274
 02  1 30  0 39 30.0000000  0  7 04 27 20 01 08 24 13
  20821965.816   -25503577.642 7 -11009785.67647  20821971.3934
  22036069.880   -12928016.199 7  -9887844.52146  22036075.8874
  23991088.446   -10522769.482 5  -8064552.64545  23991094.3104
  22283610.944    -8496632.570 7  -6461005.10646  22283616.6794
  23843614.641    -3265221.607 1  -2312401.00545  23843622.8194
  22259779.983   -16524851.820 7 -12678644.38446  22259785.5714
  20561969.530   -23208983.453 8 -17853533.14947  20561973.4174
 02  1 30  0 40  0.0000000  0  7 04 27 20 01 08 24 13
  20824102.193   -25492350.894 6 -11001037.55947  20824107.7074
  22022118.730   -13001329.846 7  -9944972.01046  22022124.6214
  24006220.778   -10443248.400 5  -8002588.17945  24006226.9094
  22296716.949    -8427760.080 7  -6407338.25746  22296721.7814
  23820903.919    -3384565.617 1  -2405396.08045  23820920.3984
  22246551.455   -16594367.924 7 -12732812.75746  22246557.2774
  20566070.386   -23187433.127 8 -17836740.69347  20566073.6964
 02  1 30  0 40 30.0000000  0  7 04 27 20 01 08 24 13
  20826346.332   -25480557.999 6 -10991848.30847  20826351.0994
  22008238.860   -13074268.849 7 -10001807.57646  22008244.8894
  24021381.747   -10363576.609 5  -7940506.37945  24021389.3144
  22309853.316    -8358727.820 7  -6353546.86046  22309858.7874
  23798210.056    -3503824.211 1  -2498324.82044  23798212.9834
  22233403.607   -16663460.433 7 -12786651.04346  22233409.9224
  20570239.474   -23165524.435 8 -17819668.98747  20570243.4544
 02  1 30  0 41  0.0000000  0  8 10 04 27 20 01 08 24 13
  25255340.584      -55899.30013
  20828698.334   -25468198.272 8 -10982217.37047  20828703.1944
  21994430.825   -13146830.492 8 -10058349.08946  21994437.0714
  24036571.452   -10283753.697 5  -7878306.79545  24036577.5384
  22323020.024    -8289536.409 7  -6299631.49246  22323025.6134
  23775532.961    -3622993.621 2  -2591184.00145  23775539.6274
  22220337.029   -16732126.205 7 -12840156.83446  22220343.2444
  20574476.772   -23143257.134 8 -17802317.83747  20574480.4884
 02  1 30  0 41 30.0000000  0  8 10 04 27 20 01 08 24 13
  25236559.528     -154568.351 3
  20831157.629   -25455274.453 8 -10972146.85947  20831162.7374
  21980694.474   -13219015.457 8 -10114597.06546  21980701.3454
  24051789.445   -10203782.589 5  -7815991.68545  24051796.3414
  22336216.266    -8220189.759 7  -6245595.14446  22336221.5584
  23752872.804    -3742073.699 3  -2683973.66545  23752883.3454
  22207351.533   -16800365.346 7 -12893330.16346  22207357.2764
  20578781.553   -23120635.409 7 -17784690.52347  20578784.9524
 02  1 30  0 42  0.0000000  0  8 10 04 27 20 01 08 24 13
  25217777.410     -253261.051 3    -61522.45355  25217782.8594
  20833724.175   -25441787.053 7 -10961637.21447  20833729.5974
  21967030.110   -13290822.136 8 -10170550.28746  21967036.4544
  24067035.630   -10123664.218 6  -7753561.82445  24067042.2884
  22349441.638    -8150689.968 7  -6191439.48346  22349447.3064
  23730230.019    -3861062.323 3  -2776691.99345  23730233.2164
  22194447.549   -16868176.188 7 -12946169.79646  22194452.9504
  20583153.388   -23097661.344 8 -17766788.65947  20583157.7244
 02  1 30  0 42 30.0000000  0  8 10 04 27 20 01 08 24 13
  25198991.116     -351979.668 3   -138445.96245  25198997.7714
  20836397.377   -25427739.405 7 -10950691.00647  20836403.2444
  21953437.590   -13362251.306 7 -10226209.34246  21953443.4104
  24082309.339   -10043401.530 6  -7691019.54345  24082315.5324
  22362695.334    -8081041.386 7  -6137167.86846  22362701.2614
  23707605.056    -3979959.504 5  -2869338.99445  23707607.1124
  22181625.041   -16935558.952 7 -12998675.85546  22181630.7534
  20587591.512   -23074338.814 7 -17748615.25247  20587595.2104
 02  1 30  0 43  0.0000000  0  8 10 04 27 20 01 08 24 13
  25180202.470     -450712.366 3   -215380.37245  25180207.5904
  20839179.232   -25413120.821 6 -10939299.90547  20839183.9164
  21939919.310   -13433290.230 8 -10281564.31546  21939925.0224
  24097612.271    -9962984.386 5  -7628356.80645  24097619.1884
  22375979.133    -8011234.516 7  -6082772.94146  22375985.7134
  23684999.444    -4098751.428 4  -2961904.08145  23685004.2634
  22168886.480   -17002500.594 7 -13050838.20246  22168892.6744
  20592097.762   -23050658.413 8 -17730163.01447  20592101.6994
 02  1 30  0 43 30.0000000  0  8 10 04 27 20 01 08 24 13
  25161411.161     -549459.748 4   -292326.33245  25161416.6134
  20842069.464   -25397932.744 6 -10927465.06447  20842074.0584
  21926475.327   -13503938.381 7 -10336614.77846  21926481.1744
  24112944.214    -9882414.374 4  -7565575.03845  24112948.7734
  22389292.574    -7941272.049 7  -6028256.71946  22389298.1124
  23662414.188    -4217436.642 4  -3054386.02645  23662420.9234
  22156232.020   -17069000.228 7 -13102656.10346  22156238.6234
  20596671.583   -23026622.658 8 -17711433.84247  20596676.0824
 02  1 30  0 44  0.0000000  0  8 10 04 27 20 01 08 24 13
  25142615.048     -648231.851 3   -369291.54145  25142623.8434
  20845065.849   -25382186.662 7 -10915195.40647  20845070.9454
  21913103.974   -13574204.943 7 -10391367.91446  21913109.9994
  24128303.130    -9801702.918 5  -7502682.98145  24128311.2514
  22402633.211    -7871166.565 7  -5973629.07846  22402638.9194
  23639847.736    -4336023.553 5  -3146791.31145  23639854.7884
  22143659.990   -17135066.784 7 -13154136.52046  22143666.1344
  20601310.647   -23002244.340 8 -17692437.75547  20601314.5794
 02  1 30  0 44 30.0000000  0  8 10 04 27 20 01 08 24 13
  25123814.992     -747025.411 3   -446273.47445  25123819.8084
  20848168.848   -25365880.181 8 -10902489.06547  20848174.4534
  21899806.171   -13644085.312 7 -10445820.12246  21899812.3244
  24143689.458    -9720847.837 5  -7439679.08145  24143695.2874
  22416001.265    -7800916.856 6  -5918889.08846  22416008.2214
  23617300.968    -4454506.696 5  -3239115.71745  23617307.2504
  22131171.428   -17200694.771 7 -13205275.19146  22131177.2884
  20606015.198   -22977521.672 8 -17673173.34247  20606019.1234
 02  1 30  0 45  0.0000000  0  8 10 04 27 20 01 08 24 13
  25105011.403     -845836.910 3   -523269.41245  25105018.5734
  20851378.975   -25349010.897 6 -10889344.17747  20851384.4574
  21886582.776   -13713574.869 8 -10499967.81046  21886589.0334
  24159103.472    -9639847.012 5  -7376561.60845  24159110.3554
  22429397.046    -7730521.424 7  -5864035.51246  22429404.2554
  23594775.011    -4572880.453 4  -3331354.97145  23594785.0474
  22118767.228   -17265879.406 8 -13256068.40146  22118772.8634
  20610785.500   -22952453.666 7 -17653639.84447  20610789.2814
 02  1 30  0 45 30.0000000  0  8 10 04 27 20 01 08 24 13
  25086204.858     -944664.402 3   -600277.83745  25086208.1834
  20854696.353   -25331578.168 7 -10875760.25847  20854701.6134
  21873434.297   -13782670.638 8 -10553808.62246  21873439.5144
  24174545.383    -9558699.500 5  -7313329.82645  24174553.5874
  22442820.467    -7659980.767 6  -5809068.79646  22442826.4904
  23572270.752    -4691141.252 5  -3423506.15145  23572276.8424
  22106448.014   -17330617.192 7 -13306513.40346  22106454.1394
  20615621.453   -22927040.568 8 -17633837.43547  20615625.5634
 02  1 30  0 46  0.0000000  0  8 10 04 27 20 01 08 24 13
  25067396.564    -1043502.829 5   -677294.70645  25067404.9554
  20858121.714   -25313577.698 7 -10861733.92947  20858126.8224
  21860361.902   -13851366.210 7 -10607337.60446  21860367.6104
  24190015.915    -9477401.173 5  -7249980.54345  24190022.2704
  22456272.113    -7589291.788 7  -5753986.48946  22456278.3444
  23549789.283    -4809281.596 5  -3515563.51145  23549797.7884
  22094215.037   -17394901.553 7 -13356605.09246  22094221.2094
  20620523.670   -22901279.154 8 -17613763.60047  20620527.9244
 02  1 30  0 46 30.0000000  0  8 10 04 27 20 01 08 24 13
  25048585.739    -1142354.881 5   -754322.21645  25048590.0294
  20861654.254   -25295013.737 8 -10847268.51547  20861659.8794
  21847365.293   -13919663.472 7 -10660556.21646  21847371.1904
  24205514.360    -9395956.482 5  -7186517.18145  24205520.5314
  22469751.012    -7518459.746 7  -5698792.70446  22469758.2544
  23527330.672    -4927302.444 5  -3607527.72845  23527337.9844
  22082068.117   -17458733.965 7 -13406344.65546  22082074.0644
  20625491.221   -22875174.498 8 -17593422.31147  20625494.9014
 02  1 30  0 47  0.0000000  0  8 10 04 27 20 01 08 24 13
  25029771.593    -1241224.076 4   -831363.06945  25029777.7934
  20865293.162   -25275891.161 6 -10832367.82747  20865299.2024
  21834444.017   -13987564.978 8 -10713466.43846  21834449.6874
  24221039.776    -9314370.126 5  -7122943.46345  24221044.5004
  22483256.088    -7447490.388 7  -5643491.93246  22483261.1994
  23504894.327    -5045205.586 5  -3699400.18545  23504899.8244
  22070006.740   -17522116.558 7 -13455733.67146  22070012.7644
  20630522.968   -22848732.552 8 -17572818.19447  20630527.1464
 02  1 30  0 47 30.0000000  0  8 10 04 27 20 01 08 24 13
  25010954.091    -1340110.387 4   -908417.25245  25010962.9134
  20869038.208   -25256211.113 6 -10817032.74547  20869043.2584
  21821598.285   -14055069.606 8 -10766067.43547  21821604.2724
  24236591.813    -9232643.328 5  -7059260.22745  24236598.7834
  22496786.910    -7376385.862 7  -5588085.83946  22496791.7154
  23482480.833    -5162988.747 5  -3791179.22045  23482487.6954
  22058031.280   -17585047.797 7 -13504770.99346  22058037.1154
  20635618.532   -22821955.154 6 -17551952.69447  20635622.0244
 02  1 30  0 48  0.0000000  0  8 10 04 27 20 01 08 24 13
  24992135.340    -1439003.518 5   -985476.73945  24992141.0764
  20872891.020   -25235964.593 6 -10801256.24947  20872896.0784
  21808830.216   -14122166.214 8 -10818350.48547  21808836.7214
  24252172.338    -9150767.139 5  -6995460.64245  24252178.3914
  22510344.940    -7305138.070 7  -5532568.06246  22510350.4124
  23460092.514    -5280639.528 4  -3882855.08645  23460099.7424
  22046143.913   -17647516.084 7 -13553447.59546  22046150.7464
  20640779.462   -22794834.473 7 -17530819.70447  20640782.4294
 02  1 30  0 48 30.0000000  0  8 10 04 27 20 01 08 24 13
  24973314.505    -1537907.559 5  -1062544.81245  24973323.2694
  20876850.518   -25215157.267 6 -10785042.75747  20876855.8084
  21796139.185   -14188858.051 8 -10870318.11547  21796144.8754
  24267780.325    -9068746.962 5  -6931548.88245  24267786.5584
  22523929.035    -7233753.325 7  -5476943.62446  22523933.6664
  23437728.897    -5398160.782 5  -3974430.01645  23437736.7074
  22034344.198   -17709523.931 7 -13601765.39346  22034350.4024
  20646004.478   -22767376.778 7 -17509424.08947  20646007.7104
 02  1 30  0 49  0.0000000  0  8 10 04 27 20 01 08 24 13
  24954491.051    -1636825.201 5  -1139623.42945  24954500.2014
  20880915.951   -25193793.367 7 -10768395.57847  20880921.4234
  21783524.760   -14255147.227 8 -10921971.97947  21783530.3744
  24283414.826    -8986587.101 5  -6867528.23145  24283421.9394
  22537538.144    -7162237.076 7  -5421216.66746  22537543.6884
  23415389.807    -5515553.077 5  -4065904.50145  23415397.4104
  22022631.754   -17771073.316 7 -13649725.95346  22022638.1174
  20651292.648   -22739587.334 7 -17487769.99147  20651295.6814
 02  1 30  0 49 30.0000000  0  8 10 04 27 20 01 08 24 13
  24935665.765    -1735751.815 4  -1216708.90645  24935671.1324
  20885088.017   -25171869.174 6 -10751311.84147  20885093.5744
  21770988.104   -14321027.696 8 -10973307.37547  21770994.0124
  24299076.679    -8904283.730 5  -6803395.83145  24299083.9314
  22551172.825    -7090586.356 6  -5365384.96946  22551178.3324
  23393076.601    -5632809.717 5  -4157273.23045  23393082.6954
  22011007.823   -17832157.623 7 -13697324.10046  22011014.5774
  20656644.436   -22711463.405 8 -17465855.21847  20656648.2224
 02  1 30  0 50  0.0000000  0  8 10 04 27 20 01 08 24 13
  24916839.513    -1834683.265 4  -1293798.36445  24916847.1444
  20889367.185   -25149382.178 6 -10733789.52647  20889372.5654
  21758530.146   -14386494.506 7 -11024320.43647  21758535.7854
  24314766.364    -8821834.160 5  -6739149.41445  24314772.7324
  22564833.428    -7018799.312 7  -5309447.02046  22564838.4754
  23370790.371    -5749924.438 5  -4248531.38845  23370796.9804
  21999473.424   -17892771.452 7 -13744555.64546  21999479.2004
  20662060.260   -22683003.018 7 -17443678.29147  20662063.8344
 02  1 30  0 50 30.0000000  0  8 10 04 27 20 01 08 24 13
  24898010.968    -1933627.989 5  -1370898.09645  24898019.7364
  20893751.540   -25126342.398 6 -10715836.46947  20893756.5374
  21746149.400   -14451555.376 7 -11075017.17847  21746155.6684
  24330481.876    -8739248.137 5  -6674796.69445  24330488.4974
  22578517.935    -6946886.748 6  -5253411.26546  22578524.1724
  23348529.801    -5866904.082 5  -4339684.29245  23348537.7124
  21988027.098   -17952922.317 7 -13791426.44446  21988033.4434
  20667537.987   -22654217.182 8 -17421247.78447  20667541.8994
 02  1 30  0 51  0.0000000  0  8 10 04 27 20 01 08 24 13
  24879181.852    -2032575.873 4  -1448000.22945  24879190.2544
  20898242.724   -25102741.200 6 -10697445.94447  20898247.8324
  21733848.041   -14516199.264 7 -11125389.01347  21733854.2534
  24346225.023    -8656516.912 5  -6610330.84045  24346232.6144
  22592227.860    -6874840.689 7  -5197271.52046  22592232.6624
  23326297.340    -5983736.442 5  -4430722.42545  23326304.7494
  21976671.074   -18012598.620 7 -13837927.44046  21976677.3304
  20673079.208   -22625097.815 8 -17398557.38047  20673083.3764
 02  1 30  0 51 30.0000000  0  8 10 04 27 20 01 08 24 13
  24860350.566    -2131535.366 5  -1525111.47745  24860355.4464
  20902838.815   -25078588.615 7 -10678625.76647  20902843.9184
  21721624.588   -14580433.955 8 -11175441.99547  21721630.6164
  24361993.890    -8573650.698 5  -6545759.82945  24361999.1244
  22605961.108    -6802671.998 6  -5141036.16046  22605966.1564
  23304091.501    -6100428.492 5  -4521651.23245  23304098.5524
  21965403.918   -18071808.038 8 -13884064.62646  21965409.6354
  20678681.795   -22595655.897 8 -17375615.62647  20678686.1164
 02  1 30  0 52  0.0000000  0  8 10 04 27 20 01 08 24 13
  24841517.727    -2230502.294 4  -1602228.51345  24841521.3924
  20907540.321   -25053882.065 7 -10659373.93147  20907545.7214
  21709479.992   -14644254.357 8 -11225172.14447  21709485.7414
  24377789.183    -8490646.576 5  -6481081.36045  24377795.8304
  22619718.107    -6730378.452 6  -5084703.55846  22619723.3404
  23281913.732    -6216973.615 6  -4612465.53245  23281919.1754
  21954226.716   -18130544.568 7 -13929833.31346  21954232.3524
  20684346.220   -22565889.217 6 -17352420.81347  20684349.9074
 02  1 30  0 52 30.0000000  0  8 10 04 27 20 01 08 24 13
  24822684.338    -2329472.066 5  -1679347.61545  24822689.3614
  20912347.900   -25028618.216 6 -10639687.84647  20912353.2924
  21697415.267   -14707655.019 8 -11274575.22947  21697420.7814
  24393611.397    -8407501.086 5  -6416292.65545  24393617.2944
  22633499.282    -6657957.907 6  -5028271.96346  22633505.4124
  23259765.023    -6333365.666 6  -4703160.56645  23259769.0714
  21943140.606   -18188802.541 7 -13975229.10546  21943146.8174
  20690072.840   -22535795.751 8 -17328971.34847  20690076.5714
 02  1 30  0 53  0.0000000  0  8 10 04 27 20 01 08 24 13
  24803849.666    -2428447.982 3  -1756471.65145  24803861.8034
  20917260.576   -25002801.922 6 -10619571.27847  20917265.7034
  21685429.903   -14770638.365 8 -11323653.13747  21685436.0384
  24409459.675    -8324218.799 5  -6351397.41345  24409464.0864
  22647303.589    -6585415.697 6  -4971745.59646  22647309.4414
  23237645.140    -6449605.844 5  -4793737.25745  23237652.2844
  21932145.171   -18246583.750 7 -14020253.41646  21932150.8904
  20695860.652   -22505380.782 6 -17305271.37447  20695863.8334
 02  1 30  0 53 30.0000000  0  8 10 04 27 20 01 08 24 13
  24785014.734    -2527426.174 4  -1833597.44945  24785020.0034
  20922278.721   -24976431.237 7 -10599022.72247  20922284.5754
  21673524.767   -14833199.973 8 -11372402.40947  21673531.1584
  24425334.339    -8240797.432 5  -6286393.77345  24425340.2054
  22661131.392    -6512750.384 6  -4915123.30146  22661137.6364
  23215555.373    -6565688.500 6  -4884191.23045  23215561.8704
  21921241.356   -18303883.605 7 -14064902.66846  21921248.1174
  20701709.887   -22474642.992 8 -17281319.86647  20701714.0434
 02  1 30  0 54  0.0000000  0  8 10 04 27 20 01 08 24 13
  24766178.351    -2626411.135 4  -1910728.50245  24766184.8564
  20927401.171   -24949512.673 6 -10578047.23947  20927406.7074
  21661699.138   -14895343.991 8 -11420826.28947  21661705.0164
  24441234.171    -8157243.172 5  -6221286.65145  24441238.5244
  22674981.323    -6439968.886 6  -4858410.45346  22674988.1794
  23193494.955    -6681616.665 6  -4974524.81046  23193502.0454
  21910428.411   -18360705.688 7 -14109179.59346  21910435.1904
  20707619.175   -22443589.577 7 -17257122.40447  20707623.2454
 02  1 30  0 54 30.0000000  0  8 10 04 27 20 01 08 24 13
  24747342.062    -2725396.083 4  -1987859.57345  24747349.1594
  20932628.921   -24922040.679 6 -10556640.51347  20932633.4464
  21649954.467   -14957062.573 8 -11468918.65047  21649960.3294
  24457160.384    -8073550.547 5  -6156071.63445  24457166.8164
  22688854.231    -6367066.474 6  -4801603.40146  22688861.2174
  23171465.670    -6797381.293 6  -5064730.95645  23171471.6964
  21899708.001   -18417042.028 7 -14153078.08746  21899714.8374
  20713589.481   -22412215.410 8 -17232674.99947  20713593.6314
 02  1 30  0 55  0.0000000  0  8 10 04 27 20 01 08 24 13
  24728505.694    -2824381.439 5  -2064990.96045  24728509.4244
  20937961.531   -24894017.566 7 -10534804.34947  20937966.5064
  21638290.813   -15018355.422 8 -11516679.27647  21638296.4694
  24473112.588    -7989721.310 5  -6090750.15445  24473119.1974
  22702749.587    -6294045.864 6  -4744704.22946  22702755.2914
  23149467.777    -6912981.091 6  -5154808.65746  23149473.7974
  21889080.258   -18472891.417 8 -14196597.07246  21889086.3954
  20719620.236   -22380523.498 6 -17207979.99947  20719623.6644
 02  1 30  0 55 30.0000000  0  8 10 04 27 20 01 08 24 13
  24709669.233    -2923367.659 5  -2142123.03245  24709674.5914
  20943398.665   -24865445.545 6 -10512540.47147  20943403.8014
  21626708.155   -15079222.509 8 -11564108.14447  21626713.8894
  24489090.448    -7905757.502 5  -6025323.89645  24489097.7474
  22716666.943    -6220909.699 6  -4687715.01446  22716674.4044
  23127501.400    -7028414.800 6  -5244756.98345  23127507.9044
  21878545.170   -18528253.767 8 -14239736.55246  21878550.5784
  20725710.915   -22348516.820 8 -17183039.72947  20725715.4474
 02  1 30  0 56  0.0000000  0  8 10 04 27 20 01 08 24 13
  24690832.630    -3022354.722 5  -2219255.71345  24690841.0684
  20948939.940   -24836326.292 6 -10489850.14147  20948945.6684
  21615206.645   -15139663.150 8 -11611204.72047  21615213.0574
  24505093.563    -7821660.540 5  -5959793.79445  24505101.1874
  22730605.907    -6147660.136 6  -4630637.45546  22730611.5674
  23105566.970    -7143680.342 6  -5334574.24246  23105572.7244
  21868103.060   -18583127.356 8 -14282495.17046  21868108.9014
  20731861.094   -22316197.432 6 -17157855.77847  20731864.3554
 02  1 30  0 56 30.0000000  0  8 10 04 27 20 01 08 24 13
  24671995.345    -3121345.315 5  -2296391.21745  24672003.0414
  20954584.321   -24806664.814 6 -10466737.30047  20954589.5024
