     2              OBSERVATION DATA    G (GPS)             RINEX VERSION / TYPE
TRRINEXO V2.9.7 LHm ICC                 31-JAN-02 00:53     PGM / RUN BY / DATE
Rinex conversion                                            COMMENT
BIT 2 OF LLI (+4) FLAGS DATA COLLECTED UNDER "AS" CONDITION COMMENT
EBRE                                                        MARKER NAME
13410M001                                                   MARKER NUMBER
ICC                 ICC                                     OBSERVER / AGENCY
17999               TRIMBLE 4000SSI      7.29 / 3.07        REC # / TYPE / VERS
0220071796          TRM29659.00                             ANT # / TYPE
  4833520.3800    41536.8300  4147461.2800                  APPROX POSITION XYZ
        0.0000        0.0000        0.0000                  ANTENNA: DELTA H/E/N
     1     1                                                WAVELENGTH FACT L1/2
     5    C1    L1    L2    P2    P1                        # / TYPES OF OBSERV
    30                                                      INTERVAL
  2002     1    30     0     0    0.000000                  TIME OF FIRST OBS
                                                            END OF HEADER
 02  1 30  0  0  0.0000000  0  7 07 27 13 04 20 01 24
  23977945.834    -1008670.948 5   6408374.22345  23977954.3444
  23250680.352    -8107326.341 6  -6143840.71046  23250686.6944
  20447939.626   -20240993.874 8 -15558329.37447  20447942.3934
  20951749.208   -17287796.196 8  -8192354.00047  20951753.7444
  22937387.883    -4484547.281 6  -3337904.48746  22937393.2634
  21414213.878   -13212369.339 8 -10139606.76247  21414218.7074
  23505213.163    -7582902.342 6  -5728187.43946  23505219.0944
 02  1 30  0  0 30.0000000  0  7 07 27 13 04 20 01 24
  23995422.833     -916830.753 5   6479937.81945  23995431.5664
  23235719.357    -8185944.797 6  -6205101.79046  23235725.7114
  20449466.020   -20232972.399 8 -15552078.85647  20449468.7394
  20948431.956   -17305228.804 8  -8205937.85347  20948436.5044
  22952986.258    -4402577.198 6  -3274031.73646  22952992.1074
  21427341.861   -13143380.912 8 -10085849.54747  21427346.7034
  23490079.443    -7662430.815 6  -5790157.64146  23490084.8354
 02  1 30  0  1  0.0000000  0  7 07 27 13 04 20 01 24
  24012923.652     -824860.962 5   6551602.39445  24012932.5724
  23220798.011    -8264355.571 6  -6266201.00946  23220804.0954
  20451079.618   -20224493.056 8 -15545471.57247  20451082.3144
  20945212.444   -17322147.259 7  -8219121.06747  20945216.7934
  22968618.243    -4320431.023 6  -3210021.75646  22968623.0494
  21440526.615   -13074095.510 8 -10031860.91647  21440531.3504
  23474988.423    -7741734.320 6  -5851952.54046  23474993.9324
 02  1 30  0  1 30.0000000  0  7 07 27 13 04 20 01 24
  24030448.725     -732766.068 5   6623364.41045  24030458.9814
  23205916.921    -8342557.488 6  -6327137.48746  23205922.6184
  20452779.966   -20215558.411 8 -15538509.50647  20452782.7444
  20942091.021   -17338551.436 7  -8231903.53747  20942095.1834
  22984283.165    -4238110.135 6  -3145875.62446  22984288.5924
  21453767.111   -13004516.404 8  -9977643.43347  21453771.8594
  23459940.408    -7820811.822 6  -5913571.34046  23459945.8824
 02  1 30  0  2  0.0000000  0  7 07 27 13 04 20 01 24
  24047997.701     -640550.264 5   6695220.61845  24048008.2274
  23191075.551    -8420549.213 6  -6387910.20346  23191081.4234
  20454565.993   -20206170.762 8 -15531194.46347  20454568.8764
  20939067.312   -17354441.259 7  -8244285.21847  20939071.4034
  22999981.414    -4155616.390 6  -3081594.80446  22999987.1234
  21467062.708   -12934646.703 8  -9923199.50247  21467067.7254
  23444935.479    -7899661.358 6  -5975012.52246  23444941.2694
 02  1 30  0  2 30.0000000  0  7 07 27 13 04 20 01 24
  24065567.380     -548217.387 5   6767168.15945  24065578.1764
  23176274.385    -8498329.332 6  -6448518.00646  23176279.9064
  20456438.485   -20196331.736 8 -15523527.67147  20456441.5094
  20936141.519   -17369816.137 7  -8256265.64547  20936145.7274
  23015712.017    -4072950.904 6  -3017180.17646  23015717.4334
  21480413.230   -12864489.199 8  -9868531.32747  21480418.1894
  23429975.112    -7978281.687 6  -6036275.08046  23429980.4574
 02  1 30  0  3  0.0000000  0  7 07 27 13 04 20 01 24
  24083160.822     -455764.961 5   6839208.77245  24083170.8574
  23161515.256    -8575889.725 6  -6508954.59146  23161521.2814
  20458397.580   -20186036.655 8 -15515505.54047  20458400.4414
  20933314.967   -17384669.393 7  -8267839.60847  20933319.2574
  23031476.683    -3990108.276 6  -2952627.52946  23031481.8644
  21493819.380   -12794040.375 8  -9813636.15247  21493824.4324
  23415059.184    -8056665.395 6  -6097353.26146  23415064.8694
 02  1 30  0  3 30.0000000  0  7 07 27 13 04 20 01 24
  24100776.205     -363198.965 5   6911337.88745  24100786.3914
  23146797.321    -8653231.018 6  -6569220.44746  23146802.9124
  20460442.826   -20175289.881 8 -15507131.42647  20460445.6274
  20930587.443   -17399002.564 7  -8279008.31747  20930591.8274
  23047273.962    -3907091.847 6  -2887939.42146  23047279.1204
  21507279.737   -12723305.421 8  -9758518.01147  21507284.5084
  23400188.269    -8134812.955 6  -6158247.41546  23400193.7554
 02  1 30  0  4  0.0000000  0  7 07 27 13 04 20 01 24
  24118412.533     -270522.036 5   6983553.41345  24118422.8374
  23132121.961    -8730350.265 6  -6629313.29946  23132127.4004
  20462573.544   -20164091.987 8 -15498405.79747  20462576.3224
  20927959.242   -17412813.837 7  -8289770.34847  20927963.5084
  23063104.737    -3823901.649 6  -2823115.94746  23063109.9774
  21520794.447   -12652285.818 8  -9703178.06847  21520799.2064
  23385362.768    -8212721.005 6  -6218954.93846  23385368.0904
 02  1 30  0  4 30.0000000  0  7 07 27 13 04 20 01 24
  24136069.088     -177739.201 5   7055851.45845  24136080.0484
  23117489.327    -8807247.173 6  -6689232.90846  23117494.8604
  20464789.538   -20152446.189 8 -15489331.14247  20464792.3044
  20925430.274   -17426103.954 8  -8300126.28247  20925434.5994
  23078967.853    -3740540.024 6  -2758158.87846  23078973.2684
  21534362.209   -12580985.557 8  -9647619.41347  21534366.9214
  23370582.485    -8290389.155 6  -6279475.55046  23370587.7954
 02  1 30  0  5  0.0000000  0  7 07 27 13 04 20 01 24
  24153744.661      -84850.557 5   7128231.99945  24153751.7644
  23102899.330    -8883916.480 6  -6748975.15846  23102904.7344
  20467091.511   -20140350.429 8 -15479905.85747  20467094.2424
  20923001.036   -17438868.808 8  -8310072.92147  20923005.4794
  23094864.200    -3657004.311 6  -2693066.17646  23094870.0504
  21547983.933   -12509403.711 8  -9591841.35747  21547988.8564
  23355849.540    -8367812.355 6  -6339805.29046  23355855.0504
 02  1 30  0  5 30.0000000  0  7 07 27 13 04 20 01 24
  24171439.924        8138.277 5   7200690.58345  24171450.3104
  23088352.944    -8960358.495 6  -6808540.28746  23088358.9814
  20469478.013   -20127808.631 8 -15470133.01147  20469480.5564
  20920671.864   -17451109.858 8  -8319611.40247  20920676.2374
  23110793.334    -3573297.404 6  -2627840.05146  23110798.7624
  21561658.359   -12437544.974 8  -9535847.53447  21561663.0014
  23341162.872    -8444991.238 6  -6399944.63446  23341168.1354
 02  1 30  0  6  0.0000000  0  7 07 27 13 04 20 01 24
  24189154.608      101225.751 5   7273225.99045  24189166.3304
  23073850.576    -9036569.063 6  -6867925.06846  23073856.3794
  20471949.703   -20114819.873 8 -15460011.87747  20471952.3064
  20918442.576   -17462824.118 8  -8328739.39447  20918447.1134
  23126754.686    -3489418.072 6  -2562479.59246  23126759.9144
  21575384.973   -12365409.716 8  -9479638.23947  21575389.3814
  23326523.097    -8521921.616 6  -6459890.35446  23326528.9464
 02  1 30  0  6 30.0000000  0  7 07 27 13 04 20 01 24
  24206886.485      194408.311 4   7345835.58245  24206896.0394
  23059392.258    -9112546.692 6  -6927128.34846  23059398.0724
  20474506.188   -20101385.781 8 -15449543.74947  20474508.8964
  20916313.835   -17474011.140 7  -8337456.55447  20916318.1724
  23142749.375    -3405367.310 6  -2496985.55746  23142754.6154
  21589164.071   -12293000.582 8  -9423215.53547  21589168.6784
  23311931.562    -8598601.646 6  -6519640.99046  23311937.4114
 02  1 30  0  7  0.0000000  0  7 07 27 13 04 20 01 24
  24224635.946      287680.523 5   7418514.95645  24224646.7194
  23044978.709    -9188291.338 6  -6986150.08346  23044984.7814
  20477146.347   -20087510.563 8 -15438731.86747  20477148.9614
  20914285.040   -17484672.240 7  -8345763.90747  20914289.4004
  23158775.899    -3321147.733 6  -2431359.96246  23158780.0484
  21602994.338   -12220322.013 8  -9366582.88147  21602999.2264
  23297387.687    -8675031.079 6  -6579196.36546  23297392.9854
 02  1 30  0  7 30.0000000  0  7 07 27 13 04 20 01 24
  24242403.148      381044.305 5   7491265.67645  24242414.3194
  23030610.268    -9263795.742 6  -7044984.59546  23030616.3404
  20479871.507   -20073190.207 8 -15427573.12647  20479874.1804
  20912357.488   -17494801.224 7  -8353656.62447  20912362.0134
  23174835.613    -3236754.983 6  -2365599.42946  23174841.0174
  21616876.484   -12147371.202 8  -9309738.10247  21616881.4084
  23282892.738    -8751203.045 6  -6638551.11546  23282898.7754
 02  1 30  0  8  0.0000000  0  7 07 27 13 04 20 01 24
  24260186.117      474495.022 5   7564084.11445  24260197.1714
  23016287.851    -9339058.937 6  -7103631.17446  23016293.9934
  20482680.774   -20058427.381 8 -15416069.59547  20482683.5524
  20910531.489   -17504398.392 6  -8361134.93947  20910535.6624
  23190927.322    -3152190.760 6  -2299705.28446  23190932.8084
  21630809.701   -12074151.474 8  -9252683.77747  21630814.7764
  23268446.771    -8827116.161 6  -6697704.16846  23268452.8554
 02  1 30  0  8 30.0000000  0  7 07 27 13 04 20 01 24
  24277985.056      568030.165 5   7636968.33245  24277997.0364
  23002012.464    -9414078.260 6  -7162087.73946  23002018.4424
  20485574.029   -20043222.865 8 -15404221.90847  20485577.0184
  20908806.527   -17513462.353 7  -8368197.76647  20908810.7714
  23207052.096    -3067455.056 6  -2233677.52346  23207057.9224
  21644793.627   -12000664.409 8  -9195421.13547  21644798.5154
  23254050.636    -8902767.855 6  -6756653.50746  23254056.3104
 02  1 30  0  9  0.0000000  0  7 07 27 13 04 20 01 24
  24295800.110      661644.262 5   7709914.04245  24295810.5674
  22987783.106    -9488853.842 6  -7220354.36346  22987789.2484
  20488550.730   -20027580.103 8 -15392032.73447  20488553.5794
  20907182.737   -17521994.456 7  -8374846.15247  20907187.3444
  23223209.282    -2982550.537 6  -2167518.19446  23223214.6394
  21658827.985   -11926914.303 8  -9137953.52947  21658833.0724
  23239704.366    -8978157.985 6  -6815399.03846  23239709.3014
 02  1 30  0  9 30.0010000  0  7 07 27 13 04 20 01 24
  24313629.500      755337.436 5   7782921.42645  24313638.3854
  22973600.083    -9563385.763 6  -7278431.11846  22973605.9684
  20491610.819   -20011499.635 8 -15379502.48247  20491613.6794
  20905660.695   -17529993.739 7  -8381079.36047  20905665.1144
  23239398.226    -2897474.676 6  -2101225.35646  23239403.4304
  21672912.292   -11852900.800 8  -9080280.66447  21672917.3564
  23225407.756    -9053286.612 6  -6873940.81446  23225412.6214
 02  1 30  0 10  0.0010000  0  7 07 27 13 04 20 01 24
  24331472.011      849101.601 5   7855984.10945  24331481.9634
  22959465.087    -9637665.518 6  -7336311.36946  22959471.2064
  20494753.781   -19994982.818 8 -15366632.21547  20494756.5244
  20904240.272   -17537457.184 7  -8386895.02847  20904244.6094
  23255619.508    -2812232.360 6  -2034802.80446  23255624.9594
  21687045.492   -11778629.625 8  -9022407.02447  21687050.4504
  23211162.864    -9128145.459 6  -6932272.32346  23211168.0804
 02  1 30  0 10 30.0010000  0  7 07 27 13 04 20 01 24
  24349329.021      942937.185 5   7929102.41945  24349338.9734
  22945378.023    -9711693.147 6  -7393995.16646  22945384.0134
  20497979.769   -19978029.778 8 -15353422.03247  20497982.3724
  20902922.380   -17544384.046 7  -8392292.58547  20902926.8464
  23271872.460    -2726820.863 6  -1968248.41746  23271877.2774
  21701228.149   -11704100.143 8  -8964332.10747  21701233.0844
  23196968.701    -9202734.440 6  -6990393.60046  23196974.0814
 02  1 30  0 11  0.0010000  0  7 07 27 13 04 20 01 24
  24367198.801     1036840.527 5   8002273.49345  24367209.4804
  22931339.582    -9785466.763 6  -7451481.03046  22931345.3854
  20501288.414   -19960642.400 8 -15339873.41747  20501291.1574
  20901706.334   -17550773.902 6  -8397271.68847  20901710.7414
  23288157.928    -2641241.073 6  -1901562.91246  23288163.5784
  21715459.136   -11629314.802 8  -8906057.81847  21715463.8014
  23182826.846    -9277051.669 6  -7048303.10246  23182831.6764
 02  1 30  0 11 30.0010000  0  7 07 27 13 04 20 01 24
  24385079.622     1130807.189 5   8075493.93745  24385089.6334
  22917349.290    -9858985.593 6  -7508768.38246  22917355.1754
  20504679.222   -19942823.696 8 -15325988.70247  20504681.8834
  20900592.485   -17556627.316 6  -8401832.79247  20900596.8344
  23304475.378    -2555494.914 6  -1834747.76246  23304480.6294
  21729738.145   -11554277.215 8  -8847586.98047  21729742.8694
  23168736.264    -9351096.251 6  -7106000.15646  23168741.7504
 02  1 30  0 12  0.0010000  0  7 07 27 13 04 20 01 24
  24402972.538     1224835.795 5   8148762.66845  24402983.9904
  22903408.505    -9932245.513 7  -7565853.98046  22903414.1554
  20508152.411   -19924572.521 8 -15311766.99947  20508155.0254
  20899581.292   -17561941.307 6  -8405973.55847  20899585.5364
  23320823.929    -2469581.099 6  -1767802.01446  23320829.5914
  21744065.330   -11478987.538 8  -8788919.70447  21744070.4884
  23154698.917    -9424864.026 6  -7163481.49446  23154705.0714
 02  1 30  0 12 30.0010000  0  7 07 27 13 04 20 01 24
  24420877.516     1318922.754 4   8222076.83645  24420891.5824
  22889517.003   -10005245.089 6  -7622736.73146  22889522.9694
  20511707.135   -19905891.707 8 -15297210.51347  20511710.1014
  20898672.651   -17566715.854 7  -8409693.98147  20898677.0004
  23337204.608    -2383500.723 6  -1700726.46546  23337210.1764
  21758440.177   -11403448.368 8  -8730058.02247  21758445.1594
  23140714.519    -9498353.143 6  -7220745.72946  23140720.0524
 02  1 30  0 13  0.0010000  0  7 07 27 13 04 20 01 24
  24438793.047     1413068.906 4   8295437.17645  24438804.7694
  22875676.202   -10077978.050 6  -7679411.70346  22875682.2634
  20515344.584   -19886778.199 8 -15282316.86547  20515347.6554
  20897867.764   -17570945.932 6  -8412990.14547  20897872.0434
  23353617.700    -2297250.055 6  -1633518.18646  23353621.8504
  21772862.591   -11327657.879 8  -8671000.49547  21772867.4914
  23126783.786    -9571556.969 6  -7277787.64846  23126789.5764
 02  1 30  0 13 30.0010000  0  7 07 27 13 04 20 01 24
  24456719.091     1507268.713 5   8368839.20245  24456727.5784
  22861886.486   -10150444.645 7  -7735879.13046  22861892.2544
  20519063.226   -19867235.497 8 -15267088.78647  20519066.0404
  20897166.072   -17574633.096 6  -8415863.25647  20897170.3864
  23370062.275    -2210832.163 6  -1566179.62245  23370067.4914
  21787332.163   -11251620.583 8  -8611750.65746  21787337.2854
  23112908.072    -9644476.251 6  -7334607.84546  23112913.2424
 02  1 30  0 14  0.0010000  0  8 08 07 27 13 04 20 01 24
  24985299.909      -24112.80814
  24474654.422     1601517.637 5   8442279.56245  24474666.2964
  22848147.108   -10222644.145 6  -7792138.42846  22848152.9694
  20522863.091   -19847266.675 8 -15251528.64947  20522865.8694
  20896567.461   -17577778.124 7  -8418313.91747  20896571.7984
  23386538.792    -2124248.689 6  -1498712.01745  23386544.7594
  21801847.515   -11175339.899 7  -8552311.16646  21801852.8834
  23099086.374    -9717109.939 6  -7391205.49246  23099092.0954
 02  1 30  0 14 30.0010000  0  8 08 07 27 13 04 20 01 24
  24965626.926     -127492.590 5
  24492598.320     1695814.523 4   8515757.30045  24492609.2454
  22834459.567   -10294572.502 6  -7848186.44946  22834465.6044
  20526744.230   -19826871.410 8 -15235636.22147  20526746.8204
  20896072.775   -17580378.418 6  -8420340.11647  20896076.9484
  23403046.041    -2037498.464 6  -1431114.46145  23403051.4574
  21816409.812   -11098816.303 8  -8492682.39946  21816414.5724
  23085319.733    -9789454.050 6  -7447577.50746  23085325.3134
 02  1 30  0 15  0.0010000  0  8 08 07 27 13 04 20 01 24
  24945946.333     -230910.259 5    -24175.76155  24945956.9774
  24510551.896     1790157.913 4   8589271.26845  24510562.7514
  22820824.308   -10366225.740 7  -7904020.07746  22820830.2164
  20530706.564   -19806049.307 8 -15219411.19847  20530709.2614
  20895681.829   -17582431.409 6  -8421939.84447  20895686.0494
  23419586.332    -1950580.139 6  -1363385.90445  23419592.9324
  21831017.855   -11022049.868 8  -8432864.39646  21831022.8614
  23071608.875    -9861504.252 6  -7503720.49646  23071614.3024
 02  1 30  0 15 30.0010000  0  8 08 07 27 13 04 20 01 24
  24926258.859     -334365.305 5   -104789.29545  24926269.7724
  24528513.792     1884543.154 5   8662817.81645  24528524.5424
  22807241.726   -10437603.532 7  -7959639.09246  22807247.5874
  20534749.695   -19784803.353 8 -15202855.91547  20534752.3794
  20895395.399   -17583937.978 6  -8423113.79247  20895399.6894
  23436157.988    -1863496.014 6  -1295528.17345  23436163.6734
  21845671.504   -10945044.454 8  -8372860.18846  21845676.2644
  23057954.014    -9933259.977 6  -7559634.02246  23057959.3244
 02  1 30  0 16  0.0010000  0  8 08 07 27 13 04 20 01 24
  24906564.753     -437856.171 5   -185430.72245  24906577.6124
  24546481.812     1978966.078 5   8736393.74545  24546491.6004
  22793711.517   -10508704.352 7  -8015042.27746  22793717.2024
  20538872.809   -19763135.683 8 -15185972.00647  20538875.4584
  20895212.545   -17584898.319 7  -8423862.11047  20895216.8944
  23452761.183    -1776247.350 6  -1227542.23945  23452767.2444
  21860370.068   -10867802.925 7  -8312671.99446  21860375.4604
  23044355.719   -10004719.697 6  -7615316.90946  23044361.1584
 02  1 30  0 16 30.0010000  0  8 08 07 27 13 04 20 01 24
  24886864.076     -541381.571 5   -266099.10645  24886875.0124
  24564456.428     2073422.864 5   8809996.09745  24564466.5094
  22780234.089   -10579527.163 6  -8070228.82946  22780239.8684
  20543075.758   -19741049.006 8 -15168761.60047  20543078.3724
  20895133.863   -17585312.693 6  -8424184.99547  20895138.2004
  23469394.759    -1688835.692 6  -1159429.32545  23469400.4094
  21875113.050   -10790328.364 8  -8252302.21346  21875118.1374
  23030813.832   -10075882.208 6  -7670768.20246  23030819.5404
 02  1 30  0 17  0.0010000  0  8 08 07 27 13 04 20 01 24
  24867158.133     -644935.574 5   -346789.82745  24867166.4204
  24582437.102     2167913.897 4   8883625.03545  24582452.6924
  22766811.151   -10650066.292 7  -8125194.33946  22766817.1414
  20547358.814   -19718541.146 8 -15151222.99447  20547361.5694
  20895159.821   -17585176.817 6  -8424079.11747  20895164.1004
  23486060.234    -1601257.799 6  -1091186.86245  23486065.4394
  21889900.785   -10712619.321 8  -8191749.71046  21889905.3454
  23017329.870   -10146741.622 6  -7725983.31446  23017335.7894
 02  1 30  0 17 30.0010000  0  8 08 07 27 13 04 20 01 24
  24847446.599     -748516.160 5   -427501.22745  24847457.4424
  24600424.014     2262435.930 4   8957278.17345  24600438.2924
  22753441.985   -10720320.018 7  -8179937.45946  22753447.9164
  20551721.641   -19695613.973 8 -15133357.65347  20551724.5604
  20895290.349   -17584490.344 6  -8423544.19747  20895294.3934
  23502757.624    -1513514.640 6  -1022815.61745  23502763.4734
  21904732.163   -10634678.100 7  -8131016.29546  21904736.9694
  23003903.688   -10217295.977 6  -7780960.71246  23003909.4324
 02  1 30  0 18  0.0010000  0  7 08 27 13 04 20 01 24
  24827730.663     -852123.267 5   -508233.36345  24827740.2754
  22740127.446   -10790288.374 6  -8234458.20346  22740133.3664
  20556163.579   -19672270.650 8 -15115168.05147  20556166.4864
  20895525.375   -17583254.678 6  -8422581.33547  20895529.5604
  23519485.657    -1425608.533 6   -954317.39145  23519490.8974
  21919607.457   -10556508.766 7  -8070105.13246  21919612.6624
  22990536.127   -10287544.833 6  -7835700.04446  22990541.9774
 02  1 30  0 18 30.0010000  0  7 08 27 13 04 20 01 24
  24808009.240     -955754.980 5   -588984.67145  24808017.8804
  22726867.611   -10859969.880 7  -8288755.43746  22726873.6364
  20560684.635   -19648513.000 8 -15096655.60747  20560687.5424
  20895865.034   -17581469.977 7  -8421190.65547  20895869.3484
  23536244.362    -1337540.813 6   -885693.23045  23536249.7544
  21934525.597   -10478114.123 7  -8009018.41346  21934530.4974
  22977226.513   -10357486.952 6  -7890200.38746  22977232.2574
 02  1 30  0 19  0.0010000  0  7 08 27 13 04 20 01 24
  24788284.589    -1059408.804 5   -669753.24345  24788291.5054
  22713662.697   -10929362.140 7  -8342827.29146  22713668.5354
  20565283.955   -19624343.289 8 -15077822.06347  20565286.8154
  20896309.262   -17579135.280 6  -8419371.41747  20896313.7634
  23553034.045    -1249311.877 6   -816943.45646  23553039.7534
  21949485.907   -10399496.068 7  -7947757.59246  21949490.4784
  22963975.941   -10427119.502 6  -7944459.49746  22963981.3094
 02  1 30  0 19 30.0010000  0  7 08 27 13 04 20 01 24
  24768555.621    -1163081.534 5   -750536.60445  24768564.1314
  22700513.360   -10998462.134 7  -8396671.38846  22700519.1984
  20569961.693   -19599761.604 8 -15058667.49147  20569964.5414
  20896858.554   -17576249.178 7  -8417122.50547  20896863.0444
  23569854.185    -1160921.341 6   -748067.79346  23569859.3074
  21964489.006   -10320655.490 7  -7886323.38146  21964493.9884
  22950784.478   -10496439.458 6  -7998475.04546  22950790.3864
 02  1 30  0 20  0.0010000  0  7 08 27 13 04 20 01 24
  24748823.479    -1266769.169 5   -831331.56045  24748832.6344
  22687420.365   -11067266.116 7  -8450284.83446  22687426.0274
  20574717.845   -19574767.682 8 -15039191.70547  20574720.7764
  20897513.057   -17572809.586 6  -8414442.30547  20897517.5244
  23586705.489    -1072367.894 6   -679065.13745  23586710.1074
  21979533.723   -10241592.967 7  -7824716.23246  21979538.3184
  22937653.565   -10565442.647 6  -8052243.73446  22937658.8874
 02  1 30  0 20 30.0010000  0  7 08 27 13 04 20 01 24
  24729089.843    -1370470.574 5   -912137.28945  24729099.4434
  22674383.620   -11135773.493 7  -8503667.15746  22674389.0354
  20579551.925   -19549364.693 8 -15019397.16747  20579554.8794
  20898272.817   -17568817.262 6  -8411331.39747  20898277.1784
  23603586.777     -983653.562 6   -609937.09545  23603592.2754
  21994620.479   -10162312.006 7  -7762938.86646  21994625.4024
  22924583.347   -10634128.878 6  -8105765.46146  22924588.7744
 02  1 30  0 21  0.0010000  0  7 08 27 13 04 20 01 24
  24709353.654    -1474180.701 5   -992949.81645  24709362.0004
  22661404.573   -11203979.273 7  -8556814.46946  22661410.1884
  20584464.115   -19523550.792 8 -14999282.43347  20584466.9994
  20899138.106   -17564268.782 7  -8407787.12247  20899142.6664
  23620499.781     -894775.913 6   -540681.81745  23620505.1734
  22009749.233   -10082811.408 7  -7700990.35846  22009754.0744
  22911573.937   -10702492.248 6  -8159035.61446  22911579.2364
 02  1 30  0 21 30.0010000  0  7 08 27 13 04 20 01 24
  24689617.774    -1577895.623 5  -1073766.10445  24689627.6674
  22648483.607   -11271879.968 7  -8609724.05646  22648489.0114
  20589454.467   -19497326.335 8 -14978847.79747  20589457.1634
  20900109.802   -17559162.170 7  -8403807.95147  20900114.5854
  23637444.212     -805734.006 6   -471298.57045  23637448.8894
  22024919.329   -10003091.895 7  -7638871.26646  22024924.0294
  22898626.855   -10770529.191 6  -8212051.38146  22898632.6694
 02  1 30  0 22  0.0010000  0  7 08 27 13 04 20 01 24
  24669879.566    -1681617.500 5  -1154587.86945  24669889.0504
  22635620.139   -11339478.130 7  -8662397.91246  22635625.5434
  20594521.841   -19470697.447 8 -14958098.02447  20594524.6904
  20901187.252   -17553501.595 6  -8399397.11747  20901191.6134
  23654418.737     -716532.672 6   -401791.06245  23654424.7034
  22040129.878    -9923160.105 7  -7576586.76946  22040135.0004
  22885741.715   -10838242.193 6  -8264814.74446  22885746.9194
 02  1 30  0 22 30.0010000  0  7 08 27 13 04 20 01 24
  24650141.670    -1785339.026 5  -1235409.35245  24650150.5674
  22622815.725   -11406766.646 7  -8714830.48546  22622821.3634
  20599666.680   -19443660.383 8 -14937030.17147  20599669.5174
  20902370.857   -17547281.587 6  -8394550.36147  20902375.1714
  23671423.943     -627167.623 6   -332156.00545  23671430.0504
  22055381.234    -9843012.925 7  -7514134.43046  22055386.1344
  22872919.361   -10905623.742 7  -8317319.83046  22872924.7294
 02  1 30  0 23  0.0010000  0  7 08 27 13 04 20 01 24
  24630404.253    -1889059.364 5  -1316229.94245  24630412.0484
  22610069.760   -11473745.138 7  -8767021.47246  22610075.5744
  20604888.691   -19416218.802 8 -14915647.12947  20604891.6454
  20903660.816   -17540503.239 6  -8389268.53247  20903665.0014
  23688460.953     -537641.249 6   -262395.23645  23688465.6774
  22070673.044    -9762654.131 7  -7451517.18546  22070677.8274
  22860160.108   -10972673.602 6  -8369566.46746  22860165.5824
 02  1 30  0 23 30.0010000  0  7 08 27 13 04 20 01 24
  24610667.051    -1992775.339 5  -1397047.14745  24610676.2994
  22597383.688   -11540410.689 7  -8818968.60446  22597389.4914
  20610187.534   -19388373.039 8 -14893949.11047  20610190.3364
  20905057.037   -17533165.454 6  -8383550.78947  20905061.5274
  23705528.091     -447953.005 6   -192508.34345  23705533.9644
  22086005.169    -9682084.817 7  -7388735.91246  22086010.0214
  22847464.905   -11039388.363 7  -8421551.95346  22847469.5834
 02  1 30  0 24  0.0010000  0  7 08 27 13 04 20 01 24
  24590931.239    -2096486.594 5  -1477860.72345  24590939.5504
  22584757.102   -11606763.336 7  -8870671.92846  22584762.7994
  20615562.670   -19360126.759 8 -14871939.00647  20615565.4954
  20906559.573   -17525269.673 6  -8377398.23647  20906563.9114
  23722625.488     -358105.471 6   -122497.29545  23722630.5874
  22101375.923    -9601309.005 7  -7325793.72946  22101380.8354
  22834833.425   -11105767.604 7  -8473276.00746  22834838.0554
 02  1 30  0 24 30.0010000  0  7 08 27 13 04 20 01 24
  24571197.259    -2200186.787 5  -1558665.64045  24571202.7094
  22572191.404   -11672797.019 7  -8922126.65446  22572196.7384
  20621014.656   -19331476.952 8 -14849614.48247  20621017.6224
  20908169.203   -17516811.523 6  -8370807.48147  20908173.4464
  23739753.294     -268095.276 6    -52359.50345  23739758.8034
  22116786.799    -9520324.790 7  -7262689.15346  22116791.8524
  22822266.512   -11171805.027 7  -8524733.80846  22822272.5264
 02  1 30  0 25  0.0010000  0  7 08 27 13 04 20 01 24
  24551465.717    -2303876.954 5  -1639462.81545  24551473.4654
  22559685.800   -11738513.142 7  -8973333.99546  22559691.4504
  20626542.181   -19302429.927 8 -14826980.43547  20626545.0064
  20909884.978   -17507794.136 6  -8363780.95147  20909889.3394
  23756911.991     -177926.117 5     17902.14345  23756918.0404
  22132236.091    -9439137.541 7  -7199426.36846  22132241.1674
  22809764.924   -11237502.086 6  -8575926.25346  22809770.9374
 02  1 30  0 25 30.0010000  0  7 08 27 13 04 20 01 24
  24531736.062    -2407553.462 5  -1720249.29145  24531743.4364
  22547241.340   -11803908.748 7  -9024291.56746  22547247.1664
  20632145.130   -19272985.363 8 -14804036.61147  20632147.9194
  20911707.622   -17498216.411 6  -8356317.79647  20911711.9594
  23774101.661      -87597.746 6     88287.82345  23774107.1594
  22147724.229    -9357748.278 7  -7136006.17146  22147729.4104
  22797328.503   -11302855.467 6  -8626850.92946  22797334.3534
 02  1 30  0 26  0.0010000  0  7 08 27 13 04 20 01 24
  24512010.187    -2511214.203 5  -1801023.46845  24512019.9524
  22534858.592   -11868982.095 7  -9074998.02246  22534864.2074
  20637823.549   -19243144.912 8 -14780784.30347  20637826.5394
  20913637.042   -17488077.741 6  -8348417.53847  20913641.5194
  23791320.357        2889.378 6    158797.23845  23791324.1204
  22163250.113    -9276158.990 7  -7072430.11846  22163255.0374
  22784957.928   -11367862.834 7  -8677505.99646  22784963.7304
 02  1 30  0 26 30.0010000  0  7 08 27 13 04 20 01 24
  24492287.570    -2614854.700 5  -1881781.95245  24492295.1074
  22522537.607   -11933729.119 7  -9125450.21346  22522543.1864
  20643577.406   -19212908.251 8 -14757223.27347  20643580.3484
  20915673.447   -17477376.087 7  -8340078.58947  20915677.8664
  23808570.211       93536.723 5    229431.52945  23808575.6034
  22178814.063    -9194369.679 7  -7008698.18346  22178818.6464
  22772654.036   -11432519.931 6  -8727888.12646  22772659.8384
 02  1 30  0 27  0.0010000  0  7 08 27 13 04 20 01 24
  24472569.412    -2718473.674 5  -1962523.66745  24472577.7814
  22510278.895   -11998148.820 7  -9175647.33746  22510284.1464
  20649406.204   -19182277.430 8 -14733355.09047  20649409.1814
  20917816.897   -17466112.385 6  -8331301.68347  20917821.2464
  23825849.525      184342.589 5    300189.28845  23825853.8274
  22194415.707    -9112383.326 7  -6944812.72146  22194420.6074
  22760416.971   -11496826.006 7  -8777996.73546  22760422.8674
 02  1 30  0 27 30.0010000  0  7 08 27 13 04 20 01 24
  24452853.968    -2822071.448 4  -2043248.81045  24452862.3494
  22498082.185   -12062242.039 7  -9225590.06746  22498088.1054
  20655308.784   -19151258.248 8 -14709184.29647  20655311.7854
  20920066.690   -17454289.038 6  -8322088.69347  20920071.1094
  23843159.044      275303.483 5    371067.87845  23843164.2724
  22210053.746    -9030204.625 7  -6880777.37846  22210058.3884
  22748246.705   -11560780.974 7  -8827831.75246  22748252.4144
 02  1 30  0 28  0.0010000  0  7 08 27 13 04 20 01 24
  24433145.209    -2925642.128 5  -2123952.93145  24433153.4854
  22485948.924   -12126003.342 7  -9275274.15946  22485954.1404
  20661286.046   -19119848.392 8 -14684709.07447  20661288.9414
  20922423.931   -17441902.103 6  -8312436.53947  20922428.4214
  23860498.199      366422.454 5    442069.63845  23860503.6384
  22225728.541    -8947832.071 7  -6816590.98946  22225733.6174
  22736144.384   -11624379.512 7  -8877389.04246  22736149.7644
 02  1 30  0 28 30.0010000  0  7 08 27 13 04 20 01 24
  24413442.524    -3029182.482 5  -2204633.43745  24413449.1584
  22473878.958   -12189430.045 7  -9324697.52446  22473884.7844
  20667337.519   -19088047.859 8 -14659929.43047  20667340.4384
  20924888.555   -17428950.804 6  -8302344.62647  20924893.1744
  23877867.785      457699.934 5    513194.86745  23877873.6464
  22241440.094    -8865266.862 7  -6752254.47146  22241444.9594
  22724110.825   -11687618.242 7  -8926665.95546  22724115.9244
 02  1 30  0 29  0.0010000  0  7 08 27 13 04 20 01 24
  24393745.823    -3132689.790 5  -2285288.18745  24393752.5754
  22461873.333   -12252519.908 7  -9373858.40846  22461878.7954
  20673462.937   -19055858.611 7 -14634846.90347  20673465.6684
  20927460.564   -17415434.670 7  -8291812.58447  20927465.2064
  23895267.301      549135.494 5    584443.28345  23895272.2364
  22257188.274    -8782510.621 7  -6687769.09546  22257193.1974
  22712145.437   -11750494.899 7  -8975660.72846  22712151.0994
 02  1 30  0 29 30.0010000  0  7 08 27 13 04 20 01 24
  24374054.736    -3236163.199 5  -2365916.53245  24374061.8394
  22449931.816   -12315272.773 7  -9422756.71046  22449937.8764
  20679661.813   -19023283.585 7 -14609463.75347  20679664.8024
  20930139.707   -17401355.352 6  -8280841.69247  20930144.4074
  23912696.820      640727.001 5    655813.24345  23912702.2244
  22272972.093    -8699567.085 7  -6623137.77446  22272976.9344
  22700249.537   -11813009.098 7  -9024373.06846  22700254.9654
 02  1 30  0 30  0.0010000  0  7 08 27 13 04 20 01 24
  24354371.768    -3339598.801 5  -2446515.37245  24354379.5874
  22438055.111   -12377685.199 7  -9471389.72546  22438061.0314
  20685933.895   -18990323.354 7 -14583780.45247  20685936.6504
  20932926.538   -17386710.991 7  -8269430.51147  20932930.9344
  23930156.297      732475.315 5    727305.38845  23930161.1504
  22288791.054    -8616436.488 7  -6558360.69246  22288795.7784
  22688423.247   -11875156.444 7  -9072799.55246  22688428.6984
 02  1 30  0 30 30.0010000  0  7 08 27 13 04 20 01 24
  24334694.640    -3442997.232 5  -2527085.27945  24334703.0924
  22426243.165   -12439758.176 7  -9519758.24346  22426248.9914
  20692278.696   -18956981.594 7 -14557799.87347  20692281.2174
  20935820.133   -17371504.531 6  -8257581.32947  20935824.7524
  23947644.750      824377.025 6    798917.08445  23947650.0954
  22304645.079    -8533123.898 7  -6493441.80546  22304649.7324
  22676666.450   -11936937.878 7  -9120940.91646  22676672.1354
 02  1 30  0 31  0.0010000  0  7 08 27 13 04 20 01 24
  24315026.985    -3546351.989 5  -2607621.18545  24315032.5884
  22414496.647   -12501485.832 7  -9567857.66946  22414502.4034
  20698696.455   -18923256.283 8 -14531520.41647  20698699.2334
  20938821.645   -17355732.055 7  -8245291.09647  20938826.1584
  23965162.565      916435.302 5    870650.77645  23965167.9224
  22320533.795    -8449627.220 7  -6428379.46446  22320538.2154
  22664980.737   -11998347.414 7  -9168792.49246  22664986.3754
 02  1 30  0 31 30.0010000  0  7 08 27 13 04 20 01 24
  24295367.479    -3649660.535 5  -2688121.08045  24295374.9004
  22402816.464   -12562866.172 7  -9615686.46346  22402822.2204
  20705186.564   -18889150.297 7 -14504944.31047  20705189.5884
  20941930.827   -17339393.186 6  -8232559.52347  20941935.0704
  23982710.811     1008649.915 5    942506.29745  23982716.3564
  22336457.600    -8365948.169 7  -6363175.00546  22336462.2064
  22653366.237   -12059382.735 7  -9216352.46446  22653371.8764
 02  1 30  0 32  0.0010000  0  7 08 27 13 04 20 01 24
  24275717.644    -3752921.802 5  -2768584.20745  24275724.2094
  22391202.020   -12623898.548 7  -9663244.14146  22391208.0334
  20711749.023   -18854665.456 7 -14478072.99247  20711751.7194
  20945147.570   -17322489.164 6  -8219387.56647  20945151.5324
  24000287.479     1101018.909 5   1014482.10245  24000292.1804
  22352415.119    -8282089.995 7  -6297830.99246  22352419.8904
  22641822.799   -12120043.043 7  -9263620.22246  22641828.2624
 02  1 30  0 32 30.0010000  0  7 08 27 13 04 20 01 24
  24256076.533    -3856135.267 5  -2849010.06945  24256083.9184
  22379654.422   -12684583.179 7  -9710530.82846  22379660.3774
  20718382.594   -18819804.326 6 -14450908.46547  20718385.1024
  20948471.491   -17305022.102 6  -8205776.86847  20948475.4534
  24017894.101     1193539.715 5   1086576.15245  24017901.0054
  22368406.202    -8198056.675 7  -6232350.49946  22368411.2074
  22630350.926   -12180327.777 7  -9310595.32146  22630356.6934
 02  1 30  0 33  0.0010000  0  7 08 27 13 04 20 01 24
  24236446.174    -3959296.076 5  -2929394.89445  24236453.4894
  22368173.395   -12744915.582 7  -9757543.05846  22368178.8234
  20725087.825   -18784568.341 6 -14423451.85847  20725090.4864
  20951903.098   -17286989.543 6  -8191725.53647  20951907.1894
  24035529.149     1286214.388 5   1158790.16345  24035534.9524
  22384430.494    -8113847.507 7  -6166732.97546  22384435.3594
  22618951.382   -12240232.321 7  -9357274.16946  22618956.8334
 02  1 30  0 33 30.0010000  0  7 08 27 13 04 20 01 24
  24216824.841    -4062401.627 5  -3009736.61645  24216832.0974
  22356760.000   -12804893.898 7  -9804279.36746  22356765.6854
  20731864.438   -18748957.136 6 -14395702.86147  20731867.1464
  20955442.165   -17268391.071 6  -8177233.22647  20955446.4554
  24053193.597     1379042.210 5   1231123.46145  24053199.7394
  22400488.297    -8029464.318 7  -6100979.84246  22400493.0104
  22607624.755   -12299754.549 7  -9403655.11546  22607630.3114
 02  1 30  0 34  0.0010000  0  7 08 27 13 04 20 01 24
  24197215.460    -4165448.559 5  -3090032.70945  24197222.2944
  22345414.197   -12864515.507 7  -9850737.71946  22345420.1414
  20738712.064   -18712972.311 7 -14367662.74147  20738714.8314
  20959089.042   -17249226.401 6  -8162299.72647  20959093.2384
  24070887.906     1472023.262 5   1303576.21845  24070892.6184
  22416578.793    -7944908.200 7  -6035091.96446  22416583.5294
  22596371.438   -12358891.380 7  -9449735.74946  22596376.9004
 02  1 30  0 34 30.0010000  0  7 08 27 13 04 20 01 24
  24177618.104    -4268433.570 5  -3170280.49145  24177624.0124
  22334137.042   -12923777.738 7  -9896916.04346  22334142.6924
  20745630.553   -18676615.609 7 -14339332.83647  20745633.3084
  20962844.119   -17229494.438 6  -8146924.18347  20962848.4454
  24088610.724     1565158.179 5   1376148.80445  24088616.4214
  22432702.103    -7860180.130 7  -5969070.10646  22432707.1444
  22585191.778   -12417639.694 7  -9495513.64046  22585197.4874
 02  1 30  0 35  0.0010000  0  7 08 27 13 04 20 01 24
  24158032.175    -4371357.200 5  -3250480.50045  24158038.2474
  22322927.986   -12982681.687 7  -9942815.20246  22322933.4484
  20752618.851   -18639890.699 8 -14310716.01647  20752621.8994
  20966706.216   -17209198.330 6  -8131109.03947  20966710.4954
  24106362.257     1658443.351 6   1448838.51545  24106367.2624
  22448856.848    -7775284.882 7  -5902917.99046  22448861.8304
  22574086.350   -12476000.320 7  -9540989.44046  22574092.0474
 02  1 30  0 35 30.0010000  0  7 08 27 13 04 20 01 24
  24138459.172    -4474213.846 5  -3330628.35245  24138464.8694
  22311788.064   -13041222.558 7  -9988431.43246  22311793.3394
  20759677.780   -18602795.856 8 -14281810.94047  20759680.7924
  20970676.339   -17188334.976 6  -8114851.88847  20970680.5944
  24124142.969     1751881.323 5   1521647.28945  24124147.5064
  22465043.968    -7690221.229 7  -5836634.63946  22465048.5864
  22563055.266   -12533968.274 7  -9586159.25546  22563060.9284
 02  1 30  0 36  0.0010000  0  7 08 27 13 04 20 01 24
  24118899.177    -4577001.438 5  -3410722.37845  24118904.8744
  22300717.484   -13099399.083 7 -10033763.75146  22300723.1344
  20766806.594   -18565333.464 8 -14252619.46147  20766809.5724
  20974754.099   -17166905.262 6  -8098153.41647  20974758.4954
  24141952.767     1845471.014 5   1594574.24845  24141958.1134
  22481262.678    -7604991.663 7  -5770222.01046  22481267.4964
  22552099.341   -12591541.700 7  -9631021.65246  22552104.8624
 02  1 30  0 36 30.0010000  0  7 08 27 13 04 20 01 24
  24099352.950    -4679718.135 5  -3490761.16245  24099358.8004
  22289716.240   -13157209.802 7 -10078811.02046  22289721.8794
  20774005.041   -18527505.558 8 -14223143.17347  20774008.1714
  20978939.942   -17144909.622 6  -8081013.96747  20978944.3034
  24159790.936     1939211.392 5   1667618.66545  24159796.0244
  22497512.705    -7519598.345 7  -5703681.78646  22497517.5944
  22541218.908   -12648718.549 7  -9675575.03346  22541224.4654
 02  1 30  0 37  0.0010000  0  7 08 27 13 04 20 01 24
  24079820.348    -4782361.583 5  -3570742.89845  24079826.0224
  22278785.001   -13214653.150 7 -10123572.04346  22278790.6874
  20781272.632   -18489314.364 8 -14193383.78847  20781275.5164
  20983233.175   -17122348.364 6  -8063433.76947  20983237.5594
  24177657.786     2033101.410 5   1740779.68345  24177663.2724
  22513793.388    -7434043.429 7  -5637015.63046  22513798.3234
  22530414.320   -12705496.879 7  -9719817.86446  22530420.0174
 02  1 30  0 37 30.0010000  0  7 08 27 13 04 20 01 24
  24060303.016    -4884927.522 5  -3650664.22845  24060309.9914
  22267924.577   -13271725.545 7 -10168044.00546  22267930.2624
  20788609.297   -18450759.854 7 -14163341.31447  20788612.1344
  20987634.308   -17099220.150 6  -8045411.80147  20987638.6694
  24195553.221     2127142.438 5   1814058.35445  24195558.5424
  22530104.425    -7348326.875 7  -5570223.51946  22530109.5954
  22519686.338   -12761873.027 7  -9763747.31846  22519691.8134
 02  1 30  0 38  0.0010000  0  7 08 27 13 04 20 01 24
  24040799.893    -4987415.414 5  -3730524.72145  24040806.3524
  22257134.678   -13328427.347 7 -10212227.20046  22257139.8134
  20796014.243   -18411845.724 8 -14133018.61747  20796017.2444
  20992143.109   -17075526.856 6  -8026949.50847  20992147.3764
  24213476.662     2221331.900 5   1887452.69545  24213482.0664
  22546445.829    -7262452.527 7  -5503308.46546  22546450.8584
  22509034.651   -12817846.425 7  -9807362.93746  22509040.5714
 02  1 30  0 38 30.0010000  0  7 08 27 13 04 20 01 24
  24021312.681    -5089821.589 5  -3810321.58445  24021320.4414
  22246415.646   -13384755.707 7 -10256119.40746  22246421.2374
  20803488.029   -18372571.402 7 -14102415.25747  20803490.9474
  20996759.313   -17051267.829 7  -8008046.38247  20996763.9434
  24231427.975     2315670.132 5   1960962.92145  24231434.7974
  22562817.143    -7176420.978 7  -5436270.90646  22562822.2774
  22498460.824   -12873414.101 7  -9850662.41746  22498466.2744
 02  1 30  0 39  0.0010000  0  7 08 27 13 04 20 01 24
  24001840.978    -5192143.087 5  -3890052.44845  24001848.0584
  22235768.341   -13440708.334 7 -10299718.83046  22235773.9094
  20811029.782   -18332939.359 6 -14071533.13547  20811032.4674
  21001483.292   -17026442.753 7  -7988702.18547  21001488.0164
  24249408.717     2410157.386 5   2034589.28145  24249413.4414
  22579218.396    -7090233.457 7  -5369111.80746  22579223.2964
  22487964.401   -12928573.407 7  -9893643.68046  22487969.4774
 02  1 30  0 39 30.0010000  0  7 08 27 13 04 20 01 24
  23982386.279    -5294377.934 6  -3969715.82945  23982391.9174
  22225192.608   -13496283.921 7 -10343024.46946  22225197.8714
  20818639.206   -18292951.930 7 -14040374.09847  20818641.9964
  21006314.909   -17001052.452 6  -7968917.55047  21006319.2704
  24267417.384     2504792.319 5   2108330.74545  24267422.4714
  22595648.404    -7003892.463 7  -5301833.13046  22595653.3864
  22477545.917   -12983322.696 7  -9936305.45146  22477551.3794
 02  1 30  0 40  0.0010000  0  7 08 27 13 04 20 01 24
  23962948.507    -5396523.261 6  -4049309.41245  23962954.4384
  22214688.843   -13551480.296 7 -10386034.60746  22214694.7624
  20826316.235   -18252609.519 6 -14008938.46247  20826319.0604
  21011254.198   -16975096.817 6  -7948692.39047  21011258.5584
  24285454.421     2599574.773 5   2182187.14245  24285460.7154
  22612107.262    -6917399.402 7  -5234435.95846  22612112.3144
  22467205.861   -13037659.922 7  -9978646.13146  22467211.4064
 02  1 30  0 40 30.0010000  0  7 08 27 13 04 20 01 24
  23943528.560    -5498575.532 6  -4128830.50345  23943534.5154
  22204257.983   -13606294.938 7 -10428747.28946  22204263.3514
  20834060.409   -18211913.668 6 -13977227.41547  20834063.0704
  21016301.115   -16948575.282 6  -7928026.26547  21016305.5344
  24303518.746     2694504.928 5   2256158.64645  24303524.3844
  22628595.113    -6830755.096 7  -5166920.92646  22628600.1304
  22456944.743   -13091581.497 7 -10020662.93746  22456950.3814
 02  1 30  0 41  0.0010000  0  7 08 27 13 04 20 01 24
  23924127.227    -5600531.216 6  -4208276.35745  23924133.2994
  22193900.164   -13660725.216 7 -10471160.45046  22193905.7434
  20841871.771   -18170864.237 6 -13945240.84747  20841874.6314
  21021455.937   -16921487.088 6  -7906918.59647  21021460.3094
  24321611.532     2789583.395 5   2330245.72545  24321616.7024
  22645111.586    -6743960.271 7  -5099288.60846  22645116.7204
  22446763.563   -13145084.303 7 -10062353.42946  22446769.2844
 02  1 30  0 41 30.0010000  0  7 08 27 13 04 20 01 24
  23904744.581    -5702386.167 6  -4287643.70245  23904750.9114
  22183616.300   -13714767.810 7 -10513271.51746  22183621.5044
  20849750.507   -18129461.503 7 -13912978.98547  20849753.3444
  21026718.604   -16893830.907 6  -7885368.33047  21026723.0944
  24339733.102     2884811.167 5   2404449.13745  24339738.4014
  22661656.771    -6657014.860 7  -5031538.95946  22661661.7884
  22436662.870   -13198164.389 7 -10103714.53046  22436668.6144
 02  1 30  0 42  0.0010000  0  7 08 27 13 04 20 01 24
  23885380.984    -5804142.498 6  -4366934.23145  23885386.9864
  22173405.563   -13768425.490 7 -10555082.65647  22173410.7094
  20857695.061   -18087711.918 6 -13880446.83747  20857697.8404
  21032088.727   -16865611.522 6  -7863379.21147  21032093.0884
  24357881.339     2980183.100 5   2478764.91345  24357885.9354
  22678229.385    -6569925.296 7  -4963676.98146  22678234.5194
  22426642.040   -13250824.432 7 -10144748.32846  22426647.4674
 02  1 30  0 42 30.0010000  0  7 08 27 13 04 20 01 24
  23866037.556    -5905791.845 6  -4446141.39545  23866044.0154
  22163269.528   -13821690.912 8 -10596588.13647  22163274.8394
  20865706.544   -18045611.301 6 -13847641.15047  20865709.4394
  21037566.697   -16836824.023 6  -7840947.41147  21037570.8944
  24376058.794     3075704.409 5   2553197.04745  24376065.4994
  22694830.083    -6482687.770 7  -4895699.68346  22694835.4524
  22416702.543   -13303056.480 7 -10185448.61146  22416707.7604
 02  1 30  0 43  0.0010000  0  7 08 27 13 04 20 01 24
  23846714.497    -6007335.651 6  -4525266.32945  23846720.8504
  22153207.840   -13874566.314 8 -10637789.72147  22153213.0564
  20873783.665   -18003165.314 7 -13814566.34347  20873786.6544
  21043152.087   -16807472.623 6  -7818076.19647  21043156.5184
  24394263.179     3171370.386 5   2627741.95045  24394271.0454
  22711458.066    -6395307.863 7  -4827611.44646  22711463.0594
  22406844.199   -13354862.402 7 -10225816.85346  22406849.6024
 02  1 30  0 43 30.0010000  0  7 08 27 13 04 20 01 24
  23827412.213    -6108769.759 6  -4604305.79145  23827418.0504
  22143220.444   -13927048.546 8 -10678684.92647  22143225.8844
  20881926.788   -17960373.952 6 -13781222.41947  20881929.6134
  21048845.015   -16777556.079 6  -7794764.61747  21048849.2944
  24412494.627     3267182.055 5   2702400.34245  24412500.7694
  22728112.848    -6307785.624 6  -4759412.30846  22728118.1354
  22397067.562   -13406238.650 7 -10265850.28146  22397073.0594
 02  1 30  0 44  0.0010000  0  7 08 27 13 04 20 01 24
  23808130.863    -6210092.700 5  -4683258.61945  23808137.3814
  22133308.480   -13979136.983 8 -10719273.28047  22133313.8614
  20890134.710   -17917240.176 7 -13747611.67647  20890137.8164
  21054645.327   -16747075.902 6  -7771013.84647  21054649.4774
  24430756.405     3363137.817 5   2777171.01445  24430759.9804
  22744794.746    -6220123.773 6  -4691104.39946  22744800.1034
  22387372.929   -13457184.256 7 -10305548.15146  22387378.8484
 02  1 30  0 44 30.0010000  0  7 08 27 13 04 20 01 24
  23788871.464    -6311300.006 5  -4762121.36145  23788878.2054
  22123471.890   -14030828.222 8 -10759552.13647  22123477.5174
  20898407.964   -17873763.430 7 -13713733.68547  20898410.8944
  21060552.869   -16716030.797 6  -7746822.86747  21060557.1944
  24449042.526     3459238.814 5   2852054.90645  24449047.3674
  22761502.790    -6132322.320 6  -4622687.70546  22761508.0894
  22377761.055   -13507694.873 7 -10344907.06246  22377766.9744
 02  1 30  0 45  0.0010000  0  7 08 27 13 04 20 01 24
  23769634.793    -6412390.479 6  -4840893.07845  23769640.9714
  22113711.048   -14082121.932 8 -10799521.23647  22113716.5814
  20906746.006   -17829947.139 7 -13679591.12247  20906748.8904
  21066567.690   -16684422.572 6  -7722193.10147  21066571.9924
  24467357.794     3555483.080 5   2927050.39545  24467363.3854
  22778236.703    -6044384.059 6  -4554164.39946  22778241.3094
  22368232.088   -13557769.993 7 -10383926.63046  22368237.9144
 02  1 30  0 45 30.0010000  0  7 08 27 13 04 20 01 24
  23750420.434    -6513361.236 6  -4919571.48145  23750426.4474
  22104026.166   -14133016.089 8 -10839178.99647  22104031.2884
  20915148.342   -17785792.520 7 -13645184.92947  20915151.3194
  21072689.491   -16652251.463 6  -7697124.71547  21072693.8864
  24485699.451     3651870.501 5   3002157.39745  24485705.5354
  22794996.398    -5956310.447 6  -4485535.63246  22795001.4864
  22358786.632   -13607407.018 7 -10422604.82046  22358791.9534
 02  1 30  0 46  0.0010000  0  7 08 27 13 04 20 01 24
  23731229.563    -6614208.851 6  -4998153.94145  23731236.0114
  22094417.824   -14183508.178 8 -10878523.46647  22094423.1234
  20923614.961   -17741300.291 8 -13610515.66047  20923617.9854
  21078918.924   -16619516.902 6  -7671617.28247  21078923.2034
  24504069.287     3748401.388 5   3077376.24845  24504072.3934
  22811782.316    -5868102.232 6  -4416801.98746  22811787.4854
  22349424.894   -13656603.208 7 -10460939.50646  22349429.9114
 02  1 30  0 46 30.0010000  0  7 08 27 13 04 20 01 24
  23712062.597    -6714931.826 6  -5076639.28245  23712068.5294
  22084886.041   -14233597.722 8 -10917554.25547  22084891.3044
  20932145.142   -17696473.224 6 -13575585.47747  20932147.8974
  21085254.931   -16586220.721 6  -7645672.22147  21085258.9874
  24522465.243     3845073.844 5   3152705.36645  24522472.1364
  22828592.511    -5779762.369 7  -4347965.73946  22828597.2354
  22340147.167   -13705357.609 7 -10498929.92946  22340152.0674
 02  1 30  0 47  0.0010000  0  7 08 27 13 04 20 01 24
  23692919.696    -6815527.561 5  -5155025.46545  23692925.9794
  22075431.393   -14283282.942 8 -10956269.98447  22075436.6444
  20940738.944   -17651312.960 7 -13540395.66447  20940741.6754
  21091697.819   -16552363.384 6  -7619289.89647  21091702.0744
  24540888.395     3941887.473 5   3228144.51045  24540896.2844
  22845427.729    -5691292.201 7  -4279027.95146  22845432.1844
  22330954.180   -13753667.962 7 -10536574.35446  22330959.4674
 02  1 30  0 47 30.0010000  0  7 08 27 13 04 20 01 24
  23673801.819    -6915990.711 5  -5233308.34845  23673807.9844
  22066054.151   -14332559.722 8 -10994667.45247  22066059.4974
  20949396.258   -17605818.365 8 -13504945.33047  20949399.2364
  21098247.736   -16517942.870 6  -7592468.73247  21098252.0614
  24559337.926     4038844.183 5   3303695.19345  24559345.3234
  22862288.132    -5602690.921 6  -4209988.01346  22862293.8414
  22321846.042   -13801529.701 7 -10573869.19846  22321851.6344
 02  1 30  0 48  0.0010000  0  7 08 27 13 04 20 01 24
  23654709.886    -7016320.293 5  -5311487.17145  23654716.4864
  22056754.701   -14381428.373 8 -11032746.89747  22056759.9994
  20958116.564   -17559993.167 7 -13469237.39247  20958119.6244
  21104904.558   -16482961.556 6  -7565210.58347  21104909.1074
  24577815.346     4135941.511 5   3379355.43745  24577822.8844
  22879172.582    -5513961.806 6  -4140848.47646  22879177.8224
  22312823.785   -13848942.589 7 -10610814.29346  22312829.6224
 02  1 30  0 48 30.0010000  0  7 08 27 13 04 20 01 24
  23635643.507    -7116515.341 6  -5389561.12845  23635649.2394
  22047533.216   -14429888.446 8 -11070507.98047  22047538.7844
  20966899.207   -17513839.970 7 -13433273.86747  20966902.0794
  21111667.554   -16447421.332 6  -7537516.91847  21111672.0324
  24596319.341     4233177.873 5   3455123.92945  24596324.3114
  22896081.335    -5425107.598 6  -4071611.45046  22896086.5054
  22303887.027   -13895905.438 7 -10647408.70846  22303892.7594
 02  1 30  0 49  0.0010000  0  7 08 27 13 04 20 01 24
  23616603.533    -7216570.927 6  -5467526.46145  23616609.0074
  22038389.761   -14477936.427 8 -11107947.93847  22038394.9544
  20975744.408   -17467358.510 7 -13397054.56047  20975747.2804
  21118537.511   -16411320.686 6  -7509386.56247  21118541.8484
  24614849.060     4330554.529 5   3531001.75645  24614857.2304
  22913013.677    -5336128.006 7  -4002276.71646  22913018.2844
  22295036.537   -13942414.507 7 -10683649.53646  22295041.8004
 02  1 30  0 49 30.0010000  0  7 08 27 13 04 20 01 24
  23597590.584    -7316485.512 6  -5545381.92246  23597596.5984
  22029325.077   -14525571.648 8 -11145066.26947  22029329.8954
  20984651.589   -17420551.326 6 -13360581.43247  20984654.5074
  21125513.463   -16374661.150 6  -7480820.70347  21125517.7884
  24633405.443     4428070.179 5   3606987.93545  24633411.7854
  22929969.008    -5247025.445 6  -3932846.15346  22929974.3304
  22286272.769   -13988468.455 7 -10719535.71946  22286278.5244
 02  1 30  0 50  0.0010000  0  7 08 27 13 04 20 01 24
  23578605.046    -7416254.675 6  -5623124.06146  23578611.0724
  22020339.507   -14572790.831 8 -11181860.42047  22020344.9694
  20993620.474   -17373418.272 7 -13323854.37747  20993623.6754
  21132596.260   -16337441.803 6  -7451818.62647  21132600.5854
  24651989.089     4525725.854 5   3683083.25345  24651996.0284
  22946948.184    -5157799.721 7  -3863319.63046  22946953.4354
  22277596.332   -14034063.555 7 -10755064.35346  22277601.7004
 02  1 30  0 50 30.0010000  0  7 08 27 13 04 20 01 24
  23559647.520    -7515875.938 6  -5700750.99546  23559653.1934
  22011433.415   -14619592.471 8 -11218329.20047  22011438.8664
  21002651.305   -17325961.153 7 -13286874.81447  21002654.4824
  21139785.167   -16299663.378 6  -7422380.91047  21139789.6334
  24670599.036     4623521.021 5   3759287.23245  24670605.3314
  22963950.673    -5068452.420 6  -3793698.35546  22963955.2804
  22269007.407   -14079198.035 7 -10790234.06446  22269013.1044
 02  1 30  0 51  0.0010000  0  7 08 27 13 04 20 01 24
  23540718.746    -7615348.425 6  -5778261.98846  23540725.2404
  22002606.917   -14665977.024 8 -11254472.98747  22002611.8414
  21011743.186   -17278183.407 7 -13249645.40047  21011746.1634
  21147080.096   -16261328.597 6  -7392509.67147  21147084.5384
  24689234.757     4721453.236 5   3835598.00645  24689240.1964
  22980974.812    -4978987.070 6  -3723985.11946  22980979.7004
  22260506.417   -14123871.661 7 -10825044.67946  22260512.2434
 02  1 30  0 51 30.0010000  0  7 08 27 13 04 20 01 24
  23521818.663    -7714668.565 6  -5855654.20746  23521824.8644
  21993860.134   -14711941.800 8 -11290289.66447  21993865.5504
  21020895.884   -17230085.594 6 -13212166.57747  21020898.9554
  21154480.976   -16222436.941 6  -7362204.49947  21154485.4894
  24707896.706     4819522.601 5   3912015.65145  24707902.1924
  22998021.983    -4889404.008 6  -3654180.15646  22998027.2344
  22252093.651   -14168081.621 7 -10859493.98946  22252099.1484
 02  1 30  0 52  0.0010000  0  7 08 27 13 04 20 01 24
  23502948.325    -7813832.199 6  -5932924.49146  23502954.2914
  21985193.539   -14757484.070 8 -11325777.13147  21985198.8144
  21030109.390   -17181667.960 6 -13174438.55547  21030112.3674
  21161987.810   -16182988.045 6  -7331465.12047  21161992.2874
  24726584.563     4917729.851 5   3988540.76345  24726589.8734
  23015091.445    -4799703.431 6  -3584283.61146  23015096.5794
  22243769.523   -14211824.178 7 -10893579.09046  22243774.9274
 02  1 30  0 52 30.0010000  0  7 08 27 13 04 20 01 24
  23484107.305    -7912840.159 6  -6010073.50746  23484113.3424
  21976607.072   -14802605.539 8 -11360936.68947  21976612.0314
  21039382.928   -17132935.571 6 -13136465.26147  21039386.0224
  21169600.244   -16142985.644 6  -7300294.43447  21169604.5464
  24745298.318     5016071.425 5   4065170.50645  24745304.6834
  23032182.583    -4709890.232 6  -3514299.31646  23032187.2134
  22235534.324   -14255100.799 7 -10927301.12346  22235539.4934
 02  1 30  0 53  0.0010000  0  7 08 27 13 04 20 01 24
  23465297.542    -8011686.215 6  -6087096.32746  23465303.8134
  21968101.893   -14847301.141 8 -11395764.41147  21968106.7584
  21048716.608   -17083886.315 6 -13098245.06347  21048719.4804
  21177318.115   -16102426.970 6  -7268690.29547  21177322.6394
  24764038.830     5114550.212 5   4141907.23445  24764043.9884
  23049294.978    -4619962.341 6  -3444225.64346  23049300.4764
  22227389.001   -14297905.674 7 -10960655.56346  22227394.3694
 02  1 30  0 53 30.0010000  0  7 08 27 13 04 20 01 24
  23446519.140    -8110368.809 6  -6163991.77046  23446525.7274
  21959677.718   -14891570.714 8 -11430260.15147  21959683.0634
  21058110.221   -17034523.170 6 -13059780.27447  21058113.0694
  21185141.540   -16061314.281 6  -7236654.45547  21185145.9714
  24782804.175     5213164.337 5   4218749.38045  24782811.2794
  23066429.130    -4529922.487 6  -3374064.74746  23066434.4874
  22219333.051   -14340238.437 7 -10993642.12146  22219338.5484
 02  1 30  0 54  0.0010000  0  7 08 27 13 04 20 01 24
  23427772.432    -8208882.243 6  -6240755.44646  23427777.7424
  21951335.314   -14935409.624 8 -11464420.31647  21951341.0114
  21067563.672   -16984844.589 6 -13021069.70147  21067566.6614
  21193070.940   -16019645.176 6  -7204185.04747  21193075.2664
  24801596.646     5311916.538 5   4295699.08945  24801600.3624
  23083585.221    -4439768.840 6  -3303815.16346  23083590.2854
  22211368.358   -14382093.780 7 -11026256.67146  22211374.1024
 02  1 30  0 54 30.0010000  0  7 08 27 13 04 20 01 24
  23409057.781    -8307228.202 6  -6317388.58646  23409063.9824
  21943074.457   -14978820.814 8 -11498247.19047  21943079.8614
  21077076.283   -16934856.280 6 -12982117.77947  21077079.2494
  21201105.180   -15977424.776 6  -7171286.05347  21201109.7644
  24820414.141     5410801.570 5   4372752.34345  24820418.1384
  23100761.184    -4349507.438 6  -3233481.63046  23100766.1074
  22203493.833   -14423474.476 7 -11058501.36546  22203499.2024
 02  1 30  0 55  0.0010000  0  8 08 10 27 13 04 20 01 24
  23390374.679    -8405406.961 6  -6393891.43446  23390381.0324
  25022884.060      -29783.45915
  21934894.669   -15021805.588 8 -11531741.79147  21934900.0494
  21086646.592   -16884562.861 6 -12942928.09747  21086649.4054
  21209243.703   -15934656.915 6  -7137960.46347  21209248.4044
  24839255.227     5509816.120 5   4449906.51145  24839260.5024
  23117956.989    -4259142.570 6  -3163067.44246  23117962.5214
  22195709.647   -14464380.770 7 -11090376.39846  22195715.3554
 02  1 30  0 55 30.0010000  0  8 08 10 27 13 04 20 01 24
  23371724.623    -8503414.141 6  -6470260.59646  23371730.2034
  25007425.286     -111019.350 5
  21926796.752   -15064360.925 8 -11564901.77447  21926801.8284
  21096275.259   -16833964.368 6 -12903500.71347  21096278.2954
  21217486.651   -15891340.698 6  -7104207.59247  21217491.2114
  24858121.766     5608961.229 5   4527162.36145  24858131.4484
  23135172.600    -4168673.865 6  -3092572.38046  23135177.9454
  22188016.337   -14504809.580 7 -11121879.35946  22188022.0934
 02  1 30  0 56  0.0010000  0  8 08 10 27 13 04 20 01 24
  23353108.121    -8601245.508 6  -6546492.77746  23353114.0764
  24991966.335     -192257.575 5    -25318.99555  24991971.2354
  21918780.935   -15106484.016 8 -11597724.93347  21918785.9054
  21105961.970   -16783060.746 6 -12863835.55447  21105964.7364
  21225833.753   -15847475.541 6  -7070026.96847  21225838.2434
  24877013.913     5708237.706 5   4604520.62345  24877018.8254
  23152408.107    -4078101.315 6  -3021996.37546  23152413.5814
  22180414.858   -14544756.953 7 -11153007.17646  22180420.2624
 02  1 30  0 56 30.0010000  0  8 08 10 27 13 04 20 01 24
  23334525.166    -8698898.916 6  -6622586.27846  23334531.4494
  24976506.410     -273497.604 5    -88622.86745  24976511.3454
  21910847.668   -15148173.932 8 -11630210.55747  21910852.9084
  21115706.218   -16731854.138 6 -12823934.29947  21115709.0784
  21234285.162   -15803063.108 6  -7035419.89147  21234289.7924
  24895930.262     5807644.659 5   4681980.58545  24895937.5534
  23169663.104    -3987426.726 6  -2951340.86746  23169668.5554
  22172904.666   -14584221.996 7 -11183759.15446  22172909.6714
 02  1 30  0 57  0.0010000  0  8 08 10 27 13 04 20 01 24
  23315976.875    -8796369.249 6  -6698537.12246  23315982.7714
  24961047.698     -354736.580 5   -151925.93045  24961053.3254
  21902997.459   -15189427.010 8 -11662355.78447  21903002.9444
  21125508.290   -16680343.723 6 -12783796.32047  21125511.2444
  21242841.031   -15758101.660 6  -7000385.01547  21242845.4274
  24914872.808     5907183.622 5   4759543.39545  24914883.9204
  23186937.374    -3896649.136 6  -2880605.09546  23186942.1804
  22165487.460   -14623200.214 7 -11214131.78846  22165492.9814
 02  1 30  0 57 30.0010000  0  8 08 10 27 13 04 20 01 24
  23297464.574    -8893655.125 6  -6774344.24146  23297470.6114
  24945587.982     -435974.652 5   -215228.25945  24945594.4764
  21895230.533   -15230242.898 8 -11694160.34647  21895235.8444
