     2.11           OBSERVATION DATA    G (GPS)             RINEX VERSION / TYPE
teqc  2008Feb15                         20080527 23:11:07UTCPGM / RUN BY / DATE
MSXP|IAx86-PII|bcc32 5.0|MSWin95->XP|486/DX+                COMMENT
BIT 2 OF LLI FLAGS DATA COLLECTED UNDER A/S CONDITION       COMMENT
SFER                                                        MARKER NAME
13402M004                                                   MARKER NUMBER
JGP                 ROA                                     OBSERVER / AGENCY
4724134757          TRIMBLE NETRS       1.20                REC # / TYPE / VERS
0220073543          TRM29659.00     NONE                    ANT # / TYPE
  5105519.2760  -555146.1198  3769807.0394                  APPROX POSITION XYZ
        1.6260        0.0000        0.0000                  ANTENNA: DELTA H/E/N
     1     1                                                WAVELENGTH FACT L1/2
     7    L1    C1    P2    S1    S2    L2    C2            # / TYPES OF OBSERV
    30.0000                                                 INTERVAL
Forced Modulo Decimation to 30 seconds                      COMMENT
 SNR is mapped to RINEX snr flag value [0-9]                COMMENT
  L1 & L2: min(max(int(snr_dBHz/6), 0), 9)                  COMMENT
  2008     5    27     0     0    0.0000000     GPS         TIME OF FIRST OBS
                                                            END OF HEADER
 08  5 27  0  0  0.0000000  0 10G31G21G23G16G24G30G 6G29G18G 3
 -22807283.68758  21333444.1254   21333439.2344         48.2504         41.2504
 -17504026.92656
 -24781163.71558  20990185.0864   20990179.4924         48.5004         41.2504
 -16519561.60956
  -2798549.02316  25007157.266                          36.500

 -22488549.71958  21284058.6884   21284053.0554         49.5004         39.5004
 -16107469.96956
 -13818165.64857  22717572.2894   22717568.8874         45.7504         30.2504
  -8402721.03555
  -7790345.13356  24235867.4694   24235863.9064         36.5004         20.5004
  -5459946.92253
 -20073887.40257  21735393.5864   21735389.3164         47.5004         36.0004
 -13728112.14156
 -10459639.81657  23301929.2114   23301924.7234         43.5004         29.0004
  -8831240.86354
  -4107709.93456  24909042.2974   24909039.3754         37.0004         16.2504
   -870178.59452
 -11626109.87556  23171446.4224   23171441.9844         40.5004         25.5004
  -6472883.46154
 08  5 27  0  0 30.0000000  0 10G31G21G23G16G24G30G 6G29G18G 3
 -22743500.25448  21345582.0164   21345576.7894         49.2504         40.7504
 -17454325.55546
 -24786305.36348  20989206.5784   20989200.9844         49.7504         41.2504
 -16523568.07846
  -2768073.16046  25012957.6254   25012951.6054         36.7504         18.5004
  -1260121.59453
 -22544283.98048  21273452.8284   21273447.2894         50.0004         40.0004
 -16150899.25446
 -13740655.55947  22732322.1024   22732318.6604         45.7504         29.5004
  -8342323.54344
  -7697922.80145  24253455.2034   24253451.2304         35.7504         19.0004
  -5387929.53943
 -20122559.38748  21726131.5004   21726127.2814         48.0004         36.2504
 -13766038.35246
 -10380331.70747  23317020.7584   23317016.8014         43.5004         29.5004
  -8769442.32844
  -4180421.76646  24895206.6094   24895201.8954         36.2504         15.5004
   -926837.20342
 -11705890.10246  23156264.2584   23156260.8164         40.5004         24.5004
  -6535049.80944
 08  5 27  0  1  0.0000000  0 10G31G21G23G16G24G30G 6G29G18G 3
 -22679264.76648  21357805.5164   21357800.2704         49.5004         40.7504
 -17404271.93446
 -24790935.46548  20988325.3204   20988320.1374         49.0004         41.5004
 -16527175.93046
  -2737172.85245  25018835.7114   25018831.0634         32.0004         16.2504
  -1236043.39842
 -22599817.68748  21262885.2664   21262879.6644         49.7504         40.0004
 -16194172.26246
 -13662768.25447  22747143.2344   22747139.7774         43.7504         30.2504
  -8281632.14545
  -7605355.28945  24271069.4304   24271065.9694         35.5004         19.0004
  -5315798.98843
 -20171002.95347  21716913.4844   21716908.7194         47.2504         36.2504
 -13803786.57046
 -10300993.80947  23332118.3674   23332115.0864         42.5004         29.0004
  -8707620.60944
  -4253119.99246  24881373.2894   24881367.9224         36.7504         16.7504
   -983485.32042
 -11785500.97746  23141114.5554   23141110.9884         40.7504         26.0004
  -6597084.23844
 08  5 27  0  1 30.0000000  0 10G31G21G23G16G24G30G 6G29G18G 3
 -22614579.71948  21370114.6884   21370109.9414         49.7504         40.7504
 -17353868.00046
 -24795054.34448  20987541.5474   20987536.1414         48.7504         41.2504
 -16530385.43046
  -2705849.99645  25024797.0084   25024791.7384         34.7504         18.2504
  -1211635.97743
 -22655149.64148  21252355.6724   21252350.0164         50.0004         39.7504
 -16237288.06646
 -13584506.33647  22762035.8754   22762032.7974         45.2504         29.7504
  -8220648.80544
  -7512643.54345  24288712.5944   24288708.3554         35.5004         20.0004
  -5243556.07843
 -20219218.42248  21707737.9304   21707733.5594         48.0004         35.7504
 -13841357.04745
 -10221627.43747  23347221.0394   23347217.1054         42.7504         29.5004
  -8645776.70344
  -4325801.93746  24867541.3204   24867537.6684         37.5004         16.7504
  -1040120.57442
 -11864942.61346  23125997.3284   23125993.2854         41.5004         24.5004
  -6658986.79344
 08  5 27  0  2  0.0000000  0 10G31G21G23G16G24G30G 6G29G18G 3
 -22549446.62948  21382509.1254   21382503.9654         50.0004         41.0004
 -17303114.94946
 -24798662.10947  20986854.9304   20986849.2814         47.5004         41.0004
 -16533196.66846
  -2674107.19545  25030837.6174   25030831.8834         34.2504         17.2504
  -1186901.25842
 -22710277.89548  21241865.0784   21241859.4534         50.0004         39.7504
 -16280245.13746
 -13505871.96547  22776999.6024   22776996.1254         45.0004         29.7504
  -8159375.28144
  -7419787.82445  24306381.7664   24306378.9884         35.2504         19.5004
  -5171200.98043
 -20267205.72748  21698606.4144   21698602.1374         48.0004         35.7504
 -13878749.73845
 -10142233.62747  23362329.6414   23362325.2584         42.5004         28.5004
  -8583911.40244
  -4398464.55945  24853713.5314   24853710.1684         35.2504         17.2504
  -1096740.85942
 -11944213.93746  23110912.1954   23110908.8914         40.5004         24.0004
  -6720756.62144
 08  5 27  0  2 30.0000000  0 10G31G21G23G16G24G30G 6G29G18G 3
 -22483868.07848  21394988.0004   21394983.2074         48.7504         40.7504
 -17252014.78146
 -24801759.26247  20986265.7734   20986259.9774         46.5004         41.5004
 -16535610.02046
  -2641946.78545  25036956.5164   25036951.6684         34.5004         18.2504
  -1161841.26643
 -22765201.24248  21231413.6414   21231407.8134         49.7504         40.0004
 -16323042.53946
 -13426868.35547  22792033.5004   22792030.3754         45.0004         30.0004
  -8097814.01245
  -7326789.27045  24324079.6024   24324075.8444         34.7504         19.2504
  -5098734.60243
 -20314965.26248  21689518.0634   21689513.6414         48.5004         36.5004
 -13915964.93746
 -10062812.53147  23377442.7894   23377439.1454         43.0004         30.0004
  -8522024.85245
  -4471105.61746  24839891.0554   24839887.7234         36.5004         17.2504
  -1153344.23442
 -12023315.26246  23095860.4144   23095856.2154         41.2504         24.5004
  -6782393.99244
 08  5 27  0  3  0.0000000  0 11G31G21G23G16G24G30G 6G29G18G 3G19
 -22417846.06648  21407552.1024   21407546.7814         49.0004         40.7504
 -17200569.07046
 -24804345.96547  20985773.4614   20985767.8674         46.5004         41.0004
 -16537625.61746
  -2609370.63745  25043157.1564   25043152.4494         33.5004         18.2504
  -1136457.28543
 -22819918.23848  21221001.1174   21220995.3914         49.5004         40.5004
 -16365679.15246
 -13347497.76247  22807137.4384   22807133.9844         44.7504         29.2504
  -8035966.77744
  -7233648.64146  24341803.6174   24341799.8984         36.0004         19.2504
  -5026157.49243
 -20362497.31247  21680473.0164   21680468.5004         47.7504         36.5004
 -13953002.88746
  -9983365.41047  23392561.1564   23392557.2934         42.7504         28.5004
  -8460118.02044
  -4543722.06646  24826073.4064   24826069.2464         36.5004         16.7504
  -1209928.56642
 -12102246.07046  23080840.1644   23080835.7304         41.0004         24.5004
  -6843898.52344
   -176413.33254  25585066.0944   25585062.0864         26.2504         13.7504
    -84807.78952
 08  5 27  0  3 30.0000000  0 11G31G21G23G16G24G30G 6G29G18G 3G19
 -22351382.61348  21420199.1484   21420194.4804         48.5004         40.5004
 -17148779.36746
 -24806421.57447  20985378.5394   20985372.8014         46.2504         41.5004
 -16539242.96546
  -2576380.59845  25049434.8054   25049429.4774         34.0004         14.7504
  -1110750.71542
 -22874427.34048  21210628.7894   21210623.0434         49.7504         41.0004
 -16408153.77346
 -13267762.85247  22822310.4384   22822306.8284         44.0004         29.7504
  -7973835.68744
  -7140366.69945  24359554.3054   24359550.2424         34.5004         19.2504
  -4953470.25843
 -20409802.16048  21671470.7114   21671466.8794         48.0004         36.2504
 -13989863.80546
  -9903893.13747  23407684.9064   23407680.2774         42.7504         29.5004
  -8398191.59444
  -4616311.02046  24812258.9454   24812254.9454         37.0004         16.7504
  -1266491.37142
 -12181005.84046  23065853.0784   23065848.8594         41.0004         25.5004
  -6905269.75844
   -262646.90615  25568657.484                          30.750

 08  5 27  0  4  0.0000000  0 11G31G21G23G16G24G30G 6G29G18G 3G19
 -22284479.54347  21432930.7034   21432925.5434         47.7504         40.5004
 -17096647.10246
 -24807986.54747  20985080.6954   20985075.1994         47.0004         41.7504
 -16540462.41446
  -2542978.96946  25055791.0634   25055785.4614         36.5004         17.2504
  -1084723.45742
 -22928726.54348  21200295.7424   21200289.9534         49.2504         41.0004
 -16450464.84046
 -13187665.88747  22837552.4774   22837548.9024         44.2504         29.7504
  -7911422.45344
  -7046944.05546  24377332.5704   24377328.3954         36.5004         19.0004
  -4880673.38343
 -20456879.77747  21662512.1484   21662507.8714         47.7504         36.7504
 -14026547.64146
  -9824396.34447  23422812.3444   23422807.9024         43.0004         28.5004
  -8336246.07444
  -4688869.95346  24798452.1414   24798448.2664         36.5004         19.2504
  -1323030.80143
 -12259594.11346  23050898.1414   23050894.4494         41.0004         26.0004
  -6966507.32444
   -348778.55514  25552266.523                          29.000

 08  5 27  0  4 30.0000000  0 11G31G21G23G16G24G30G 6G29G18G 3G19
 -22217139.61747  21445744.9224   21445739.9144         47.7504         40.5004
 -17044174.44146
 -24809041.22748  20984880.1024   20984874.6134         49.5004         41.5004
 -16541284.22746
  -2509167.89545  25062223.9614   25062218.7194         32.2504         16.2504
  -1058377.09442
 -22982814.89148  21190003.0784   21189997.2194         49.0004         40.7504
 -16492611.58646
 -13107209.55547  22852862.6804   22852858.9534         43.5004         29.2504
  -7848729.20744
  -6953381.57046  24395135.9694   24395132.8674         36.0004         19.7504
  -4807767.58643
 -20503730.42648  21653597.1484   21653592.5394         48.5004         37.2504
 -14063054.61746
  -9744876.01647  23437944.2344   23437940.0164         42.2504         27.0004
  -8274282.19544
  -4761396.44146  24784651.2424   24784647.0944         37.2504         17.2504
  -1379544.94542
 -12338011.13346  23035975.0554   23035971.4064         40.7504         24.2504
  -7027611.48044
   -434807.496 5  25535896.086                          32.750

 08  5 27  0  5  0.0000000  0 11G31G21G23G16G24G30G 6G29G18G 3G19
 -22149364.89148  21458642.0004   21458636.9144         48.0004         39.7504
 -16991362.96946
 -24809585.99648  20984776.3364   20984770.7624         49.0004         41.5004
 -16541708.71546
  -2474949.40246  25068738.3914   25068730.6994         37.2504         16.7504
  -1031713.42642
 -23036690.61748  21179750.5004   21179744.8714         49.2504         40.2504
 -16534592.67246
 -13026396.44947  22868241.0864   22868238.0744         43.7504         29.0004
  -7785757.94544
  -6859680.26645  24412968.0234   24412963.2544         35.5004         19.0004
  -4734753.59843
 -20550354.28947  21644724.4924   21644720.4844         47.5004         36.7504
 -14099384.87946
  -9665332.91047  23453079.6254   23453076.1094         42.0004         26.5004
  -8212300.55944
  -4833886.87146  24770855.4844   24770852.2114         37.0004         17.2504
  -1436030.92642
 -12416255.86246  23021085.8914   23021081.8094         40.2504         25.0004
  -7088581.36844
   -520736.46115  25519544.438                          33.000

 08  5 27  0  5 30.0000000  0 11G31G21G23G16G24G30G 6G29G18G 3G19
 -22081157.24648  21471621.5864   21471616.7584         48.5004         40.2504
 -16938214.16046
 -24809621.50848  20984769.2664   20984763.8714         49.0004         41.0004
 -16541736.37946
  -2440325.98846  25075326.0314   25075319.3594         36.5004         19.7504
  -1004734.09843
 -23090352.37148  21169539.3674   21169533.7504         49.5004         41.0004
 -16576407.01646
 -12945229.11747  22883686.6094   22883683.0984         44.0004         29.2504
  -7722510.68744
  -6765840.85545  24430824.5864   24430820.3794         35.5004         19.2504
  -4661631.93043
 -20596751.59448  21635895.6024   21635891.1804         48.7504         36.7504
 -14135538.60946
  -9585767.81647  23468221.5704   23468217.8714         42.2504         28.0004
  -8150301.80544
  -4906338.84046  24757069.2274   24757064.8134         37.5004         17.2504
  -1492486.96942
 -12494328.61346  23006229.2734   23006225.4534         41.2504         26.0004
  -7149417.25044
   -606559.305 4  25503213.438                          28.000

 08  5 27  0  6  0.0000000  0 11G31G21G23G16G24G30G 6G29G18G 3G19
 -22012519.46148  21484682.8204   21484677.9024         48.0004         39.7504
 -16884730.16846
 -24809146.86348  20984859.7344   20984853.8674         49.7504         41.5004
 -16541366.51246
  -2405299.87145  25081989.4924   25081985.4734         34.2504         18.5004
   -977441.07043
 -23143798.57048  21159368.9844   21159363.4964         49.0004         40.2504
 -16618053.41046
 -12863710.16447  22899198.6414   22899195.8754         43.7504         30.2504
  -7658989.40245
  -6671863.74645  24448706.9534   24448703.7074         35.7504         19.5004
  -4588403.03143
 -20642922.81248  21627109.4924   21627105.2114         48.0004         37.0004
 -14171516.17246
  -9506181.65247  23483366.5164   23483362.6564         42.7504         28.5004
  -8088286.62944
  -4978749.89546  24743289.3754   24743285.1294         37.0004         16.7504
  -1548911.15642
 -12572229.32046  22991405.5474   22991401.6564         41.7504         26.7504
  -7210119.07844
   -692278.52715  25486899.914                          31.000

 08  5 27  0  6 30.0000000  0 11G31G21G23G16G24G30G 6G29G18G 3G19
 -21943453.13347  21497825.6094   21497820.7774         47.5004         40.2504
 -16830912.25446
 -24808162.48848  20985047.2344   20985041.3054         49.5004         41.2504
 -16540599.46146
  -2369872.77745  25088731.7344   25088727.1914         35.2504         16.2504
   -949835.35942
 -23197027.01648  21149239.5864   21149233.6644         48.7504         40.5004
 -16659530.10946
 -12781842.07447  22914778.5004   22914774.4694         43.2504         28.0004
  -7595196.07844
  -6577749.87546  24466616.6954   24466612.7194         36.5004         19.5004
  -4515067.59843
 -20688867.93048  21618366.6484   21618361.8874         48.5004         36.7504
 -14207317.53946
  -9426575.04347  23498514.7504   23498510.2814         42.0004         27.0004
  -8026255.52044
  -5051116.84846  24729518.5634   24729513.8054         37.0004         19.2504
  -1605300.95743
 -12649957.14846  22976614.7194   22976610.0904         41.0004         26.0004
  -7270686.18044
   -777893.34015  25470609.320                          32.250

 08  5 27  0  7  0.0000000  0 11G31G21G23G16G24G30G 6G29G18G 3G19
 -21873960.87147  21511049.5164   21511044.7114         47.0004         40.5004
 -16776762.44946
 -24806669.37548  20985331.2344   20985325.4964         49.0004         41.5004
 -16539435.98846
  -2334047.42246  25095548.5234   25095544.0084         36.0004         16.7504
   -921919.66842
 -23250036.67248  21139152.3444   21139146.6294         48.2504         40.7504
 -16700836.32846
 -12699627.43747  22930423.1024   22930419.5354         43.5004         29.0004
  -7531132.71144
  -6483500.43045  24484552.7424   24484547.7814         35.2504         19.0004
  -4441626.46943
 -20734587.29747  21609666.6724   21609662.0784         47.7504         37.0004
 -14242943.00846
  -9346948.81647  23513667.5004   23513663.5354         43.0004         27.7504
  -7964209.14844
  -5123437.17246  24715756.6724   24715752.0744         37.2504         14.7504
  -1661654.37542
 -12727511.85246  22961856.2974   22961852.0744         41.5004         27.0004
  -7331118.38344
   -863403.83214  25454337.430                          29.750

 08  5 27  0  7 30.0000000  0 11G31G21G23G16G24G30G 6G29G18G 3G19
 -21804045.01247  21524354.2274   21524349.1564         47.7504         39.7504
 -16722282.56246
 -24804667.57848  20985712.0704   20985706.1844         49.0004         41.7504
 -16537876.13346
  -2297825.68446  25102442.6884   25102436.6684         36.2504         16.7504
   -893694.91842
 -23302825.97348  21129107.0554   21129101.1094         48.7504         41.0004
 -16741970.84446
 -12617068.78947  22946133.0234   22946130.3014         42.5004         29.0004
  -7466801.30144
  -6389116.01245  24502512.0944   24502508.9104         35.2504         19.5004
  -4368080.11743
 -20780081.17648  21601009.2584   21601004.9184         48.7504         37.0004
 -14278392.77046
  -9267303.97747  23528822.9454   23528819.1334         42.5004         27.5004
  -7902148.26644
  -5195707.97346  24702004.0164   24701999.5084         37.7504         17.7504
  -1717969.19542
 -12804892.82446  22947130.9614   22947126.8014         41.2504         26.5004
  -7391415.20744
   -948809.91445  25438085.5394   25438078.8364         30.5004         15.5004
   -214340.79352
 08  5 27  0  8  0.0000000  0 11G31G21G23G16G24G30G 6G29G18G 3G19
 -21733707.78948  21537738.9614   21537734.1454         48.5004         40.0004
 -16667474.34846
 -24802157.67648  20986189.7504   20986184.0124         48.7504         41.7504
 -16535920.35546
  -2261210.19945  25109410.1174   25109403.8714         34.0004         17.7504
   -865163.42242
 -23355393.51648  21119103.6484   21119097.6764         49.5004         40.7504
 -16782932.56646
 -12534168.80547  22961908.7734   22961904.8714         42.7504         28.5004
  -7402203.90244
  -6294597.88346  24520497.3914   24520495.7624         36.0004         18.5004
  -4294429.62943
 -20825349.83248  21592394.7894   21592390.5554         48.2504         37.2504
 -14313667.02746
  -9187641.13347  23543982.7974   23543977.9454         42.0004         27.5004
  -7840073.34444
  -5267926.90646  24688261.5784   24688256.3714         37.5004         17.2504
  -1774243.67242
 -12882100.21147  22932438.5864   22932434.6804         42.0004         26.7504
  -7451576.77044
  -1034111.14545  25421851.8834   25421847.3164         30.5004         16.2504
   -280809.27342
 08  5 27  0  8 30.0000000  0 11G31G21G23G16G24G30G 6G29G18G 3G19
 -21662950.97748  21551203.8054   21551198.5784         48.0004         39.7504
 -16612339.16446
 -24799139.64848  20986763.8914   20986758.2384         48.2504         41.5004
 -16533568.62946
  -2224202.72746  25116452.2814   25116446.3554         38.2504         16.7504
   -836326.33642
 -23407737.25048  21109143.0004   21109137.0824         49.0004         40.5004
 -16823719.87546
 -12450929.99247  22977749.2114   22977744.9964         43.2504         29.5004
  -7337342.48444
  -6199946.39845  24538511.3984   24538507.6134         35.2504         17.2504
  -4220675.28542
 -20870393.28947  21583823.1334   21583819.0314         47.7504         36.7504
 -14348765.80546
  -9107960.69146  23559145.3594   23559141.4304         41.5004         27.0004
  -7777984.70744
  -5340090.67246  24674528.1174   24674524.5394         36.2504         17.2504
  -1830475.11342
 -12959133.69146  22917780.2504   22917775.5784         41.2504         27.0004
  -7511602.81244
  -1119306.64545  25405640.7424   25405636.1254         31.2504         14.7504
   -347195.42242
 08  5 27  0  9  0.0000000  0 11G31G21G23G16G24G30G 6G29G18G 3G19
 -21591777.50047  21564747.5084   21564742.2774         47.7504         39.7504
 -16556879.31646
 -24795613.74648  20987434.8134   20987429.3484         49.5004         41.5004
 -16530821.16846
  -2186806.08645  25123567.0554   25123562.2854         33.7504         17.2504
   -807186.15642
 -23459855.72748  21099225.3054   21099219.6334         49.2504         41.0004
 -16864331.68046
 -12367355.06647  22993652.4614   22993648.8714         43.7504         28.2504
  -7272219.16444
  -6105162.85246  24556546.9224   24556543.6484         36.5004         19.2504
  -4146817.98843
 -20915212.04347  21575294.7344   21575290.4384         47.2504         37.0004
 -14383689.50046
  -9028263.77047  23574311.1254   23574307.2424         42.2504         27.7504
  -7715883.23844
  -5412196.50446  24660807.9774   24660802.8324         37.0004         17.2504
  -1886661.39842
 -13035992.86346  22903153.5234   22903149.6254         41.0004         27.0004
  -7571493.02344
  -1204396.55145  25389448.4224   25389442.9574         30.7504         16.2504
   -413499.28542
 08  5 27  0  9 30.0000000  0 11G31G21G23G16G24G30G 6G29G18G 3G19
 -21520189.26648  21578370.1954   21578365.3204         48.0004         39.5004
 -16501096.27746
 -24791580.54348  20988202.4224   20988196.9924         49.5004         41.5004
 -16527678.40646
  -2149022.21146  25130759.1954   25130752.4494         37.2504         18.2504
   -777744.18743
 -23511747.59448  21089350.3364   21089344.5124         50.0004         40.0004
 -16904766.89846
 -12283446.50847  23009619.6254   23009615.5004         43.0004         28.2504
  -7206835.84844
  -6010247.65646  24574608.6414   24574605.5784         36.2504         19.2504
  -4072858.08243
 -20959806.20747  21566808.4224   21566804.2074         47.0004         37.5004
 -14418438.18046
  -8948551.18047  23589480.2664   23589476.1334         42.5004         26.5004
  -7653769.55144
  -5484241.93746  24647096.8674   24647092.5554         36.7504         17.2504
  -1942800.66442
 -13112677.30146  22888561.1484   22888557.3444         41.5004         27.2504
  -7631247.06244
  -1289380.20345  25373278.4534   25373271.2584         33.0004         16.2504
   -479720.32042
 08  5 27  0 10  0.0000000  0 11G31G21G23G16G24G30G 6G29G18G 3G19
 -21448188.96147  21592071.3204   21592066.5864         47.5004         39.0004
 -16444992.14846
 -24787040.47748  20989066.8444   20989060.9494         48.5004         41.7504
 -16524140.68446
  -2110853.91045  25138020.7274   25138015.8094         34.5004         18.2504
   -748002.64543
 -23563411.18448  21079519.3594   21079513.5394         49.0004         40.5004
 -16945024.23446
 -12199206.98847  23025649.4304   23025646.0314         43.0004         27.7504
  -7141194.66844
  -5915201.91046  24592695.6334   24592692.5824         36.5004         18.5004
  -3998796.52743
 -21004176.07447  21558365.1564   21558361.0474         46.5004         37.5004
 -14453012.09846
  -8868823.30947  23604651.6564   23604647.5474         42.0004         27.5004
  -7591643.96544
  -5556223.93046  24633399.5864   24633394.9224         37.0004         16.7504
  -1998890.44542
 -13189187.20746  22874002.1564   22873997.8164         41.5004         27.0004
  -7690865.13344
  -1374257.56255  25357125.2424   25357119.8834         33.5004         14.7504
   -545858.66852
 08  5 27  0 10 30.0000000  0 11G31G21G23G16G24G30G 6G29G18G 3G19
 -21375778.31248  21605850.7194   21605846.1134         48.0004         39.7504
 -16388568.27346
 -24781993.57448  20990026.6174   20990020.9964         48.7504         41.5004
 -16520208.02046
  -2072302.80146  25145358.9694   25145352.2344         38.2504         17.7504
   -717962.84042
 -23614844.86348  21069731.8914   21069726.0664         49.5004         41.0004
 -16985102.42646
 -12114638.94147  23041742.7584   23041739.0704         43.0004         28.0004
  -7075297.49244
  -5820026.36346  24610807.3834   24610803.0234         36.5004         17.7504
  -3924633.74242
 -21048321.81647  21549964.5554   21549960.4144         47.5004         37.5004
 -14487411.36746
  -8789080.98847  23619826.3054   23619822.3444         42.2504         27.5004
  -7529507.10244
  -5628139.46546  24619714.3284   24619709.9494         36.5004         18.2504
  -2054928.46943
 -13265522.10546  22859475.6884   22859471.5124         41.5004         26.7504
  -7750346.82444
  -1459028.03145  25340992.8914   25340988.7034         32.0004         16.2504
   -611913.54742
 08  5 27  0 11  0.0000000  0 11G31G21G23G16G24G30G 6G29G18G 3G19
 -21302960.43047  21619707.6094   21619702.4414         47.7504         39.5004
 -16331827.06646
 -24776441.45347  20991083.1414   20991077.3634         47.7504         41.5004
 -16515881.67646
                  25152764.6254   25152759.8204         32.5004         15.5004

 -23666047.12548  21059988.1334   21059982.6724         49.5004         41.0004
 -17025000.29346
 -12029745.39547  23057896.8444   23057893.6334         43.7504         27.0004
  -7009146.66044
  -5724721.46546  24628943.0084   24628938.8874         36.5004         18.2504
  -3850370.19543
 -21092243.85547  21541606.4774   21541602.3324         46.0004         37.7504
 -14521636.30146
  -8709325.22746  23635003.4774   23634998.3954         41.2504         27.2504
  -7467359.76644
  -5699986.27045  24606042.8754   24606038.4734         35.5004         18.2504
  -2110912.90643
 -13341681.67246  22844983.2664   22844979.2424         40.7504         27.7504
  -7809691.89844
  -1543691.45345  25324882.0474   25324877.8014         32.5004         15.5004
   -677885.10542
 08  5 27  0 11 30.0000000  0 11G31G21G23G16G24G30G 6G29G18G 3G19
 -21229737.18047  21633641.6094   21633636.1764         47.7504         39.5004
 -16274769.99646
 -24770383.25447  20992236.2814   20992230.5594         47.5004         41.0004
 -16511160.99246
  -1994062.95746  25160247.0394   25160240.1844         36.7504         17.2504
   -656996.76242
 -23717015.98448  21050289.1024   21050283.5984         49.0004         41.0004
 -17064716.28546
 -11944528.55147  23074113.6414   23074109.7584         43.2504         26.7504
  -6942743.92244
  -5629288.78946  24647102.7194   24647098.8834         36.2504         18.5004
  -3776007.00443
 -21135942.12947  21533290.9224   21533286.6414         46.5004         37.0004
 -14555686.87946
  -8629556.32646  23650182.2974   23650178.1294         41.0004         27.0004
  -7405202.18044
  -5771761.22746  24592383.0474   24592379.3954         37.5004         18.2504
  -2166841.39543
 -13417665.51247  22830523.8364   22830519.4804         42.5004         26.7504
  -7868900.05544
  -1628247.25445  25308792.7114   25308786.7774         34.2504         17.2504
   -743772.77042
 08  5 27  0 12  0.0000000  0 12G31G21G23G16G24G30G 6G29G18G 3G19G22
 -21156111.07848  21647652.2274   21647647.1844         48.0004         39.2504
 -16217399.02346
 -24763820.16048  20993484.8754   20993479.3714         48.0004         41.5004
 -16506046.88346
  -1954379.08645  25167796.6334   25167793.3204         34.2504         14.7504
   -626074.29342
 -23767750.20348  21040634.8364   21040628.9964         48.5004         41.0004
 -17104249.44546
 -11858990.96547  23090391.2894   23090387.6564         43.5004         28.0004
  -6876091.26244
  -5533728.84446  24665287.8674   24665284.2734         36.7504         19.2504
  -3701544.74243
 -21179417.12147  21525017.5474   21525013.5704         46.7504         37.0004
 -14589563.49246
  -8549775.20346  23665364.6174   23665360.8634         41.2504         25.7504
  -7343035.12144
  -5843461.83246  24578740.1724   24578735.3524         37.5004         17.7504
  -2222711.93042
 -13493472.98046  22816098.1724   22816093.9184         41.7504         27.7504
  -7927970.79344
  -1712695.37555  25292721.9694   25292716.9184         34.2504         16.7504
   -809576.48052
    -97768.93014  25496424.508                          29.000

 08  5 27  0 12 30.0000000  0 12G31G21G23G16G24G30G 6G29G18G 3G19G22
 -21082084.83647  21661738.8204   21661733.7304         47.2504         39.7504
 -16159716.24246
 -24756752.47747  20994830.3134   20994824.1134         47.7504         41.7504
 -16500539.58246
  -1914322.133 5  25175419.680                          32.750

 -23818248.27348  21031025.0314   21031019.6414         48.7504         41.2504
 -17143598.59046
 -11773135.44147  23106728.4224   23106724.9384         43.0004         28.0004
  -6809190.84444
  -5438042.52345  24683495.6954   24683492.3324         34.5004         18.2504
  -3626983.98043
 -21222669.03947  21516787.2584   21516783.3094         46.2504         37.5004
 -14623266.26246
  -8469982.62946  23680547.9224   23680544.1454         40.7504         26.7504
  -7280859.09444
  -5915085.13746  24565110.1724   24565105.5784         36.2504         17.2504
  -2278522.34442
 -13569104.46546  22801705.5314   22801701.8164         41.7504         26.7504
  -7986904.37544
  -1797035.35245  25276671.9064   25276667.8324         33.0004         15.5004
   -875296.10942
   -176885.145 5  25481368.453                          34.500

 08  5 27  0 13  0.0000000  0 12G31G21G23G16G24G30G 6G29G18G 3G19G22
 -21007660.45747  21675901.6564   21675896.5744         47.7504         38.7504
 -16101723.22346
 -24749181.43747  20996270.9144   20996265.1764         47.5004         41.0004
 -16494640.06246
  -1873894.41845  25183113.0004   25183107.5514         34.5004         16.2504
   -596990.97752
 -23868508.59848  21021461.3134   21021455.4224         50.5004         41.0004
 -17182762.47746
 -11686964.39547  23123126.0084   23123123.0554         42.5004         26.5004
  -6742044.56644
  -5342230.58646  24701728.3674   24701724.7344         36.2504         18.2504
  -3552325.28143
 -21265698.12947  21508599.0864   21508594.7304         46.5004         37.2504
 -14656795.41046
  -8390179.38346  23695734.6334   23695730.9224         41.2504         26.5004
  -7218674.77744
  -5986627.93746  24551495.6174   24551491.3444         37.0004         17.7504
  -2334269.93042
 -13644559.48047  22787346.7114   22787342.8054         42.5004         26.5004
  -8045700.47744
  -1881266.93745  25260644.6884   25260639.4184         32.7504         16.2504
   -940931.14142
   -256201.781 5  25466274.977                          33.000

 08  5 27  0 13 30.0000000  0 11G31G21G23G16G24G30G 6G29G18G 3G19
 -20932840.45348  21690139.1954   21690134.0084         48.0004         38.7504
 -16043421.93746
 -24741106.18447  20997807.2344   20997801.7974         47.7504         40.7504
 -16488347.63746
  -1833098.48845  25190876.1174   25190871.1994         34.0004         16.2504
   -565201.89542
 -23918528.96148  21011942.3524   21011936.7424         49.0004         41.2504
 -17221739.37946
 -11600480.64146  23139583.4064   23139579.5824         41.7504         27.0004
  -6674654.61344
  -5246294.05145  24719985.5004   24719981.4064         35.7504         19.2504
  -3477569.55943
 -21308504.67247  21500453.9144   21500449.3754         47.5004         38.0004
 -14690151.14846
  -8310365.70746  23710923.0944   23710918.5514         41.7504         27.0004
  -7156482.31244
  -6058087.66046  24537898.2034   24537893.0514         37.7504         18.5004
  -2389952.85543
 -13719837.72347  22773022.6884   22773018.2194         42.5004         27.5004
  -8104358.82044
  -1965389.68745  25244636.3284   25244631.4064         35.5004         17.2504
  -1006481.32842
 08  5 27  0 14  0.0000000  0 12G31G21G23G16G24G30G 6G29G18G 3G19G22
 -20857626.90247  21704452.0394   21704446.6254         47.5004         38.7504
 -15984813.98046
 -24732528.08248  20999439.8674   20999433.9924         48.7504         41.0004
 -16481663.39846
  -1791936.74245  25198710.1484   25198704.9884         32.0004         16.2504
   -533127.94942
 -23968308.35548  21002469.6484   21002464.2974         50.2504         41.5004
 -17260528.51646
 -11513686.73447  23156099.8984   23156097.0204         42.5004         27.5004
  -6607022.98444
  -5150233.82445  24738264.0784   24738260.6024         35.0004         18.2504
  -3402717.40243
 -21351088.94947  21492349.5864   21492345.4844         47.0004         38.0004
 -14723333.70346
  -8230542.56646  23726112.4064   23726108.7624         40.2504         26.5004
  -7094282.48844
  -6129461.67646  24524314.8444   24524311.2544         36.5004         18.5004
  -2445568.89143
 -13794938.83646  22758731.6564   22758726.6484         41.5004         26.2504
  -8162879.16044
  -2049403.06245  25228649.0084   25228643.5204         33.2504         17.2504
  -1071946.29342
   -415425.82415  25435974.922                          32.000

 08  5 27  0 14 30.0000000  0 12G31G21G23G16G24G30G 6G29G18G 3G19G22
 -20782022.61748  21718838.6884   21718833.7774         48.0004         38.7504
 -15925901.55946
 -24723447.85548  21001167.5784   21001162.0044         48.5004         41.5004
 -16474587.87946
  -1750411.77346  25206612.0084   25206606.2584         36.0004         16.2504
   -500770.84042
 -24017844.97348  20993043.1724   20993037.6214         49.5004         41.2504
 -17299128.47346
 -11426585.12946  23172674.6254   23172671.2114         41.5004         25.5004
  -6539151.62544
  -5054050.75045  24756567.7274   24756563.8754         35.2504         18.2504
  -3327769.57843
 -21393451.12547  21484288.4694   21484284.1954         47.7504         37.5004
 -14756343.17246
  -8150710.60246  23741304.4694   23741299.7304         40.7504         26.7504
  -7032075.77344
  -6200747.32846  24510751.1254   24510746.0394         36.0004         19.0004
  -2501116.12143
 -13869862.75846  22744473.5634   22744469.4804         41.0004         27.2504
  -8221261.40244
  -2133307.15245  25212683.0004   25212676.7814         34.2504         17.7504
  -1137326.11742
   -495329.36316  25420771.313                          37.000

 08  5 27  0 15  0.0000000  0 12G31G21G23G16G24G30G 6G29G18G 3G19G22
 -20706030.11348  21733299.8134   21733294.8484         48.0004         38.7504
 -15866686.63746
 -24713865.57848  21002991.0554   21002985.1374         49.0004         41.2504
 -16467121.16046
  -1708526.14845  25214582.1334   25214577.2974         35.0004         15.5004
   -468132.60942
 -24067137.25048  20983663.5784   20983657.6414         50.0004         41.5004
 -17337538.03546
 -11339178.57447  23189307.1484   23189304.2194         42.0004         27.0004
  -6471042.59844
  -4957746.05145  24774893.4064   24774889.7774         35.2504         17.2504
  -3252726.91042
 -21435591.54747  21476269.3054   21476265.3204         47.5004         37.7504
 -14789179.84846
  -8070870.41846  23756496.7424   23756493.4614         40.2504         26.2504
  -6969862.65644
  -6271941.64546  24497202.4924   24497197.9534         37.5004         18.2504
  -2556592.20343
 -13944609.26246  22730249.0944   22730245.7114         40.0004         28.0004
  -8279505.41444
  -2217101.55545  25196737.1254   25196731.9844         33.5004         15.5004
  -1202620.54742
   -575424.68045  25405528.6254   25405522.4924         35.0004         16.7504
   -116444.35552
 08  5 27  0 15 30.0000000  0 12G31G21G23G16G24G30G 6G29G18G 3G19G22
 -20629651.77048  21747834.2814   21747829.0274         48.0004         38.7504
 -15807171.05546
 -24703782.06248  21004909.9534   21004904.3284         49.0004         41.5004
 -16459263.86746
  -1666282.07445  25222620.4384   25222616.5084         34.2504         15.5004
   -435215.11742
 -24116183.44148  20974329.8444   20974324.6174         50.0004         42.0004
 -17375755.84847
 -11251469.90247  23205997.9064   23205994.7664         42.0004         26.5004
  -6402698.18744
  -4861320.18745  24793243.1644   24793239.6524         35.5004         19.0004
  -3177589.90243
 -21477510.46548  21468292.5164   21468288.1994         48.0004         37.2504
 -14821843.93446
  -7991022.78146  23771692.0784   23771688.0314         41.0004         26.2504
  -6907643.75444
  -6343041.81646  24483672.8284   24483668.3204         37.7504         17.7504
  -2611994.93742
 -14019178.04746  22716059.8444   22716055.1024         40.7504         27.5004
  -8337610.94544
  -2300785.80945  25180812.5164   25180807.2074         35.5004         17.2504
  -1267829.06642
   -655708.97345  25390253.0004   25390245.6954         32.2504         15.5004
   -179003.46142
 08  5 27  0 16  0.0000000  0 12G31G21G23G16G24G30G 6G29G18G 3G19G22
 -20552889.81247  21762441.6254   21762436.2034         47.0004         38.2504
 -15747356.55546
 -24693197.71948  21006923.9454   21006918.4144         49.2504         41.5004
 -16451016.32046
  -1623681.78545  25230726.3524   25230723.3984         33.7504         14.7504
   -402020.09842
 -24164981.59448  20965044.1564   20965038.4574         50.7504         41.5004
 -17413780.37546
 -11163461.56247  23222746.0394   23222742.2034         42.2504         27.0004
  -6334120.27344
  -4764774.38345  24811613.6954   24811611.7234         35.0004         17.7504
  -3102359.39142
 -21519208.06247  21460357.7584   21460353.4654         47.0004         37.7504
 -14854335.56246
  -7911168.06646  23786887.7274   23786883.6484         41.0004         26.5004
  -6845419.32844
  -6414044.78546  24470161.0234   24470157.1214         37.5004         19.2504
  -2667321.93043
 -14093568.71946  22701904.0164   22701899.3914         40.0004         27.5004
  -8395577.69144
  -2384359.66845  25164908.9774   25164903.1884         34.5004         17.7504
  -1332951.51642
   -736180.06645  25374938.8284   25374932.7074         34.2504         16.7504
   -241708.24242
 08  5 27  0 16 30.0000000  0 12G31G21G23G16G24G30G 6G29G18G 3G19G22
 -20475746.98047  21777121.1174   21777116.2934         47.7504         38.7504
 -15687245.26246
 -24682113.56248  21009033.5084   21009027.5394         50.5004         41.2504
 -16442379.30146
  -1580728.39845  25238900.6254   25238895.8634         32.7504         16.2504
   -368549.89542
 -24213530.85248  20955805.4694   20955799.7114         50.2504         41.2504
 -17451610.96546
 -11075156.30947  23239549.3594   23239546.0274         42.0004         27.0004
  -6265310.96144
  -4668109.72746  24830009.2194   24830006.3674         36.0004         17.2504
  -3027036.30142
 -21560684.78147  21452464.6954   21452460.5274         47.7504         38.0004
 -14886655.06646
  -7831307.13746  23802084.1334   23802081.0474         41.2504         25.5004
  -6783190.05944
  -6484948.09046  24456668.8834   24456664.4964         37.5004         19.0004
  -2722571.24243
 -14167781.42646  22687781.5864   22687777.3094         41.0004         28.2504
  -8453405.71944
  -2467822.92645  25149026.7274   25149021.0744         35.5004         17.2504
  -1397987.84842
   -816836.43745  25359590.6334   25359584.5864         33.5004         16.7504
   -304557.44942
 08  5 27  0 17  0.0000000  0 12G31G21G23G16G24G30G 6G29G18G 3G19G22
 -20398225.85947  21791872.8674   21791868.1374         47.7504         38.7504
 -15626839.21146
 -24670530.18048  21011237.3204   21011232.1334         50.2504         41.5004
 -16433353.28546
  -1537423.84845  25247140.9384   25247136.7854         35.5004         15.5004
   -334806.10542
 -24261829.16048  20946614.7734   20946608.8914         50.7504         41.7504
 -17489246.00446
 -10986556.39547  23256409.4614   23256405.6764         42.2504         27.2504
  -6196272.07044
  -4571326.91445  24848425.2194   24848423.0514         34.5004         16.7504
  -2951621.11742
 -21601940.84047  21444614.2814   21444609.9734         47.5004         38.0004
 -14918802.63746
  -7751440.30946  23817282.9384   23817278.6414         40.5004         27.0004
  -6720956.19544
  -6555748.74246  24443195.9224   24443191.1374         38.5004         18.5004
  -2777740.57043
 -14241815.16846  22673693.1024   22673688.7814         39.2504         27.2504
  -8511094.34044
  -2551175.20745  25133165.3054   25133159.6684         35.0004         16.7504
  -1462937.60942
   -897675.25445  25344207.1884   25344200.8204         33.0004         16.7504
   -367548.87942
 08  5 27  0 17 30.0000000  0 11G31G21G16G24G30G 6G29G18G 3G19G22
 -20320328.73847  21806696.4224   21806691.1524         47.7504         38.0004
 -15566140.17646
 -24658448.64548  21013536.5234   21013530.4804         49.7504         41.0004
 -16423939.09446
 -24309874.93048  20937471.5944   20937466.0004         50.7504         41.7504
 -17526684.27046
 -10897664.87947  23273325.0554   23273321.3364         42.0004         25.0004
  -6127005.95344
  -4474426.65246  24866865.6094   24866862.7814         36.2504         16.7504
  -2876114.38342
 -21642976.38748  21436805.0634   21436800.9494         48.7504         37.7504
 -14950778.38746
  -7671568.45346  23832482.0634   23832478.0784         41.5004         25.7504
  -6658718.39544
  -6626443.82846  24429742.7424   24429738.6214         38.7504         19.5004
  -2832827.62543
 -14315669.85546  22659638.2504   22659635.2854         40.0004         28.2504
  -8568643.43444
  -2634416.29745  25117325.5394   25117319.0554         34.7504         16.2504
  -1527800.80142
   -978694.47745  25328789.8444   25328783.9344         33.5004         15.5004
   -430680.70342
 08  5 27  0 18  0.0000000  0 12G31G21G25G16G24G30G 6G29G18G 3G19G22
 -20242058.03948  21821590.4144   21821585.7504         48.5004         38.5004
 -15505150.02746
 -24645868.93048  21015930.1564   21015924.6604         50.2504         41.5004
 -16414136.70746
    -97461.30115  25825876.734                          33.500

 -24357666.44948  20928377.2584   20928371.3404         49.7504         41.5004
 -17563924.41446
 -10808483.94947  23290295.2194   23290292.3204         42.5004         26.2504
  -6057514.31244
  -4377409.87145  24885326.9384   24885324.6294         34.7504         17.2504
  -2800516.93042
 -21683791.70748  21429038.5944   21429034.0084         48.0004         37.7504
 -14982582.53946
  -7591692.03946  23847682.3284   23847677.8984         40.7504         24.7504
  -6596477.03544
  -6697030.32446  24416311.0394   24416306.1884         37.0004         19.7504
  -2887830.09443
 -14389345.21946  22645618.8054   22645614.7814         39.5004         29.0004
  -8626052.78944
  -2717545.54746  25101506.4064   25101499.8954         36.5004         18.2504
  -1592576.73443
  -1059891.26645  25313338.4384   25313333.1644         32.0004         13.7504
   -493950.71142
 08  5 27  0 18 30.0000000  0 12G31G21G25G16G24G30G 6G29G18G 3G19G22
 -20163416.50048  21836555.7664   21836551.1024         48.7504         38.5004
 -15443870.91846
 -24632791.80548  21018419.1804   21018413.3134         50.2504         41.0004
 -16403946.72746
   -183977.512 5  25809413.625                          32.500

 -24405202.02048  20919331.6024   20919326.1724         51.2504         41.5004
 -17600965.11746
 -10719016.31247  23307321.0164   23307317.0634         43.0004         26.0004
  -5987799.28144
  -4280277.75845  24903810.5474   24903808.9304         35.7504         16.7504
  -2724829.57442
 -21724387.13348  21421313.8984   21421308.9454         48.5004         38.0004
 -15014215.32846
  -7511811.77746  23862883.0394   23862879.0944         41.0004         24.5004
  -6534232.71944
  -6767505.70746  24402899.8834   24402895.1564         39.2504         19.2504
  -2942745.91843
 -14462841.38346  22631633.0554   22631629.3634         40.5004         28.5004
  -8683322.47344
  -2800562.75845  25085708.4384   25085702.2814         35.7504         17.7504
  -1657265.43042
  -1141264.39845  25297853.9454   25297848.4454         34.5004         16.2504
   -557358.44142
 08  5 27  0 19  0.0000000  0 12G31G21G25G16G24G30G 6G29G18G 3G19G22
 -20084406.68748  21851590.8204   21851585.4224         48.0004         38.5004
 -15382304.83246
 -24619218.46948  21021001.7114   21020996.0204         49.0004         41.5004
 -16393370.09846
   -270258.480 5  25792994.438                          34.000

 -24452480.04748  20910334.7894   20910328.9804         50.0004         41.5004
 -17637805.12946
 -10629264.69547  23324400.3204   23324396.3094         42.2504         26.7504
  -5917862.94144
  -4183031.02345  24922317.2194   24922314.2154         35.5004         17.7504
  -2649052.85542
 -21764762.91048  21413630.2894   21413625.7424         48.7504         38.0004
 -15045676.94546
  -7431928.25046  23878083.4064   23878080.1024         40.7504         25.5004
  -6471985.80944
  -6837867.12146  24389510.8914   24389506.4224         38.2504         19.2504
  -2997573.01643
 -14536158.02746  22617681.7504   22617677.2304         39.7504         28.0004
  -8740452.28544
  -2883468.00846  25069932.7114   25069926.0004         36.0004         19.0004
  -1721866.98043
  -1222811.04345  25282336.7344   25282330.8204         34.2504         16.2504
   -620901.40642
 08  5 27  0 19 30.0000000  0 12G31G21G25G16G24G30G 6G29G18G 3G19G22
 -20005030.98048  21866695.2814   21866690.7114         48.2504         38.0004
 -15320453.65246
 -24605149.37148  21023679.1414   21023673.5944         49.2504         41.7504
 -16382407.15646
   -356301.852 5  25776621.766                          35.000

 -24499499.04348  20901387.2894   20901381.7854         49.7504         41.5004
 -17674443.29746
 -10539231.93747  23341532.9384   23341529.3554         42.5004         27.2504
  -5847707.53544
  -4085670.87545  24940844.5084   24940841.0044         35.0004         16.7504
  -2573187.80542
 -21804919.37148  21405988.6334   21405984.1604         48.7504         38.7504
 -15076967.67246
  -7352042.30146  23893284.8754   23893281.4804         40.7504         25.0004
  -6409737.05544
  -6908111.80946  24376144.5554   24376138.6024         39.5004         19.5004
  -3052309.15243
 -14609294.50446  22603763.4614   22603759.7624         40.2504         29.0004
  -8797441.71544
  -2966261.01246  25054177.4144   25054171.0514         36.0004         19.0004
  -1786380.95343
  -1304529.10945  25266785.7894   25266779.8874         34.5004         14.7504
   -684578.01242
 08  5 27  0 20  0.0000000  0 12G31G21G25G16G24G30G 6G29G18G 3G19G22
 -19925292.23448  21881869.1804   21881864.3014         48.0004         38.2504
 -15258319.58246
 -24590585.53148  21026450.3364   21026444.6844         48.2504         41.7504
 -16371058.70746
   -442105.375 5  25760292.219                          34.500

 -24546257.18748  20892489.8524   20892484.0704         49.0004         41.0004
 -17710878.21946
 -10448920.41447  23358717.6414   23358714.6254         42.2504         26.0004
  -5777334.91844
  -3988198.07445  24959391.2734   24959389.0164         34.5004         16.7504
  -2497234.96542
 -21844856.92248  21398388.7504   21398384.2814         49.5004         38.2504
 -15108087.82846
  -7272154.28546  23908487.2504   23908483.5824         40.7504         25.5004
  -6347486.64544
  -6978236.88746  24362799.8364   24362794.1174         39.5004         19.5004
  -3106952.10943
 -14682251.27746  22589881.0634   22589876.9064         40.5004         29.2504
  -8854291.10544
  -3048941.17245  25038443.0004   25038437.3874         35.5004         17.7504
  -1850807.05942
  -1386416.06645  25251203.2734   25251198.3164         33.2504         16.2504
   -748386.12142
 08  5 27  0 20 30.0000000  0 12G31G21G25G16G24G30G 6G29G18G 3G19G22
 -19845192.44548  21897111.9454   21897106.9414         48.2504         38.2504
 -15195904.18746
 -24575527.98848  21029315.6094   21029309.8594         48.5004         41.0004
 -16359325.54746
   -527666.645 5  25744011.133                          33.500

 -24592752.82848  20883642.1024   20883636.2734         48.5004         41.5004
 -17747108.57846
 -10358332.81247  23375956.0554   23375952.9534         42.2504         26.7504
  -5706747.19544
  -3890613.48045  24977961.6884   24977958.9304         34.5004         16.7504
  -2421195.04742
 -21884575.49648  21390830.5084   21390825.9774         48.5004         38.2504
 -15139037.34446
  -7192264.52346  23923690.4384   23923686.1804         40.0004         25.5004
  -6285234.92244
  -7048239.80146  24349477.4774   24349472.4024         38.7504         19.7504
  -3161499.79343
 -14755027.47746  22576031.8524   22576027.2624         39.7504         28.0004
  -8910999.81644
  -3131508.31245  25022731.6414   25022725.7304         35.2504         19.2504
  -1915145.07843
  -1468469.85945  25235588.4614   25235584.1294         33.5004         14.7504
   -812324.25042
 08  5 27  0 21  0.0000000  0 12G31G21G25G16G24G30G 6G29G18G 3G19G22
 -19764734.77347  21912422.0164   21912417.7734         47.5004         37.7504
 -15133209.90646
 -24559976.82048  21032275.2734   21032269.4694         48.5004         41.2504
 -16347207.75446
   -612983.496 5  25727776.188                          35.250

 -24638984.30548  20874844.2344   20874838.6724         49.5004         42.2504
 -17783133.10247
 -10267471.91047  23393246.7814   23393243.4414         42.0004         26.0004
  -5635946.48044
  -3792918.01245  24996552.5084   24996549.3014         35.2504         16.7504
  -2345068.73442
 -21924075.60948  21383313.8674   21383309.3054         48.0004         38.5004
 -15169816.63746
  -7112373.79346  23938893.3524   23938889.1454         40.5004         25.2504
  -6222982.40244
  -7118117.55846  24336180.7974   24336176.3914         38.5004         19.7504
  -3215949.97343
 -14827623.04746  22562217.6564   22562213.5124         41.5004         29.0004
  -8967567.76644
  -3213962.37145  25007040.7894   25007034.8554         34.2504         17.7504
  -1979395.00042
  -1550687.97345  25219943.2274   25219938.7934         32.7504         14.7504
   -876390.42642
 08  5 27  0 21 30.0000000  0 12G31G21G25G16G24G30G 6G29G18G 3G19G22
 -19683921.56247  21927800.4774   21927795.5084         47.7504         38.0004
 -15070238.59446
 -24543932.99247  21035328.0554   21035322.3054         47.5004         41.7504
 -16334706.05946
   -698053.359 5  25711587.813                          35.500

 -24684950.02748  20866097.4064   20866091.5704         48.5004         41.5004
 -17818950.55146
 -10176340.12546  23410588.4384   23410584.8324         41.2504         24.7504
  -5564934.73044
  -3695112.83645  25015163.9384   25015161.5704         35.2504         15.5004
  -2268856.91842
 -21963357.39147  21375838.7974   21375834.6294         47.7504         38.0004
 -15200425.80546
  -7032482.49246  23954095.6414   23954092.7814         38.7504         24.0004
  -6160729.49244
  -7187866.87146  24322908.0084   24322903.0474         38.0004         20.0004
  -3270300.06243
 -14900037.88746  22548437.3444   22548432.8984         40.5004         28.5004
  -9023994.89144
  -3296302.91045  24991372.4454   24991366.1024         35.5004         19.2504
  -2043556.47743
  -1633067.87945  25204267.1884   25204262.4304         35.0004         16.7504
   -940582.56642
 08  5 27  0 22  0.0000000  0 12G31G21G25G16G24G30G 6G29G18G 3G19G22
 -19602755.26647  21943246.0394   21943241.2034         47.5004         38.0004
 -15006992.14846
 -24527397.62148  21038474.5084   21038468.6214         48.2504         41.5004
 -16321821.35246
   -782874.184 5  25695446.656                          34.750

 -24730648.46948  20857401.2424   20857395.5944         50.2504         41.5004
 -17854559.71946
 -10084940.02746  23427981.5084   23427977.5274         41.0004         24.7504
  -5493713.84844
  -3597199.27045  25033795.5704   25033793.6054         34.5004         17.2504
  -2192560.68042
 -22002421.29348  21368405.3134   21368400.8054         49.0004         38.5004
 -15230865.20746
  -6952591.43046  23969298.1174   23969294.8714         39.7504         23.5004
  -6098476.73043
  -7257485.31646  24309660.1804   24309655.3984         37.0004         20.0004
  -3324548.21143
 -14972271.82846  22534691.6174   22534687.3404         40.7504         28.7504
  -9080281.03544
  -3378529.98046  24975724.6174   24975718.2934         36.0004         19.2504
  -2107629.47743
  -1715607.39845  25188560.7664   25188555.9184         35.0004         15.5004
  -1004899.17642
 08  5 27  0 22 30.0000000  0 12G31G21G25G16G24G30G 6G29G18G 3G19G22
 -19521238.52747  21958758.2814   21958752.8794         47.2504         37.7504
 -14943472.62546
 -24510371.19948  21041714.8134   21041709.0274         48.0004         41.5004
 -16308554.00046
   -867443.461 5  25679353.602                          34.500

 -24776077.58648  20848756.3364   20848750.6414         48.2504         41.7504
 -17889959.02346
  -9993274.19146  23445424.7504   23445421.0664         40.7504         24.2504
  -5422285.94944
  -3499177.54745  25052450.3204   25052446.8874         35.0004         15.5004
  -2116180.18042
 -22041267.29748  21361013.3364   21361008.6884         48.0004         37.5004
 -15261134.82046
  -6872700.98846  23984501.6884   23984497.7114         39.0004         25.5004
  -6036224.43044
  -7326970.10546  24296438.3594   24296432.1724         36.2504         20.5004
  -3378692.20343
 -15044324.42646  22520980.3594   22520975.6564         40.7504         28.7504
  -9136425.87144
  -3460642.73045  24960099.2344   24960093.6054         34.5004         16.7504
  -2171613.46542
  -1798304.22746  25172823.1644   25172818.8134         36.0004         18.5004
  -1069338.42243
 08  5 27  0 23  0.0000000  0 12G31G21G25G16G24G30G 6G29G18G 3G19G22
 -19439374.28147  21974336.6644   21974331.4454         47.0004         37.0004
 -14879682.30946
 -24492855.11748  21045048.0704   21045042.1914         48.5004         41.0004
 -16294905.10246
   -951759.180 5  25663308.508                          33.500

 -24821235.95748  20840162.7584   20840157.5554         48.2504         42.0004
 -17925147.36747
  -9901345.38746  23462917.6414   23462914.7894         41.7504         27.0004
  -5350653.10544
  -3401049.14145  25071122.1564   25071120.1214         34.7504         16.7504
  -2039716.49242
 -22079896.16847  21353661.7344   21353657.7114         47.0004         37.7504
 -15291235.23846
  -6792811.73846  23999703.8524   23999700.3634         37.0004         24.7504
  -5973973.10544
  -7396318.46546  24283241.0394   24283236.5084         37.0004         19.7504
  -3432729.87543
 -15116195.06646  22507304.0864   22507299.8524         41.0004         30.7504
  -9192428.91445
  -3542641.07046  24944495.1804   24944489.6994         36.0004         19.2504
  -2235508.35243
  -1881156.17245  25157057.2664   25157052.0824         34.2504         16.7504
  -1133898.44142
 08  5 27  0 23 30.0000000  0 12G31G21G25G16G24G30G 6G29G18G 3G19G22
 -19357164.82047  21989980.2034   21989975.6134         46.0004         37.2504
 -14815623.00846
 -24474850.05547  21048473.7734   21048468.1294         47.5004         41.5004
 -16280875.17646
  -1035818.910 5  25647312.289                          33.500

 -24866121.97748  20831621.2114   20831615.6524         49.2504         42.2504
 -17960123.48047
  -9809156.25846  23480461.0634   23480458.2624         41.7504         25.7504
  -5278817.43744
  -3302814.69946  25089816.1954   25089813.8054         36.0004         16.7504
  -1963170.20742
 -22118307.87147  21346352.7274   21346348.3984         47.2504         38.0004
 -15321166.42246
  -6712924.35246  24014905.9454   24014902.2304         38.2504         27.0004
  -5911723.19144
  -7465527.41846  24270070.6954   24270066.0904         37.5004         19.2504
  -3486658.88343
 -15187884.16847  22493662.3984   22493657.8054         42.5004         30.2504
  -9248290.51645
  -3624525.27346  24928912.8984   24928907.2344         36.2504         16.2504
  -2299314.24242
  -1964160.99245  25141262.3594   25141257.0474         35.0004         17.7504
  -1198577.59442
 08  5 27  0 24  0.0000000  0 12G31G21G25G16G24G30G 6G29G18G 3G19G22
 -19274612.95347  22005689.7974   22005684.8484         46.5004         37.5004
 -14751296.87946
 -24456356.59048  21051993.7344   21051987.6804         48.2504         41.0004
 -16266464.67246
  -1119620.258 5  25631366.125                          34.500

 -24910733.96548  20823132.5004   20823126.1134         49.0004         42.0004
 -17994886.07047
  -9716709.41046  23498053.7664   23498049.8914         41.7504         26.2504
  -5206780.93744
  -3204475.18445  25108528.5474   25108527.1484         35.5004         16.7504
  -1886542.02742
 -22156502.63347  21339084.3054   21339080.1524         46.7504         38.2504
 -15350928.57846
  -6633039.09446  24030108.4224   24030103.5044         39.0004         25.5004
  -5849474.93044
  -7534594.43046  24256927.6334   24256923.3054         38.0004         20.0004
  -3540477.37543
 -15259391.31646  22480054.2424   22480050.3134         41.2504         28.5004
  -9304010.32844
  -3706294.68746  24913352.8834   24913347.0204         36.2504         18.2504
  -2363030.76243
  -2047315.78945  25125439.5784   25125433.4534         34.7504         17.2504
  -1263373.59842
 08  5 27  0 24 30.0000000  0 12G31G21G25G16G24G30G 6G29G18G 3G19G22
 -19191721.30947  22021463.1484   22021458.4384         46.2504         37.0004
 -14686705.99246
 -24437375.94548  21055605.0234   21055599.3204         48.2504         41.0004
 -16251674.55546
  -1203160.937 5  25615468.195                          35.000

 -24955070.19548  20814695.2974   20814689.5474         48.7504         42.2504
 -18029433.77347
  -9624007.43046  23515693.9844   23515689.4414         41.2504         24.0004
  -5134545.63344
  -3106032.00445  25127261.9534   25127260.1414         34.5004         17.7504
  -1809832.99642
 -22194480.91447  21331857.4614   21331853.2974         45.2504         38.2504
 -15380522.02046
  -6553156.53146  24045309.0704   24045305.0664         38.7504         22.7504
  -5787228.79343
  -7603516.37546  24243812.1954   24243807.6294         37.0004         20.5004
  -3594182.76243
 -15330716.35247  22466481.7504   22466477.3484         42.0004         29.2504
  -9359588.25444
  -3787949.20745  24897814.0084   24897808.1054         35.2504         18.2504
  -2426657.66843
  -2130618.57445  25109587.0314   25109581.4304         35.0004         17.2504
  -1328285.00442
 08  5 27  0 25  0.0000000  0 12G31G21G25G16G24G30G 6G29G18G 3G19G22
 -19108492.34847  22037301.1484   22037295.9804         45.5004         37.2504
 -14621852.26646
 -24417908.92648  21059309.5004   21059304.0394         48.5004         40.5004
 -16236505.44146
  -1286438.75046  25599621.8524   25599618.2304         36.0004         18.2504
    -24839.14553
 -24999128.91048  20806310.6954   20806305.2114         49.2504         42.7504
 -18063765.23847
  -9531052.89846  23533382.6644   23533379.3014         40.7504         26.2504
  -5062113.52344
  -3007486.03946  25146016.0474   25146012.7274         36.5004         16.2504
  -1733043.92242
 -22232242.78947  21324671.5234   21324666.9884         45.5004         38.5004
 -15409946.84046
  -6473277.16446  24060509.3524   24060505.8404         38.7504         24.0004
  -5724985.14544
  -7672290.34446  24230725.5864   24230720.3954         36.7504         19.7504
  -3647772.85243
 -15401858.63747  22452944.0394   22452939.3714         42.2504         30.0004
  -9415023.78945
