     2.10           OBSERVATION DATA    G (GPS)             RINEX VERSION / TYPE
teqc  2000Jul20     ARGNET              20040202 03:37:14UTCPGM / RUN BY / DATE
Solaris 2.7|Ultra 2|cc SC5.0|=+-|*Sparc                     COMMENT
BIT 2 OF LLI FLAGS DATA COLLECTED UNDER A/S CONDITION       COMMENT
alic                                                        MARKER NAME
50137M001                                                   MARKER NUMBER
Geoscience AustraliaGeoscience Australia                    OBSERVER / AGENCY
UC2200302004        ASHTECH UZ-12       ZC00                REC # / TYPE / VERS
318                 AOAD/M_T        NONE                    ANT # / TYPE
 -4052059.5100  4212844.0100 -2545111.4500                  APPROX POSITION XYZ
        0.0070        0.0000        0.0000                  ANTENNA: DELTA H/E/N
     1     1                                                WAVELENGTH FACT L1/2
     9    L1    L2    C1    P2    P1    D1    D2    S1    S2# / TYPES OF OBSERV
    30.0000                                                 INTERVAL
Australian Regional GPS Network (ARGN)                      COMMENT
ALICE SPRINGS AU012                                         COMMENT
 SNR is mapped to RINEX snr flag value [1-9]                COMMENT
  L1: 1 -> 1;  90 -> 5; 210 -> 9                            COMMENT
  L2: 1 -> 1; 150 -> 5; 250 -> 9                            COMMENT
teqc windowed: start @ 2004 Feb  1 00:00:00.000             COMMENT
teqc windowed: delta = 86398.560 sec                        COMMENT
  2004     2     1     0     0    0.0000000     GPS         TIME OF FIRST OBS
                                                            END OF HEADER
 04  2  1  0  0  0.0000000  0  9G 3G20G22G31G15G11G14G25G23
 -16176747.00843 -12355304.59442  22418150.425    22418155.516    22418149.647
     -2741.371       -2136.133          50.000          44.000
  -3817114.94143  -2786970.02742  24599165.143    24599170.366    24599163.560
      1731.321        1349.081          43.000          38.000
   2098711.48143   1648338.44742  23617627.241    23617628.394    23617626.128
     -1854.882       -1445.362          48.000          42.000
 -19862225.61543 -15425988.20742  21722920.988    21722924.617    21722919.051
      -786.651        -612.975          53.000          47.000
 -12222589.82943  -9467674.91342  22589840.476    22589845.972    22589839.200
     -2060.072       -1605.251          52.000          45.000
 -13290671.44743 -10306106.20142  22581326.277    22581328.858    22581325.694
      2935.808        2287.643          53.000          45.000
 -16242920.33343 -12645631.31542  21509006.854    21509009.199    21509005.339
     -2448.548       -1907.959          55.000          49.000
 -17420555.79243 -13563552.55842  21811169.016    21811172.916    21811167.995
      2288.533        1783.272          55.000          48.000
 -15985767.55643 -12394562.48942  22255196.271    22255199.723    22255194.972
     -1670.581       -1301.751          51.000          44.000
 04  2  1  0  0 30.0000000  0 10G 1G 3G20G22G31G15G11G14G25G23
                                  24878177.576
      3334.344        2598.190          41.000
 -16094412.37643 -12291147.80142  22433818.867    22433824.458    22433817.491
     -2747.137       -2140.626          51.000          44.000
  -3869054.26943  -2827442.23642  24589280.998    24589285.923    24589279.917
      1730.841        1348.707          42.000          38.000
   2154358.07843   1691699.36042  23628215.212    23628219.487    23628214.918
     -1854.571       -1445.120          47.000          41.000
 -19838391.04843 -15407415.85242  21727455.838    21727460.112    21727454.529
      -802.274        -625.148          53.000          47.000
 -12160634.24743  -9419397.87442  22601630.960    22601636.191    22601629.281
     -2070.478       -1613.359          51.000          45.000
 -13378655.25543 -10374665.00442  22564584.425    22564586.371    22564583.258
      2930.194        2283.268          52.000          45.000
 -16169322.24743 -12588282.18542  21523011.934    21523014.612    21523010.767
     -2457.731       -1915.115          55.000          49.000
 -17489041.20543 -13616917.79142  21798136.155    21798140.246    21798135.340
      2277.291        1774.512          54.000          48.000
 -15935632.53143 -12355496.27842  22264736.510    22264739.814    22264734.800
     -1671.670       -1302.600          51.000          44.000
 04  2  1  0  1  0.0000000  0 10G 1G 3G20G22G31G15G11G14G25G23
                                  24859163.483
      3329.047        2594.063          42.000
 -16011909.07843 -12226859.57042  22449519.694    22449524.017    22449517.961
     -2752.563       -2144.854          51.000          44.000
  -3920984.08143  -2867906.98042  24579402.855    24579403.071    24579401.125
      1731.154        1348.951          43.000          37.000
   2209993.90443   1735051.90142  23638802.991    23638806.192    23638801.336
     -1854.110       -1444.761          48.000          42.000
 -19814084.51843 -15388475.72742  21732081.899    21732085.248    21732080.148
      -817.923        -637.342          54.000          47.000
 -12098356.55543  -9370869.84742  22613481.735    22613487.806    22613480.393
     -2081.200       -1621.714          51.000          45.000
 -13466479.65543 -10443099.58842  22547870.860    22547873.842    22547870.402
      2925.244        2279.411          52.000          45.000
 -16095453.99343 -12530722.53842  21537068.466    21537071.336    21537067.292
     -2466.453       -1921.911          55.000          49.000
 -17557186.41643 -13670017.92842  21785168.594    21785172.554    21785168.037
      2266.020        1765.730          54.000          48.000
 -15885464.28543 -12316404.16742  22274282.666    22274287.213    22274282.094
     -1672.633       -1303.350          51.000          45.000
 04  2  1  0  1 30.0000000  0 10G 1G 3G20G22G31G15G11G14G25G23
                                  24840177.063
      3322.810        2589.203          43.000
 -15929237.71443 -12162440.39242  22465251.359    22465255.258    22465250.002
     -2758.416       -2149.415          51.000          44.000
  -3972902.54243  -2908362.90442  24569520.795    24569525.732    24569521.001
      1730.354        1348.328          43.000          38.000
   2265621.72543   1778398.20742  23649387.308    23649392.519    23649387.444
     -1854.321       -1444.925          47.000          41.000
 -19789305.35743 -15369167.33542  21736797.232    21736800.540    21736795.935
      -833.813        -649.724          53.000          47.000
 -12035754.88343  -9322089.35542  22625394.857    22625399.593    22625393.417
     -2091.972       -1630.108          51.000          45.000
 -13554139.66643 -10511406.07342  22531189.333    22531192.016    22531188.323
      2919.104        2274.626          52.000          45.000
 -16021315.77743 -12472952.53342  21551176.135    21551179.195    21551175.120
     -2475.742       -1929.150          55.000          49.000
 -17624985.96943 -13722848.72142  21772266.696    21772270.921    21772266.085
      2254.137        1756.470          55.000          48.000
 -15835260.39943 -12277284.29242  22283836.045    22283841.419    22283834.410
     -1674.138       -1304.523          51.000          44.000
 04  2  1  0  2  0.0000000  0 10G 1G 3G20G22G31G15G11G14G25G23
                                  24821219.612
      3318.309        2585.695          43.000
 -15846401.61943 -12097892.84642  22481014.164    22481018.161    22481012.896
     -2763.724       -2153.551          51.000          44.000
  -4024810.71443  -2948810.82442  24559644.512    24559648.125    24559642.553
      1730.706        1348.602          44.000          38.000
   2321241.26643   1821738.07042  23659971.618    23659976.468    23659971.965
     -1853.143       -1444.007          47.000          41.000
 -19764055.83143 -15349492.41342  21741601.788    21741605.812    21741600.581
      -848.733        -661.350          54.000          47.000
 -11972830.05843  -9273057.07442  22637368.606    22637374.157    22637367.157
     -2102.143       -1638.033          51.000          45.000
 -13641633.38543 -10579582.98542  22514540.256    22514542.771    22514539.352
      2914.222        2270.822          52.000          45.000
 -15946910.53443 -12414974.45742  21565334.946    21565338.451    21565333.986
     -2483.897       -1935.504          55.000          49.000
 -17692437.04043 -13775407.98042  21759430.918    21759435.382    21759429.988
      2243.509        1748.189          55.000          48.000
 -15785021.50443 -12238137.13642  22293397.747    22293400.793    22293395.633
     -1674.606       -1304.888          52.000          44.000
 04  2  1  0  2 30.0000000  0 10G 1G 3G20G22G31G15G11G14G25G23
                                  24802296.679
      3312.817        2581.416          43.000
 -15763404.08143 -12033219.50242  22496808.148    22496812.498    22496806.951
     -2768.997       -2157.660          51.000          44.000
  -4076709.35643  -2989251.30742  24549768.094    24549772.416    24549767.054
      1730.089        1348.121          44.000          39.000
   2376853.20943   1865071.98642  23670557.363    23670557.976    23670554.821
     -1853.470       -1444.262          49.000          42.000
 -19738337.43243 -15329452.14342  21746496.102    21746500.025    21746495.019
      -864.857        -673.914          53.000          47.000
 -11909582.50043  -9223773.33442  22649404.107    22649409.312    22649403.195
     -2113.364       -1646.777          50.000          45.000
 -13728958.27943 -10647628.33342  22497923.595    22497925.516    22497921.871
      2908.259        2266.176          53.000          45.000
 -15872240.87743 -12356790.33842  21579544.316    21579547.533    21579543.604
     -2493.212       -1942.762          55.000          48.000
 -17759536.47643 -13827693.21742  21746662.745    21746666.907    21746661.595
      2230.937        1738.392          54.000          48.000
 -15734747.35243 -12198962.50242  22302963.602    22302968.470    22302962.619
     -1676.246       -1306.166          51.000          44.000
 04  2  1  0  3  0.0000000  0 10G 1G 3G20G22G31G15G11G14G25G23
                                  24783403.329
      3306.912        2576.815          45.000
 -15680245.94643 -11968421.02642  22512632.166    22512638.462    22512630.721
     -2774.517       -2161.961          51.000          44.000
  -4128597.40443  -3029683.55242  24539893.036    24539897.940    24539891.869
      1729.317        1347.520          44.000          38.000
   2432459.58643   1908401.55942  23681136.760    23681141.108    23681135.659
     -1853.608       -1444.370          48.000          42.000
 -19712150.28343 -15309046.62042  21751478.813    21751482.826    21751477.699
      -880.705        -686.264          53.000          47.000
 -11846010.73643  -9174236.97042  22661502.109    22661506.362    22661500.186
     -2124.600       -1655.532          50.000          44.000
 -13816110.34243 -10715539.02042  22481338.430    22481341.161    22481337.497
      2902.010        2261.306          52.000          45.000
 -15797307.57543 -12298400.78342  21593803.833    21593806.571    21593802.711
     -2502.237       -1949.795          55.000          48.000
 -17826279.60343 -13879700.82642  21733961.585    21733965.952    21733960.941
      2218.614        1728.790          55.000          48.000
 -15684436.07843 -12159758.95742  22312537.372    22312541.222    22312535.292
     -1677.723       -1307.317          51.000          44.000
 04  2  1  0  3 30.0000000  0 10G 1G 3G20G22G31G15G11G14G25G23
  -1511699.89653   -760932.88752  24764537.876    24764547.734    24764537.763
      3301.542        2572.630          45.000          36.000
 -15596932.12043 -11903501.23342  22528487.200    22528491.331    22528485.789
     -2779.647       -2165.959          50.000          44.000
  -4180477.26243  -3070109.38642  24530019.886    24530025.067    24530018.434
      1729.433        1347.610          43.000          38.000
   2488059.05343   1951725.76042  23691717.639    23691720.371    23691715.604
     -1853.164       -1444.024          48.000          42.000
 -19685498.00343 -15288278.64942  21756550.817    21756554.721    21756549.161
      -896.182        -698.324          53.000          47.000
 -11782117.06243  -9124449.73042  22673660.416    22673665.384    22673659.018
     -2135.143       -1663.748          51.000          45.000
 -13903088.76343 -10783314.39342  22464787.622    22464791.145    22464786.380
      2896.384        2256.923          53.000          45.000
 -15722115.23143 -12239809.37942  21608112.583    21608115.397    21608111.476
     -2510.745       -1956.425          55.000          48.000
 -17892665.49043 -13931430.08042  21721328.682    21721333.162    21721327.855
      2206.882        1719.648          54.000          48.000
 -15634089.68143 -12120528.02642  22322117.381    22322122.769    22322116.323
     -1678.975       -1308.292          50.000          44.000
 04  2  1  0  4  0.0000000  0 10G 1G 3G20G22G31G15G11G14G25G23
  -1610655.09143   -838040.82642  24745708.678    24745719.580    24745707.952
      3295.438        2567.874          46.000          36.000
 -15513463.03143 -11838460.45442  22544370.242    22544375.784    22544368.402
     -2785.132       -2170.233          50.000          44.000
  -4232346.83143  -3110527.18642  24520150.135    24520153.937    24520149.626
      1728.610        1346.969          45.000          39.000
   2543654.82043   1995047.08842  23702296.286    23702300.208    23702294.761
     -1853.404       -1444.211          48.000          41.000
 -19658379.51243 -15267147.39642  21761710.953    21761715.325    21761710.518
      -912.035        -710.677          53.000          47.000
 -11717898.99643  -9074409.71442  22685881.334    22685886.453    22685879.861
     -2146.267       -1672.416          52.000          45.000
 -13989888.26143 -10850950.35242  22448269.956    22448273.241    22448269.139
      2890.001        2251.949          52.000          45.000
 -15646663.63143 -12181015.96842  21622470.430    21622473.453    21622469.265
     -2519.558       -1963.292          55.000          48.000
 -17958688.08843 -13982876.22342  21708764.951    21708769.937    21708763.808
      2194.347        1709.881          54.000          48.000
 -15583705.27843 -12081267.49942  22331705.898    22331710.002    22331704.478
     -1680.257       -1309.291          50.000          44.000
 04  2  1  0  4 30.0000000  0 10G 1G 3G20G22G31G15G11G14G25G23
  -1709443.85043   -915019.04442  24726908.359    24726916.170    24726907.401
      3290.204        2563.795          43.000          36.000
 -15429845.07343 -11773303.68042  22560282.038    22560287.126    22560280.870
     -2789.731       -2173.816          50.000          44.000
  -4284210.29343  -3150940.25142  24510281.592    24510284.522    24510279.978
      1728.860        1347.164          46.000          39.000
   2599243.43143   2038362.81842  23712873.584    23712878.391    23712873.490
     -1852.530       -1443.530          48.000          42.000
 -19630800.31043 -15245657.14942  21766959.951    21766963.482    21766958.889
      -926.953        -722.301          53.000          47.000
 -11653360.72043  -9024120.19642  22698161.896    22698168.094    22698160.309
     -2156.543       -1680.423          51.000          45.000
 -14076510.44643 -10918448.14542  22431785.827    22431789.609    22431784.945
      2884.558        2247.708          52.000          45.000
 -15570958.78843 -12122025.22642  21636876.811    21636879.424    21636875.884
     -2527.515       -1969.492          55.000          48.000
 -18024348.16143 -14034039.88642  21696271.148    21696274.967    21696269.752
      2182.717        1700.818          55.000          48.000
 -15533286.39043 -12041980.10142  22341299.604    22341304.758    22341298.490
     -1681.085       -1309.936          50.000          43.000
 04  2  1  0  5  0.0000000  0 10G 1G 3G20G22G31G15G11G14G25G23
  -1808063.68243   -991865.61342  24708142.536    24708149.514    24708142.362
      3284.047        2558.998          44.000          37.000
 -15346080.30343 -11708032.52042  22576221.429    22576227.889    22576220.863
     -2795.083       -2177.987          49.000          44.000
  -4336067.88543  -3191348.77542  24500413.255    24500416.176    24500412.015
      1728.098        1346.570          46.000          39.000
   2654826.00743   2081673.83342  23723453.229    23723454.801    23723451.336
     -1853.100       -1443.974          50.000          42.000
 -19602761.69643 -15223808.90742  21772295.264    21772299.155    21772294.061
      -942.780        -734.634          53.000          47.000
 -11588502.08543  -8973581.06142  22710504.219    22710509.679    22710502.667
     -2167.881       -1689.258          51.000          44.000
 -14162952.04243 -10985805.22242  22415336.748    22415338.983    22415335.712
      2877.796        2242.438          52.000          45.000
 -15495002.93843 -12062838.87942  21651330.774    21651333.280    21651329.425
     -2536.528       -1976.515          55.000          48.000
 -18089641.68343 -14084917.93442  21683845.735    21683849.643    21683844.801
      2169.791        1690.746          55.000          48.000
 -15482832.39043 -12002665.34342  22350900.686    22350906.058    22350898.933
     -1683.177       -1311.566          50.000          44.000
 04  2  1  0  5 30.0000000  0 10G 1G 3G20G22G31G15G11G14G25G23
  -1906514.97143  -1068580.85742  24689406.348    24689413.171    24689405.454
      3279.001        2555.066          44.000          37.000
 -15262173.92043 -11642650.99542  22592189.198    22592194.733    22592188.424
     -2799.147       -2181.153          50.000          44.000
  -4387922.03343  -3231754.59942  24490545.356    24490549.860    24490544.146
      1728.182        1346.635          46.000          39.000
   2710401.16943   2124979.11742  23734028.191    23734030.530    23734026.910
     -1852.475       -1443.487          49.000          42.000
 -19574267.34643 -15201605.55442  21777717.602    21777721.281    21777716.158
      -957.445        -746.061          53.000          47.000
 -11523325.57243  -8922794.23342  22722906.160    22722912.465    22722905.225
     -2177.819       -1697.002          50.000          44.000
 -14249212.30743 -11053020.98342  22398921.357    22398924.732    22398920.889
      2872.347        2238.192          52.000          45.000
 -15418800.41943 -12003460.33242  21665830.784    21665834.853    21665830.226
     -2544.136       -1982.444          54.000          48.000
 -18154568.03143 -14135509.87942  21671491.264    21671494.706    21671490.152
      2158.153        1681.678          55.000          48.000
 -15432345.18143 -11963324.68742  22360509.080    22360513.203    22360506.800
     -1683.501       -1311.819          50.000          44.000
 04  2  1  0  6  0.0000000  0 10G 1G 3G20G22G31G15G11G14G25G23
  -2004790.58943  -1145159.19142  24670707.575    24670712.916    24670706.516
      3273.474        2550.759          45.000          38.000
 -15178123.84043 -11577157.49942  22608183.224    22608188.132    22608181.471
     -2803.723       -2184.719          50.000          44.000
  -4439768.01043  -3272154.07442  24480680.284    24480683.469    24480677.969
      1728.363        1346.776          46.000          39.000
   2765974.42143   2168282.88742  23744601.427    23744605.743    23744601.528
     -1851.969       -1443.093          48.000          41.000
 -19545313.77343 -15179044.36742  21783227.093    21783231.536    21783225.435
      -972.458        -757.759          53.000          47.000
 -11457826.05043  -8871755.70242  22735371.291    22735376.760    22735369.387
     -2188.413       -1705.257          50.000          44.000
 -14335283.56143 -11120089.48642  22382542.841    22382546.650    22382541.981
      2866.251        2233.442          52.000          45.000
 -15342348.61243 -11943887.53542  21680379.611    21680382.788    21680378.519
     -2552.182       -1988.713          55.000          48.000
 -18219118.86243 -14185809.20442  21659206.861    21659211.382    21659205.959
      2145.661        1671.944          55.000          48.000
 -15381819.14743 -11923953.79542  22370123.627    22370128.323    22370122.585
     -1684.537       -1312.626          50.000          44.000
 04  2  1  0  6 30.0000000  0 10G 1G 3G20G22G31G15G11G14G25G23
  -2102912.35743  -1221617.62742  24652034.364    24652041.427    24652033.652
      3266.772        2545.537          44.000          38.000
 -15093956.16543 -11511572.35842  22624200.313    22624205.322    22624199.177
     -2808.796       -2188.672          50.000          44.000
  -4491629.92143  -3312565.93442  24470810.998    24470815.989    24470808.731
      1727.675        1346.240          46.000          39.000
   2821522.93843   2211567.39242  23755173.264    23755176.254    23755171.663
     -1852.504       -1443.510          47.000          41.000
 -19515926.33343 -15156145.10042  21788819.321    21788823.268    21788818.314
      -988.105        -769.952          53.000          47.000
 -11392027.50943  -8820484.17242  22747891.956    22747897.037    22747891.686
     -2199.554       -1713.938          51.000          44.000
 -14421186.80843 -11187027.06142  22366195.699    22366199.198    22366194.520
      2859.388        2228.095          52.000          45.000
 -15265673.42243 -11884140.67642  21694970.282    21694973.697    21694969.262
     -2560.801       -1995.429          55.000          48.000
 -18283314.58043 -14235831.81942  21646991.148    21646994.959    21646989.606
      2132.710        1661.852          55.000          48.000
 -15331277.86843 -11884571.02442  22379741.394    22379746.158    22379741.016
     -1686.170       -1313.899          50.000          44.000
 04  2  1  0  7  0.0000000  0 10G 1G 3G20G22G31G15G11G14G25G23
  -2200835.61543  -1297921.38242  24633399.624    24633408.948    24633398.686
      3260.981        2541.024          43.000          38.000
 -15009630.89743 -11445864.42542  22640247.057    22640251.583    22640245.491
     -2813.168       -2192.079          51.000          44.000
  -4543465.61043  -3352957.36142  24460947.722    24460949.561    24460944.179
      1727.767        1346.312          45.000          39.000
   2877089.86943   2254866.20042  23765747.826    23765749.094    23765746.954
     -1852.174       -1443.252          49.000          41.000
 -19486064.08143 -15132875.85042  21794502.372    21794505.089    21794500.995
     -1003.058        -781.604          53.000          47.000
 -11325887.88043  -8768946.84942  22760478.030    22760483.159    22760476.232
     -2209.975       -1722.058          50.000          44.000
 -14506876.93243 -11253798.57642  22349889.485    22349892.951    22349889.021
      2852.984        2223.104          52.000          45.000
 -15188734.42443 -11824188.24542  21709612.272    21709615.345    21709611.152
     -2568.797       -2001.660          55.000          48.000
 -18347109.56643 -14285542.16742  21634851.463    21634854.908    21634850.325
      2120.039        1651.978          55.000          48.000
 -15280678.27343 -11845142.79842  22389368.931    22389375.383    22389367.459
     -1687.280       -1314.764          50.000          44.000
 04  2  1  0  7 30.0000000  0 10G 1G 3G20G22G31G15G11G14G25G23
  -2298581.06343  -1374086.58042  24614798.883    24614807.748    24614798.177
      3255.307        2536.603          43.000          38.000
 -14925173.35243 -11380053.41542  22656318.452    22656323.605    22656317.433
     -2817.322       -2195.316          50.000          43.000
  -4595298.02443  -3393346.22242  24451082.983    24451087.991    24451081.983
      1727.949        1346.454          45.000          39.000
   2932653.54843   2298162.53042  23776319.234    23776324.933    23776319.661
     -1851.950       -1443.078          47.000          41.000
 -19455751.37643 -15109255.59242  21800270.623    21800274.299    21800269.448
     -1017.932        -793.194          53.000          47.000
 -11259430.15843  -8717161.67742  22773124.757    22773130.186    22773123.395
     -2220.472       -1730.238          50.000          45.000
 -14592373.25243 -11320419.08042  22333621.272    22333623.344    22333619.170
      2846.845        2218.321          53.000          45.000
 -15111556.70143 -11764049.80142  21724298.204    21724300.860    21724296.940
     -2576.376       -2007.566          55.000          48.000
 -18410523.32143 -14334955.46642  21622784.563    21622787.465    21622783.200
      2107.598        1642.284          55.000          48.000
 -15230042.70943 -11805686.56142  22399006.509    22399010.619    22399004.456
     -1688.339       -1315.589          51.000          44.000
 04  2  1  0  8  0.0000000  0 10G 1G 3G20G22G31G15G11G14G25G23
  -2396152.82143  -1450116.44042  24596233.318    24596239.409    24596231.182
      3249.411        2532.009          45.000          38.000
 -14840592.51943 -11314146.35042  22672412.767    22672416.883    22672412.935
     -2821.302       -2198.417          50.000          43.000
  -4647133.65543  -3433737.62042  24441218.663    24441223.565    24441216.970
      1728.110        1346.579          45.000          39.000
   2988208.45443   2341452.01442  23786894.158    23786895.326    23786891.429
     -1851.638       -1442.835          49.000          41.000
 -19424995.99443 -15085290.39242  21806123.256    21806127.502    21806121.780
     -1032.597        -804.621          53.000          47.000
 -11192660.51243  -8665133.44742  22785830.910    22785836.232    22785829.101
     -2230.787       -1738.275          51.000          45.000
 -14677679.73143 -11386891.64942  22317387.470    22317389.585    22317387.015
      2840.283        2213.208          53.000          46.000
 -15034148.73643 -11703731.94842  21739028.434    21739031.432    21739027.295
     -2583.974       -2013.486          55.000          48.000
 -18473558.28743 -14384073.61142  21610789.310    21610792.470    21610788.181
      2094.926        1632.410          55.000          49.000
 -15179376.87143 -11766206.73042  22408647.747    22408651.487    22408645.393
     -1689.184       -1316.247          51.000          44.000
 04  2  1  0  8 30.0000000  0 10G 1G 3G20G22G31G15G11G14G25G23
  -2493542.32843  -1526004.28742  24577701.079    24577707.648    24577698.738
      3243.606        2527.485          44.000          38.000
 -14755884.52143 -11248140.19842  22688532.853    22688539.312    22688531.156
     -2825.340       -2201.564          50.000          43.000
  -4698966.12543  -3474126.54642  24431355.364    24431359.094    24431355.026
      1727.844        1346.372          46.000          39.000
   3043761.76443   2384740.26342  23797463.573    23797466.193    23797463.199
     -1851.508       -1442.733          48.000          41.000
 -19393792.88443 -15060976.30842  21812060.667    21812065.229    21812059.603
     -1047.439        -816.186          53.000          47.000
 -11125572.54343  -8612857.19042  22798597.145    22798602.185    22798595.578
     -2241.409       -1746.552          51.000          44.000
 -14762786.88543 -11453208.90442  22301192.418    22301195.054    22301191.395
      2833.777        2208.138          53.000          46.000
 -14956506.28643 -11643231.37542  21753803.220    21753806.530    21753802.218
     -2591.714       -2019.517          54.000          48.000
 -18536204.59843 -14432888.90342  21598867.411    21598871.717    21598866.417
      2081.887        1622.250          55.000          49.000
 -15128673.77743 -11726697.84642  22418294.845    22418299.518    22418294.512
     -1690.516       -1317.285          50.000          44.000
 04  2  1  0  9  0.0000000  0 10G 1G 3G20G22G31G15G11G14G25G23
  -2590748.45243  -1601749.22942  24559203.266    24559210.142    24559201.601
      3237.513        2522.737          46.000          39.000
 -14671052.70143 -11182037.55942  22704677.791    22704682.680    22704675.662
     -2829.477       -2204.787          51.000          44.000
  -4750796.92443  -3514514.20642  24421491.947    24421495.179    24421490.862
      1727.821        1346.354          46.000          38.000
   3099313.34743   2428027.13942  23808034.880    23808037.656    23808034.694
     -1851.504       -1442.730          47.000          40.000
 -19362144.63443 -15036315.37342  21818083.662    21818087.860    21818081.697
     -1062.192        -827.682          53.000          47.000
 -11058167.35443  -8560333.70942  22811423.022    22811428.889    22811421.863
     -2251.833       -1754.675          50.000          44.000
 -14847693.04043 -11519369.53842  22285034.724    22285037.450    22285033.788
      2827.078        2202.918          53.000          45.000
 -14878632.57343 -11582550.60242  21768622.443    21768625.174    21768621.124
     -2599.328       -2025.450          54.000          48.000
 -18598460.25643 -14481399.79142  21587021.283    21587024.633    21587020.200
      2068.856        1612.095          55.000          49.000
 -15077933.77743 -11687160.22642  22427951.983    22427956.117    22427949.969
     -1691.714       -1318.219          51.000          44.000
 04  2  1  0  9 30.0000000  0 10G 1G 3G20G22G31G15G11G14G25G23
  -2687770.56843  -1677350.83642  24540739.906    24540746.980    24540738.590
      3231.247        2517.855          46.000          39.000
 -14586101.11443 -11115841.59242  22720841.569    22720847.764    22720841.012
     -2833.624       -2208.019          50.000          43.000
  -4802627.66243  -3554901.81642  24411627.689    24411633.707    24411626.673
      1727.727        1346.281          45.000          38.000
   3154862.68343   2471312.25442  23818604.847    23818609.747    23818604.349
     -1851.476       -1442.708          48.000          41.000
 -19330054.47243 -15011310.08442  21824189.774    21824194.011    21824188.396
     -1076.964        -839.193          53.000          47.000
 -10990446.96043  -8507564.61942  22824311.002    22824316.795    22824309.662
     -2262.451       -1762.949          51.000          44.000
 -14932396.50743 -11585372.22742  22268916.272    22268918.530    22268915.760
      2820.136        2197.509          53.000          46.000
 -14800530.99443 -11521692.27242  21783484.588    21783487.798    21783483.354
     -2607.019       -2031.443          55.000          48.000
 -18660323.61243 -14529604.98842  21575248.892    21575252.325    21575247.642
      2055.564        1601.738          55.000          48.000
 -15027158.06843 -11647594.77442  22437614.045    22437618.035    22437612.941
     -1693.105       -1319.302          51.000          44.000
 04  2  1  0 10  0.0000000  0 10G 1G 3G20G22G31G15G11G14G25G23
  -2784606.31243  -1752807.17542  24522312.045    24522319.554    24522311.873
      3225.257        2513.187          46.000          39.000
 -14501032.15943 -11049554.17242  22737030.012    22737035.634    22737029.887
     -2836.956       -2210.615          50.000          43.000
  -4854458.02543  -3595289.12342  24401766.195    24401769.703    24401766.308
      1727.808        1346.344          45.000          38.000
   3210411.00743   2514596.62142  23829177.043    23829180.426    23829175.890
     -1851.362       -1442.620          49.000          41.000
 -19297523.52143 -14985961.32842  21830380.318    21830384.191    21830379.270
     -1091.249        -850.324          53.000          47.000
 -10922411.05943  -8454549.68042  22837258.033    22837263.145    22837255.606
     -2272.799       -1771.012          51.000          44.000
 -15016893.84843 -11651214.29542  22252836.728    22252839.639    22252835.657
      2813.561        2192.385          53.000          46.000
 -14722203.36843 -11460657.79542  21798390.352    21798393.123    21798388.748
     -2614.262       -2037.087          55.000          48.000
 -18721790.92743 -14577501.57942  21563551.453    21563555.511    21563550.564
      2042.748        1591.752          55.000          49.000
 -14976345.51443 -11608000.59942  22447282.243    22447287.225    22447280.577
     -1694.036       -1320.028          50.000          44.000
 04  2  1  0 10 30.0000000  0 10G 1G 3G20G22G31G15G11G14G25G23
  -2881254.78043  -1828117.58742  24503919.980    24503927.622    24503918.736
      3218.252        2507.729          45.000          39.000
 -14415849.38743 -10983178.05742  22753240.063    22753244.519    22753239.440
     -2841.655       -2214.277          50.000          43.000
  -4906289.38443  -3635677.17642  24391902.332    24391907.375    24391901.526
      1727.544        1346.138          44.000          38.000
   3265958.28643   2557880.15242  23839747.079    23839749.823    23839746.274
     -1851.976       -1443.098          48.000          41.000
 -19264554.57843 -14960271.28042  21836654.496    21836658.005    21836653.345
     -1106.644        -862.320          53.000          47.000
 -10854060.82143  -8401289.83142  22850264.240    22850268.699    22850262.613
     -2284.000       -1779.740          50.000          44.000
 -15101182.93643 -11716894.08542  22236797.111    22236799.979    22236796.276
      2805.786        2186.327          53.000          46.000
 -14643652.59843 -11399449.43742  21813337.836    21813340.475    21813336.873
     -2622.418       -2043.442          55.000          48.000
 -18782860.04143 -14625087.88842  21551930.972    21551934.365    21551929.585
      2028.506        1580.654          56.000          49.000
 -14925496.82243 -11568378.27942  22456959.134    22456963.148    22456958.081
     -1696.053       -1321.600          50.000          44.000
 04  2  1  0 11  0.0000000  0 10G 1G 3G20G22G31G15G11G14G25G23
  -2977715.12343  -1903281.42042  24485565.067    24485571.579    24485563.172
      3211.738        2502.653          46.000          39.000
 -14330556.45543 -10916716.10342  22769471.389    22769474.969    22769469.328
     -2845.318       -2217.131          50.000          42.000
  -4958123.22843  -3676067.18142  24382038.659    24382042.949    24382037.838
      1727.506        1346.109          44.000          39.000
   3321503.76343   2601162.30242  23850315.518    23850321.173    23850315.560
     -1851.952       -1443.079          48.000          41.000
 -19231150.34143 -14934242.04142  21843010.715    21843014.036    21843009.354
     -1121.119        -873.599          53.000          46.000
 -10785397.61043  -8347786.10142  22863330.470    22863336.190    22863328.167
     -2294.391       -1787.837          51.000          44.000
 -15185263.08843 -11782411.07942  22220797.121    22220800.275    22220796.711
      2798.813        2180.893          54.000          46.000
 -14564882.66243 -11338070.29942  21828327.209    21828329.971    21828326.039
     -2629.665       -2049.090          55.000          48.000
 -18843528.29843 -14672361.84042  21540385.503    21540389.979    21540384.932
      2015.294        1570.359          55.000          49.000
 -14874612.48043 -11528728.19342  22466642.148    22466646.990    22466640.327
     -1697.088       -1322.406          50.000          44.000
 04  2  1  0 11 30.0000000  0 10G 1G 3G20G22G31G15G11G14G25G23
  -3073983.76743  -1978295.89342  24467245.671    24467251.761    24467243.157
      3205.795        2498.022          45.000          39.000
 -14245154.67443 -10850169.33442  22785720.849    22785725.699    22785719.959
     -2848.437       -2219.561          49.000          42.000
  -5009958.40843  -3716458.22242  24372175.026    24372180.281    24372174.009
      1727.919        1346.430          45.000          39.000
   3377050.19243   2644445.15742  23860888.498    23860890.551    23860887.829
     -1851.347       -1442.608          49.000          42.000
 -19197311.26643 -14907873.96842  21849449.582    21849454.255    21849448.542
     -1135.010        -884.423          52.000          46.000
 -10716420.44043  -8294037.72242  22876456.359    22876461.583    22876455.386
     -2304.295       -1795.554          51.000          44.000
 -15269129.45443 -11847761.48742  22204838.798    22204840.836    22204837.201
      2792.093        2175.657          54.000          46.000
 -14485893.97743 -11276520.71642  21843358.194    21843361.048    21843357.449
     -2636.325       -2054.279          55.000          47.000
 -18903791.56243 -14719320.20342  21528918.139    21528921.807    21528917.136
      2002.191        1560.149          55.000          49.000
 -14823690.71543 -11489048.91642  22476332.148    22476336.932    22476330.721
     -1697.802       -1322.962          50.000          44.000
 04  2  1  0 12  0.0000000  0 10G 1G 3G20G22G31G15G11G14G25G23
  -3170062.31743  -2053162.22542  24448961.536    24448970.080    24448960.728
      3199.219        2492.898          45.000          38.000
 -14159649.92143 -10783542.32342  22801992.783    22801998.887    22801991.084
     -2852.011       -2222.346          50.000          43.000
  -5061798.64243  -3756853.20542  24362309.300    24362316.470    24362307.880
      1727.801        1346.338          46.000          39.000
   3432594.86343   2687726.66242  23871456.423    23871458.312    23871455.774
     -1851.760       -1442.930          49.000          42.000
 -19163042.44143 -14881171.02442  21855970.888    21855975.876    21855969.887
     -1149.646        -895.828          52.000          46.000
 -10647132.99743  -8240047.58442  22889641.547    22889647.347    22889639.447
     -2314.978       -1803.879          50.000          44.000
 -15352782.48343 -11912945.65042  22188919.587    22188921.936    22188918.024
      2784.588        2169.809          53.000          46.000
 -14406692.14643 -11214805.02442  21858429.592    21858432.815    21858428.807
     -2643.784       -2060.091          54.000          47.000
 -18963649.99343 -14765963.12842  21517527.716    21517531.551    21517526.881
      1988.289        1549.316          56.000          49.000
 -14772734.28843 -11449342.64842  22486029.172    22486033.692    22486028.432
     -1699.126       -1323.994          50.000          44.000
 04  2  1  0 12 30.0000000  0 10G 1G 3G20G22G31G15G11G14G25G23
  -3265944.64043  -2127875.64842  24430715.275    24430722.532    24430714.583
      3192.711        2487.827          43.000          38.000
 -14074040.68843 -10716833.91542  22818285.508    22818289.299    22818284.544
     -2855.417       -2225.000          50.000          43.000
  -5113639.90143  -3797249.02342  24352444.784    24352449.984    24352443.419
      1727.913        1346.426          45.000          39.000
   3488142.45443   2731010.47742  23882027.955    23882032.340    23882026.483
     -1851.655       -1442.848          49.000          42.000
 -19128341.57043 -14854131.41542  21862574.855    21862578.913    21862573.489
     -1163.983        -907.000          53.000          46.000
 -10577531.63643  -8185812.83842  22902887.041    22902891.624    22902884.593
     -2325.198       -1811.842          51.000          44.000
 -15436215.33943 -11977958.25042  22173042.432    22173044.668    22173041.282
      2777.300        2164.130          53.000          46.000
 -14327275.58943 -11152922.03042  21873542.547    21873545.082    21873540.721
     -2650.799       -2065.558          54.000          47.000
 -19023096.43443 -14812285.02542  21506215.458    21506218.906    21506214.273
      1974.576        1538.631          56.000          49.000
 -14721738.64343 -11409605.81342  22495733.272    22495737.817    22495731.990
     -1700.617       -1325.156          50.000          43.000
 04  2  1  0 13  0.0000000  0 10G 1G 3G20G22G31G15G11G14G25G23
  -3361633.66643  -2202438.40542  24412507.629    24412515.123    24412506.971
      3187.502        2483.768          44.000          38.000
 -13988334.49443 -10650049.94342  22834593.445    22834598.296    22834592.950
     -2857.751       -2226.819          50.000          43.000
  -5165487.51143  -3837649.74342  24342579.124    24342583.913    24342577.126
      1729.358        1347.552          45.000          39.000
   3543688.89543   2774293.37042  23892598.372    23892601.715    23892596.352
     -1850.380       -1441.854          50.000          42.000
 -19093215.40843 -14826760.41742  21869259.100    21869263.761    21869257.809
     -1177.160        -917.267          52.000          46.000
 -10507621.59943  -8131337.56342  22916189.449    22916194.455    22916188.236
     -2334.641       -1819.201          50.000          44.000
 -15519430.20443 -12042800.99342  22157207.600    22157209.577    22157205.839
      2771.028        2159.243          54.000          46.000
 -14247651.15443 -11090877.05742  21888693.816    21888697.451    21888692.578
     -2656.720       -2070.171          53.000          47.000
 -19082132.42243 -14858287.07742  21494981.171    21494984.580    21494979.938
      1961.843        1528.709          56.000          49.000
 -14670708.29843 -11369841.94842  22505443.181    22505448.453    22505441.899
     -1700.675       -1325.201          49.000          44.000
 04  2  1  0 13 30.0000000  0 10G 1G 3G20G22G31G15G11G14G25G23
  -3457124.72343  -2276846.92442  24394336.051    24394342.526    24394334.561
      3180.288        2478.146          44.000          39.000
 -13902531.34343 -10583190.43142  22850920.384    22850926.558    22850919.468
     -2861.208       -2229.513          50.000          43.000
  -5217338.95443  -3878053.44942  24332709.807    24332716.920    24332709.891
      1729.023        1347.291          44.000          39.000
   3599237.93643   2817578.25842  23903169.754    23903171.262    23903168.144
     -1851.189       -1442.485          50.000          42.000
 -19057663.00943 -14799057.28442  21876023.494    21876028.819    21876022.929
     -1191.691        -928.590          52.000          46.000
 -10437400.39643  -8076619.80342  22929552.686    22929557.855    22929551.566
     -2345.405       -1827.588          51.000          44.000
 -15602421.57543 -12107469.57842  22141414.470    22141417.801    22141414.479
      2763.145        2153.100          54.000          46.000
 -14167818.41343 -11028669.76042  21903885.670    21903889.281    21903884.401
     -2663.949       -2075.804          54.000          47.000
 -19140752.10643 -14903964.74442  21483825.575    21483829.946    21483824.965
      1947.559        1517.578          55.000          49.000
 -14619639.97743 -11330048.47242  22515161.633    22515166.437    22515160.949
     -1702.311       -1326.476          50.000          44.000
 04  2  1  0 14  0.0000000  0 10G 1G 3G20G22G31G15G11G14G25G23
  -3552418.46643  -2351101.68142  24376202.554    24376209.149    24376201.086
      3173.018        2472.482          45.000          39.000
 -13816636.13643 -10516259.17742  22867266.170    22867272.765    22867265.045
     -2864.895       -2232.386          49.000          43.000
  -5269196.88743  -3918462.21442  24322844.193    24322848.680    24322842.671
      1728.387        1346.795          45.000          39.000
   3654787.67243   2860863.71742  23913738.061    23913741.117    23913737.375
     -1851.918       -1443.053          48.000          41.000
 -19021688.55443 -14771025.28742  21882869.840    21882874.236    21882869.130
     -1206.365        -940.025          53.000          46.000
 -10366870.67043  -8021661.63242  22942973.585    22942979.583    22942972.629
     -2356.377       -1836.138          51.000          44.000
 -15685189.16943 -12171963.80442  22125664.431    22125667.119    22125663.456
      2754.958        2146.721          54.000          46.000
 -14087782.08743 -10966303.83442  21919116.349    21919119.348    21919115.539
     -2671.542       -2081.721          54.000          47.000
 -19198955.01343 -14949317.64742  21472750.357    21472754.052    21472749.428
      1932.970        1506.210          56.000          49.000
 -14568535.34543 -11290226.73942  22524886.113    22524890.993    22524885.361
     -1704.171       -1327.925          50.000          44.000
 04  2  1  0 14 30.0000000  0 10G 1G 3G20G22G31G15G11G14G25G23
  -3647512.91443  -2425201.19442  24358106.272    24358113.899    24358105.065
      3166.510        2467.410          45.000          40.000
 -13730651.43643 -10449258.20242  22883628.055    22883635.488    22883627.657
     -2867.466       -2234.389          49.000          43.000
  -5321061.62743  -3958876.28542  24312972.722    24312979.773    24312971.495
      1728.976        1347.254          44.000          39.000
   3710339.10943   2904150.49742  23924310.831    23924313.752    23924310.041
     -1851.595       -1442.801          48.000          42.000
 -18985293.92343 -14742665.87142  21889795.676    21889800.480    21889794.426
     -1220.098        -950.726          52.000          46.000
 -10296032.99243  -7966463.51742  22956454.569    22956458.512    22956452.448
     -2366.321       -1843.886          50.000          44.000
 -15767729.78843 -12236281.15742  22109957.622    22109960.822    22109956.443
      2747.566        2140.961          54.000          46.000
 -14007544.31243 -10903780.92342  21934385.379    21934388.237    21934384.220
     -2677.830       -2086.621          54.000          47.000
 -19256738.00243 -14994343.33542  21461754.536    21461758.386    21461753.322
      1919.149        1495.441          55.000          49.000
 -14517394.11743 -11250376.45642  22534618.489    22534622.878    22534617.203
     -1705.338       -1328.835          50.000          44.000
 04  2  1  0 15  0.0000000  0 10G 1G 3G20G22G31G15G11G14G25G23
  -3742402.87943  -2499141.34242  24340049.112    24340056.261    24340047.821
      3159.830        2462.205          45.000          40.000
 -13644576.68443 -10382187.05542  22900008.724    22900015.276    22900006.920
     -2870.483       -2236.740          50.000          43.000
  -5372930.05243  -3999293.22342  24303103.735    24303110.062    24303102.101
      1729.353        1347.548          44.000          39.000
   3765896.44143   2947441.85242  23934882.449    23934887.380    23934881.976
     -1851.814       -1442.972          49.000          42.000
 -18948477.69643 -14713977.94742  21896802.225    21896806.309    21896800.436
     -1234.044        -961.593          53.000          46.000
 -10224884.69343  -7911023.35642  22969992.715    22969998.354    22969991.920
     -2376.638       -1851.926          51.000          44.000
 -15850037.58543 -12300417.08742  22094294.838    22094297.977    22094293.737
      2739.846        2134.945          53.000          46.000
 -13927103.97243 -10841100.17542  21949692.440    21949695.980    21949691.435
     -2684.552       -2091.859          54.000          47.000
 -19314094.59043 -15039036.76242  21450839.832    21450843.920    21450838.926
      1904.982        1484.402          55.000          49.000
 -14466212.45443 -11210494.68042  22544357.686    22544363.816    22544356.549
     -1706.615       -1329.830          50.000          44.000
 04  2  1  0 15 30.0000000  0 10G 1G 3G20G22G31G15G11G14G25G23
  -3837092.46643  -2572925.35842  24322031.126    24322037.412    24322028.720
      3153.824        2457.525          46.000          40.000
 -13558420.13343 -10315052.15742  22916403.408    22916409.515    22916402.535
     -2872.285       -2238.144          50.000          43.000
  -5424808.40943  -4039717.92842  24293233.746    24293235.811    24293231.544
      1730.074        1348.110          47.000          39.000
   3821454.61443   2990733.86042  23945454.312    23945458.099    23945453.184
     -1850.985       -1442.326          48.000          41.000
 -18911247.66443 -14684967.57942  21903886.597    21903890.334    21903885.403
     -1246.980        -971.673          52.000          46.000
 -10153432.11843  -7855346.08942  22983590.010    22983595.133    22983588.901
     -2385.845       -1859.100          50.000          44.000
 -15932115.67143 -12364374.03042  22078676.257    22078679.121    22078674.761
      2732.914        2129.543          54.000          46.000
 -13846469.17543 -10778267.89842  21965037.202    21965039.551    21965035.737
     -2690.105       -2096.186          54.000          47.000
 -19371027.64143 -15083400.15542  21440005.906    21440009.887    21440004.965
      1891.663        1474.023          55.000          49.000
 -14414995.71143 -11170585.56342  22554103.741    22554109.588    22554102.265
     -1706.948       -1330.089          49.000          44.000
 04  2  1  0 16  0.0000000  0 10G 1G 3G20G22G31G15G11G14G25G23
  -3931575.97743  -2646548.78042  24304052.399    24304057.879    24304050.073
      3145.842        2451.305          46.000          40.000
 -13472180.80843 -10247852.75842  22932816.017    22932820.431    22932813.332
     -2876.266       -2241.246          50.000          43.000
  -5476693.26743  -4080147.66942  24283359.295    24283363.110    24283358.389
      1729.132        1347.376          47.000          39.000
   3877018.08243   3034030.00142  23956026.463    23956030.475    23956027.393
     -1852.609       -1443.591          47.000          41.000
 -18873602.00343 -14655633.34042  21911050.562    21911054.546    21911049.826
     -1262.050        -983.415          53.000          46.000
 -10081671.72143  -7799428.98242  22997245.326    22997250.856    22997243.559
     -2397.563       -1868.231          49.000          43.000
 -16013957.18243 -12428146.61642  22063101.542    22063104.609    22063101.113
      2723.792        2122.435          53.000          46.000
 -13765638.33343 -10715282.86342  21980417.846    21980421.360    21980417.182
     -2697.894       -2102.255          53.000          47.000
 -19427530.55543 -15127428.38342  21429254.019    21429257.191    21429252.815
      1875.956        1461.784          56.000          49.000
 -14363739.49843 -11130645.70142  22563857.561    22563863.172    22563856.497
     -1709.501       -1332.079          49.000          44.000
 04  2  1  0 16 30.0000000  0 10G 1G 3G20G22G31G15G11G14G25G23
  -4025854.95443  -2720012.83642  24286112.062    24286114.939    24286109.751
      3139.369        2446.262          46.000          39.000
 -13385864.53643 -10180593.41142  22949239.876    22949246.649    22949239.111
     -2878.245       -2242.788          49.000          43.000
  -5528588.16843  -4120585.26142  24273483.875    24273486.982    24273481.984
      1730.125        1348.149          46.000          39.000
   3932584.29043   3077328.30842  23966602.436    23966605.452    23966601.484
     -1852.049       -1443.155          49.000          42.000
 -18835545.94343 -14625979.31242  21918293.414    21918296.232    21918291.952
     -1275.193        -993.657          53.000          46.000
 -10009607.35843  -7743275.01842  23010958.303    23010965.842    23010955.582
     -2407.069       -1875.638          49.000          43.000
 -16095562.62543 -12491735.26642  22047573.287    22047575.683    22047571.724
      2716.254        2116.561          53.000          46.000
 -13684617.03443 -10652149.42742  21995835.808    21995838.947    21995834.924
     -2703.633       -2106.727          54.000          47.000
 -19483603.47543 -15171121.56242  21418583.748    21418587.679    21418582.501
      1862.008        1450.915          56.000          49.000
 -14312446.78343 -11090677.40542  22573618.953    22573624.435    22573617.197
     -1710.451       -1332.819          50.000          44.000
 04  2  1  0 17  0.0000000  0 10G 1G 3G20G22G31G15G11G14G25G23
  -4119927.63443  -2793316.13642  24268207.472    24268215.168    24268207.767
      3132.056        2440.563          46.000          39.000
 -13299474.25643 -10113276.38642  22965679.887    22965685.178    22965677.339
     -2881.275       -2245.149          50.000          43.000
  -5580493.81843  -4161031.20242  24263607.310    24263611.973    24263605.490
      1729.788        1347.887          47.000          40.000
   3988153.94343   3120629.29342  23977177.647    23977180.468    23977176.618
     -1853.043       -1443.930          48.000          42.000
 -18797081.76343 -14596007.26542  21925611.943    21925616.056    21925611.053
     -1289.637       -1004.912          53.000          46.000
  -9937239.80143  -7686884.78642  23024729.622    23024735.920    23024727.978
     -2417.856       -1884.044          49.000          43.000
 -16176929.74043 -12555138.20342  22032089.726    22032091.749    22032088.248
      2707.668        2109.871          54.000          46.000
 -13603407.65443 -10588869.42142  22011290.420    22011292.802    22011289.222
     -2710.680       -2112.218          54.000          47.000
 -19539243.12443 -15214477.11842  21407995.626    21407999.390    21407994.577
      1846.872        1439.121          56.000          49.000
 -14261117.25143 -11050680.40542  22583385.616    22583391.344    22583384.195
     -1712.372       -1334.316          49.000          44.000
 04  2  1  0 17 30.0000000  0 10G 1G 3G20G22G31G15G11G14G25G23
  -4213786.62143  -2866452.96042  24250347.915    24250353.914    24250347.544
      3125.313        2435.309          46.000          39.000
 -13213007.00743 -10045899.39642  22982134.223    22982139.261    22982133.527
     -2883.051       -2246.533          49.000          43.000
  -5632404.94243  -4201481.40742  24253726.740    24253733.543    24253725.755
      1730.760        1348.644          45.000          39.000
   4043733.14843   3163937.69242  23987753.498    23987755.734    23987753.757
     -1852.667       -1443.637          48.000          42.000
 -18758205.85543 -14565714.38642  21933009.177    21933014.307    21933008.195
     -1302.573       -1014.992          51.000          46.000
  -9864563.96743  -7630254.34142  23038560.401    23038565.350    23038558.702
     -2427.348       -1891.440          50.000          43.000
 -16258050.07643 -12618348.83742  22016652.408    22016655.350    22016651.220
      2700.361        2104.177          53.000          46.000
 -13522006.98743 -10525440.36242  22026780.942    22026783.117    22026779.183
     -2716.147       -2116.478          54.000          47.000
 -19594441.60043 -15257488.90242  21397491.829    21397495.373    21397490.957
      1832.993        1428.306          56.000          49.000
 -14209744.71743 -11010649.91342  22593162.277    22593166.214    22593161.270
     -1712.610       -1334.501          49.000          43.000
 04  2  1  0 18  0.0000000  0 10G 1G 3G20G22G31G15G11G14G25G23
  -4307436.61043  -2939426.91242  24232526.344    24232533.485    24232525.741
      3118.824        2430.252          44.000          38.000
 -13126471.86143  -9978469.49842  22998601.196    22998607.710    22998600.202
     -2885.239       -2248.238          49.000          43.000
  -5684327.98943  -4241940.92642  24243847.944    24243851.004    24243846.193
      1731.564        1349.271          46.000          39.000
   4099316.57743   3207249.39642  23998330.728    23998334.815    23998329.575
     -1852.342       -1443.383          48.000          42.000
 -18718926.62343 -14535107.23742  21940483.719    21940488.584    21940483.067
     -1315.405       -1024.991          52.000          46.000
  -9791586.92943  -7573389.18742  23052446.291    23052452.879    23052444.965
     -2436.957       -1898.927          50.000          43.000
 -16338926.95343 -12681369.76842  22001262.188    22001265.252    22001261.519
      2692.387        2097.964          54.000          47.000
 -13440423.58643 -10461868.91542  22042304.849    22042307.723    22042304.002
     -2721.793       -2120.878          54.000          47.000
 -19649202.30343 -15300159.57842  21387071.595    21387074.911    21387070.268
      1818.568        1417.066          56.000          49.000
 -14158335.21943 -10970590.60842  22602945.768    22602950.560    22602944.179
     -1713.840       -1335.460          50.000          44.000
 04  2  1  0 18 30.0000000  0 10G 1G 3G20G22G31G15G11G14G25G23
  -4400876.93343  -3012237.49142  24214745.441    24214751.478    24214743.002
      3110.458        2423.734          44.000          38.000
 -13039872.53843  -9910989.58842  23015079.830    23015085.417    23015078.647
     -2888.264       -2250.595          49.000          43.000
  -5736264.37943  -4282410.86542  24233964.616    24233967.157    24233963.487
      1730.764        1348.647          47.000          39.000
   4154903.81543   3250564.09142  24008908.365    24008911.978    24008907.995
     -1853.548       -1444.323          47.000          41.000
 -18679247.19643 -14504188.23642  21948034.854    21948038.897    21948033.023
     -1329.813       -1036.218          52.000          46.000
  -9718310.22643  -7516290.52742  23066391.082    23066396.933    23066389.501
     -2448.143       -1907.644          50.000          43.000
 -16419558.78043 -12744199.76342  21985918.588    21985921.137    21985917.547
      2683.125        2090.747          54.000          47.000
 -13358660.75043 -10398157.64442  22057864.434    22057866.938    22057862.892
     -2728.853       -2126.379          54.000          47.000
 -19703523.20743 -15342487.53542  21376733.915    21376738.001    21376733.128
      1802.840        1404.810          56.000          49.000
 -14106889.24643 -10930502.86742  22612735.478    22612740.798    22612734.111
     -1716.042       -1337.175          50.000          44.000
 04  2  1  0 19  0.0000000  0 10G 1G 3G20G22G31G15G11G14G25G23
  -4494103.08843  -3084881.16342  24197004.584    24197011.880    24197003.081
      3103.260        2418.125          44.000          39.000
 -12953208.93243  -9843459.59242  23031572.741    23031576.685    23031570.047
     -2890.156       -2252.070          48.000          42.000
  -5788211.77943  -4322889.34542  24224079.977    24224082.600    24224077.983
      1731.063        1348.880          46.000          39.000
   4210498.54043   3293884.59242  24019486.657    24019490.132    24019485.965
     -1853.732       -1444.466          46.000          41.000
 -18639166.92943 -14472956.90942  21955661.977    21955665.226    21955660.163
     -1343.114       -1046.582          52.000          46.000
  -9644731.71943  -7458956.71542  23080392.584    23080398.225    23080391.492
     -2458.146       -1915.438          50.000          43.000
 -16499940.22443 -12806834.63142  21970622.690    21970625.268    21970621.402
      2674.685        2084.170          54.000          47.000
 -13276717.80843 -10334306.03742  22073457.727    22073459.910    22073456.079
     -2734.885       -2131.079          54.000          47.000
 -19757398.70243 -15384468.42742  21366481.525    21366485.549    21366481.017
      1787.996        1393.244          56.000          49.000
 -14055403.59743 -10890384.22242  22622533.065    22622536.936    22622531.756
     -1717.312       -1338.165          50.000          44.000
 04  2  1  0 19 30.0000000  0 10G 1G 3G20G22G31G15G11G14G25G23
  -4587111.87143  -3157355.44042  24179304.880    24179312.196    24179304.466
      3096.697        2413.011          43.000          39.000
 -12866482.20343  -9775880.41942  23048076.170    23048081.952    23048074.877
     -2891.782       -2253.337          48.000          42.000
  -5840168.98543  -4363375.45342  24214191.223    24214194.872    24214190.705
      1732.203        1349.768          45.000          39.000
   4266102.87343   3337212.55942  24030067.819    24030070.996    24030067.321
     -1853.544       -1444.320          46.000          40.000
 -18598686.41943 -14441413.70042  21963365.999    21963369.178    21963363.796
     -1355.981       -1056.608          53.000          46.000
  -9570850.64443  -7401387.12042  23094452.290    23094458.003    23094451.074
