     2.10           OBSERVATION DATA    G (GPS)             RINEX VERSION / TYPE
teqc  2005Sep1                          20060607 01:04:30UTCPGM / RUN BY / DATE
Linux 2.4.20-8|Pentium IV|gcc|Linux|486/DX+                 COMMENT
ALGO CACS-ACP   883160   ALGONQUIN PARK  ONT  CANADA        MARKER NAME
40104M002                                                   MARKER NUMBER
-Unknown-           GEOD. SURVEY, NATURAL RESOURCES CANADA  OBSERVER / AGENCY
1103                AOA BENCHMARK ACT   3.3.32.2N           REC # / TYPE / VERS
386                 AOAD/M_T        NONE                    ANT # / TYPE
   918129.4000 -4346071.2000  4561977.8000                  APPROX POSITION XYZ
        0.1000        0.0000        0.0000                  ANTENNA: DELTA H/E/N
     1     1                                                WAVELENGTH FACT L1/2
     7    L1    L2    C1    P2    P1    S1    S2            # / TYPES OF OBSERV
    30.0000                                                 INTERVAL
L1 PHASE CENTRE  .110m ABOVE ARP                            COMMENT
L2 PHASE CENTRE  .128m ABOVE ARP                            COMMENT
where ARP is the Antenna Reference Point for HI measurement COMMENT
    P1 =    P1  TurboRogue; =    Y1  Benchmark              COMMENT
    L1 = L1(CA)                                             COMMENT
    P2 =    P2  TurboRogue; =    Y2  Benchmark              COMMENT
    L2 = L2(P2) TurboRogue; = L2(Y2) Benchmark              COMMENT
 SNR is mapped to RINEX snr flag value [0-9]                COMMENT
  L1 & L2: min(max(int(snr_dBHz/6), 0), 9)                  COMMENT
  2006     6     7     0     0    0.0000000     GPS         TIME OF FIRST OBS
                                                            END OF HEADER
 06  6  7  0  0  0.0000000  0  9G20G 6G 1G16G25G13G23G 3G 7
  -8379122.508 5  -6529175.322 3  23044619.278    23044619.599    23044617.979
        33.000          23.800
  -3421115.454 3  -2665786.305 2  23940817.636    23940816.986    23940816.797
        23.800          17.000
  -9091601.247 5  -7084359.849 5  22487119.796    22487120.052    22487118.502
        34.300          32.000
 -22810495.657 7 -17774397.982 8  20236401.618    20236400.017    20236400.446
        43.500          50.500
 -14996780.857 7 -11685788.825 6  21600006.206    21600006.011    21600005.572
        42.900          38.400
  -8757285.645 4  -6823852.502 4  22931804.667    22931804.240    22931804.420
        29.900          26.800
 -20889919.343 7 -16277848.634 7  20689229.594    20689225.785    20689228.290
        46.300          43.400
  -3843024.647 3  -2994560.443 1  23796436.087    23796439.457    23796436.350
        21.100          11.000
 -12788011.485 6  -9964671.774 5  22073935.972    22073937.172    22073934.740
        37.100          33.800
 06  6  7  0  0 30.0000000  0  9G20G 6G 1G16G25G13G23G 3G 7
  -8301483.547 5  -6468677.455 3  23059393.728    23059393.796    23059392.468
        33.600          21.100
  -3365155.193 3  -2622180.902 3  23951466.265    23951466.665    23951465.668
        23.800          21.600
  -8999081.124 5  -7012266.290 5  22504725.465    22504726.244    22504724.212
        33.200          32.700
 -22814864.079 7 -17777801.930 8  20235570.319    20235568.610    20235569.146
        43.500          50.300
 -14944355.028 7 -11644937.551 6  21609982.401    21609982.386    21609981.849
        42.700          37.700
  -8852564.570 5  -6898095.809 4  22913673.416    22913673.016    22913673.433
        30.200          26.200
 -20934692.339 7 -16312736.704 7  20680709.397    20680705.497    20680708.127
        45.100          42.700
  -3954052.735 3  -3081075.654 2  23775308.750    23775311.168    23775308.182
        22.100          17.800
 -12831200.647 6  -9998325.650 5  22065717.050    22065718.129    22065716.117
        38.000          33.000
 06  6  7  0  1  0.0000000  0  9G20G 6G 1G16G25G13G23G 3G 7
  -8223501.728 5  -6407912.450 3  23074232.884    23074233.432    23074231.779
        34.400          23.000
  -3308744.420 3  -2578224.464 3  23962200.151    23962201.130    23962199.643
        22.100          23.400
  -8906262.444 5  -6939940.088 5  22522388.377    22522388.926    22522387.105
        33.100          32.300
 -22818719.229 7 -17780805.934 8  20234836.486    20234834.898    20234835.346
        43.100          50.100
 -14891712.940 7 -11603917.787 6  21620000.298    21619999.809    21619999.533
        43.000          37.300
  -8947603.333 4  -6972151.942 4  22895588.420    22895587.416    22895588.035
        29.700          24.900
 -20978959.532 7 -16347230.640 7  20672285.649    20672281.668    20672284.414
        44.900          42.700
  -4064994.465 2  -3167523.561 3  23754197.617    23754199.648    23754196.550
        17.000          18.600
 -12873917.772 6 -10031611.706 5  22057588.715    22057589.210    22057587.465
        37.900          33.500
 06  6  7  0  1 30.0000000  0  9G20G 6G 1G16G25G13G23G 3G 7
  -8145180.044 5  -6346882.618 4  23089136.998    23089137.723    23089135.754
        32.600          24.200
  -3251885.164 3  -2533918.543 3  23973020.549    23973021.062    23973020.173
        19.900          21.600
  -8813146.958 5  -6867382.618 5  22540107.977    22540108.233    22540106.601
        33.000          31.600
 -22822062.063 7 -17783410.733 8  20234200.287    20234198.762    20234199.200
        43.400          50.300
 -14838854.942 7 -11562729.760 6  21630058.827    21630058.198    21630058.036
        42.600          37.500
  -9042399.600 4  -7046019.134 4  22877549.243    22877547.926    22877549.045
        29.700          25.600
 -21022719.121 7 -16381329.039 7  20663958.617    20663954.675    20663957.272
        45.200          43.100
  -4175846.973 3  -3253901.944 3  23733104.211    23733104.928    23733102.480
        19.900          21.600
 -12916161.214 6 -10064528.643 5  22049550.346    22049550.644    22049548.986
        38.100          33.200
 06  6  7  0  2  0.0000000  0  9G20G 6G 1G16G25G13G23G 3G 7
  -8066521.677 5  -6285590.423 4  23104105.474    23104106.182    23104104.220
        33.500          24.900
  -3194578.922 3  -2489264.293 3  23983925.397    23983925.501    23983924.703
        23.400          19.900
  -8719736.289 5  -6794595.119 5  22557883.473    22557884.037    22557882.174
        34.800          30.800
 -22824893.237 7 -17785616.833 8  20233661.922    20233660.259    20233660.730
        42.900          50.000
 -14785781.215 6 -11521373.647 6  21640158.374    21640158.076    21640157.743
        41.500          37.200
  -9136951.029 5  -7119695.558 4  22859556.874    22859555.919    22859556.526
        31.000          26.500
 -21065968.953 7 -16415030.239 7  20655728.620    20655724.860    20655727.331
        47.200          44.700
  -4286607.460 4  -3340208.647 3  23712026.249    23712027.682    23712024.790
        24.200          19.300
 -12957929.299 5 -10097075.159 5  22041601.901    22041602.736    22041600.775
        35.800          33.100
 06  6  7  0  2 30.0000000  0  9G20G 6G 1G16G25G13G23G 3G 7
  -7987529.603 5  -6224038.196 3  23119137.270    23119137.740    23119136.135
        33.200          23.400
  -3136827.660 3  -2444263.292 3  23994916.003    23994914.938    23994915.003
        23.000          19.900
  -8626032.092 5  -6721578.901 5  22575714.519    22575715.233    22575713.592
        34.600          30.100
 -22827213.541 7 -17787424.854 8  20233220.240    20233218.731    20233219.145
        43.000          49.800
 -14732492.013 6 -11479849.622 6  21650298.966    21650298.809    21650298.325
        41.200          37.700
  -9231255.084 5  -7193179.203 4  22841611.338    22841610.382    22841611.047
        31.800          26.200
 -21108707.211 7 -16448332.791 7  20647596.087    20647592.067    20647594.676
        47.200          44.400
  -4397272.869 4  -3426441.227 3  23690967.159    23690968.861    23690965.837
        25.600          19.900
 -12999220.178 6 -10129249.841 5  22033744.558    22033745.560    22033743.211
        36.000          33.500
 06  6  7  0  3  0.0000000  0  9G20G 6G 1G16G25G13G23G 3G 7
  -7908206.817 5  -6162228.276 3  23134231.561    23134232.176    23134230.455
        32.700          22.600
  -3078633.061 3  -2398916.815 2  24005988.747    24005988.917    24005988.414
        22.600          17.800
  -8532036.082 5  -6648335.297 5  22593601.243    22593602.240    22593600.270
        33.600          31.100
 -22829023.515 7 -17788835.208 8  20232875.941    20232874.261    20232874.773
        43.200          49.900
 -14678987.558 6 -11438157.868 6  21660480.645    21660480.403    21660479.955
        41.100          37.700
  -9325308.796 5  -7266467.809 4  22823713.483    22823712.321    22823713.140
        31.000          25.900
 -21150931.776 7 -16481235.061 7  20639560.808    20639557.060    20639559.461
        47.300          44.500
  -4507840.173 4  -3512597.366 3  23669926.736    23669928.470    23669925.452
        27.100          19.300
 -13040032.582 6 -10161051.687 5  22025977.421    22025978.992    22025976.678
        36.100          33.100
 06  6  7  0  3 30.0000000  0  9G20G 6G 1G16G25G13G23G 3G 7
  -7828556.205 5  -6100162.911 3  23149389.025    23149389.103    23149387.734
        31.300          23.400
  -3019996.996 3  -2353226.355 3  24017147.472    24017147.383    24017146.851
        23.000          18.600
  -8437749.988 5  -6574865.653 4  22611543.198    22611544.256    22611542.233
        34.500          29.700
 -22830323.847 7 -17789848.447 8  20232628.534    20232626.904    20232627.303
        43.200          49.900
 -14625268.030 6 -11396298.518 6  21670703.161    21670702.992    21670702.478
        40.700          37.400
  -9419109.458 5  -7339559.202 4  22805864.322    22805862.730    22805863.875
        32.000          27.400
 -21192640.666 7 -16513735.501 7  20631623.961    20631620.115    20631622.610
        47.400          44.400
  -4618306.357 3  -3598674.721 2  23648905.996    23648907.189    23648904.757
        23.800          17.800
 -13080364.609 6 -10192479.210 5  22018302.950    22018303.978    22018302.052
        36.300          32.400
 06  6  7  0  4  0.0000000  0  9G20G 6G 1G16G25G13G23G 3G 7
  -7748580.923 5  -6037844.549 3  23164607.742    23164608.155    23164606.405
        30.800          21.600
  -2960921.070 3  -2307193.135 3  24028389.869    24028389.310    24028388.869
        22.100          18.600
  -8343175.497 5  -6501171.285 5  22629539.895    22629541.133    22629539.178
        33.500          30.100
 -22831115.419 7 -17790465.249 8  20232477.751    20232476.319    20232476.505
        42.700          49.900
 -14571333.713 6 -11354271.799 6  21680966.378    21680966.314    21680965.753
        40.600          37.600
  -9512655.075 5  -7412451.883 4  22788063.073    22788061.796    22788062.706
        33.100          27.600
 -21233832.084 7 -16545832.723 7  20623785.450    20623781.556    20623784.186
        47.500          44.200
  -4728668.557 4  -3684671.063 2  23627904.159    23627905.668    23627903.371
        24.900          16.100
 -13120214.576 6 -10223531.110 5  22010720.013    22010720.593    22010718.811
        36.600          32.600
 06  6  7  0  4 30.0000000  0  9G20G 6G 1G16G25G13G23G 3G 7
  -7668284.317 5  -5975275.822 3  23179887.216    23179887.897    23179886.013
        31.600          21.600
  -2901407.331 4  -2260818.761 3  24039715.079    24039714.553    24039714.385
        24.600          20.500
  -8248314.301 5  -6427253.516 4  22647591.696    22647592.786    22647590.806
        33.800          29.900
 -22831399.092 7 -17790686.285 8  20232423.681    20232422.323    20232422.555
        42.600          50.000
 -14517184.802 6 -11312077.862 6  21691270.728    21691270.553    21691270.014
        41.000          37.500
  -9605942.791 5  -7485143.589 4  22770310.862    22770309.605    22770310.450
        32.400          28.100
 -21274504.333 7 -16577525.397 7  20616045.938    20616042.030    20616044.542
        47.200          44.700
  -4838924.013 4  -3770584.246 2  23606923.037    23606924.241    23606922.319
        25.300          17.000
 -13159581.279 6 -10254206.445 5  22003228.827    22003229.219    22003227.406
        36.400          32.400
 06  6  7  0  5  0.0000000  0  9G20G 6G 1G16G25G13G23G 3G 7
  -7587668.905 4  -5912458.675 3  23195227.674    23195228.713    23195226.590
        29.900          21.600
  -2841457.479 3  -2214104.563 3  24051122.960    24051122.660    24051122.624
        22.600          21.600
  -8153168.108 5  -6353113.660 4  22665696.912    22665698.443    22665696.347
        34.100          29.700
 -22831175.671 7 -17790512.186 8  20232466.253    20232464.885    20232465.106
        42.800          50.000
 -14462821.581 6 -11269716.931 6  21701615.576    21701615.545    21701614.847
        40.800          37.400
  -9698970.090 5  -7557632.363 4  22752608.080    22752607.344    22752607.723
        32.000          28.800
 -21314655.365 7 -16608811.920 7  20608405.056    20608401.475    20608403.939
        47.400          44.600
  -4949069.440 3  -3856411.695 2  23585962.233    23585963.904    23585961.599
        23.000          16.100
 -13198462.661 6 -10284503.598 5  21995829.470    21995830.467    21995828.505
        37.000          32.100
 06  6  7  0  5 30.0000000  0  9G20G 6G 1G16G25G13G23G 3G 7
  -7506737.867 5  -5849395.584 3  23210628.784    23210629.354    23210627.613
        30.800          18.600
  -2781073.391 3  -2167051.995 3  24062613.559    24062613.710    24062612.536
        18.600          23.000
  -8057738.597 5  -6278753.051 5  22683857.204    22683858.302    22683856.275
        33.100          30.200
 -22830445.607 7 -17789943.295 8  20232604.979    20232603.746    20232603.875
        42.800          50.000
 -14408244.188 6 -11227189.116 6  21712001.308    21712001.449    21712000.656
        40.800          37.500
  -9791734.632 5  -7629916.418 4  22734954.920    22734954.586    22734954.804
        31.800          28.800
 -21354283.047 7 -16639690.631 7  20600864.231    20600860.626    20600863.015
        47.500          44.700
  -5059101.844 4  -3942151.036 2  23565024.355    23565025.529    23565023.548
        24.600          16.100
 -13236857.408 6 -10314421.560 5  21988523.943    21988523.926    21988522.651
        37.500          31.500
 06  6  7  0  6  0.0000000  0  9G20G 6G 1G16G25G13G23G 3G 7
  -7425494.588 5  -5786089.178 3  23226089.122    23226089.336    23226087.813
        31.500          19.900
  -2720256.729 3  -2119662.391 3  24074186.276    24074186.800    24074184.948
        19.900          23.000
  -7962027.593 5  -6204173.092 5  22702070.362    22702071.544    22702069.419
        32.700          30.800
 -22829210.183 7 -17788980.618 8  20232840.032    20232838.804    20232838.992
        43.000          50.000
 -14353453.003 6 -11184494.701 6  21722427.828    21722427.791    21722427.240
        40.700          37.100
  -9884233.906 5  -7701993.798 4  22717353.226    22717352.476    22717352.810
        31.800          28.400
 -21393385.732 7 -16670160.252 7  20593423.351    20593419.547    20593422.065
        47.600          44.400
  -5169018.214 4  -4027800.032 2  23544107.557    23544109.155    23544106.696
        24.600          17.000
 -13274764.052 6 -10343959.192 5  21981309.942    21981310.322    21981309.074
        37.900          31.500
 06  6  7  0  6 30.0000000  0  9G20G 6G 1G16G25G13G23G 3G 7
  -7343941.712 5  -5722541.537 3  23241608.066    23241608.867    23241606.827
        32.400          19.900
  -2659009.678 3  -2071937.406 3  24085841.499    24085841.049    24085840.437
        22.100          19.900
  -7866036.829 5  -6129375.140 4  22720337.377    22720337.787    22720336.002
        33.400          29.200
 -22827470.024 7 -17787624.639 8  20233171.098    20233169.873    20233170.141
        43.500          50.000
 -14298448.122 6 -11141633.771 6  21732895.232    21732894.642    21732894.288
        40.900          37.400
  -9976465.008 5  -7773862.147 4  22699802.008    22699801.620    22699801.843
        32.000          28.800
 -21431961.614 7 -16700219.373 7  20586082.644    20586078.833    20586081.327
        46.800          44.900
  -5278815.812 4  -4113356.466 3  23523213.515    23523215.135    23523212.763
        26.800          19.300
 -13312180.972 6 -10373115.197 5  21974189.785    21974190.333    21974188.804
        36.200          33.400
 06  6  7  0  7  0.0000000  0  9G20G 6G 1G16G25G13G23G 3G 7
  -7262082.597 5  -5658755.263 2  23257185.663    23257185.690    23257184.378
        32.700          17.800
  -2597333.889 3  -2023878.330 2  24097577.915    24097577.759    24097577.174
        23.400          17.800
  -7769768.017 5  -6054360.514 4  22738656.690    22738657.286    22738655.457
        31.800          29.500
 -22825225.864 7 -17785875.936 8  20233598.326    20233596.828    20233597.251
        43.600          50.700
 -14243229.891 7 -11098606.599 6  21743402.604    21743402.345    21743401.884
        42.000          37.200
 -10068425.573 5  -7845519.692 4  22682302.534    22682302.009    22682302.412
        32.300          27.900
 -21470008.575 7 -16729866.347 7  20578842.587    20578838.688    20578841.170
        46.700          44.500
  -5388491.766 4  -4198818.101 3  23502342.441    23502344.410    23502341.372
        24.200          18.600
 -13349106.633 6 -10401888.424 5  21967163.235    21967163.587    21967162.020
        38.800          33.800
 06  6  7  0  7 30.0000000  0  9G20G 6G 1G16G25G13G23G 3G 7
  -7179920.187 5  -5594732.637 3  23272820.753    23272820.487    23272819.160
        31.600          19.300
  -2535231.311 3  -1975486.691 2  24109396.035    24109394.794    24109394.996
        23.000          12.600
  -7673222.857 5  -5979130.565 5  22757028.314    22757029.419    22757027.246
        31.500          30.600
 -22822478.692 7 -17783735.266 8  20234121.188    20234119.599    20234120.014
        43.700          50.700
 -14187798.483 6 -11055413.314 6  21753950.940    21753950.607    21753950.238
        41.900          37.000
 -10160112.762 5  -7916964.236 4  22664854.878    22664854.494    22664854.676
        30.600          27.400
 -21507525.255 7 -16759100.118 7  20571703.607    20571699.434    20571702.130
        47.000          44.600
  -5498043.093 4  -4284182.640 3  23481495.731    23481497.325    23481495.022
        25.300          20.500
 -13385539.694 6 -10430277.789 5  21960230.127    21960230.844    21960229.069
        38.900          34.400
 06  6  7  0  8  0.0000000  0  9G20G 6G 1G16G25G13G23G 3G 7
  -7097457.597 5  -5530476.103 3  23288512.009    23288513.048    23288511.048
        30.800          19.900
  -2472703.829 3  -1926763.916 2  24121293.750    24121293.212    24121293.309
        23.000          16.100
  -7576403.149 5  -5903686.687 5  22775452.075    22775453.627    22775451.138
        31.300          30.400
 -22819229.337 7 -17781203.286 8  20234739.390    20234737.899    20234738.333
        43.500          50.700
 -14132154.129 6 -11012054.093 6  21764539.689    21764539.260    21764539.023
        41.600          36.600
 -10251524.309 5  -7988193.981 4  22647460.089    22647459.503    22647459.793
        31.600          28.400
 -21544509.509 7 -16787919.009 7  20564665.400    20564661.416    20564664.213
        46.900          44.400
  -5607466.632 4  -4369447.638 3  23460672.281    23460674.888    23460672.060
        26.500          21.100
 -13421478.803 6 -10458282.265 5  21953391.152    21953391.696    21953389.884
        38.600          34.100
 06  6  7  0  8 30.0000000  0  9G20G 6G 1G16G25G13G23G 3G 7
  -7014697.941 5  -5465988.126 3  23304261.514    23304261.741    23304260.087
        30.800          21.600
  -2409753.319 3  -1877711.544 2  24133272.974    24133273.046    24133272.278
        21.100          16.100
  -7479310.591 5  -5828030.205 5  22793927.760    22793929.911    22793927.177
        30.600          31.800
 -22815478.657 7 -17778280.661 8  20235453.266    20235451.549    20235452.104
        43.500          50.600
 -14076296.999 6 -10968529.071 6  21775168.896    21775168.602    21775168.225
        41.900          37.100
 -10342657.368 5  -8059206.777 4  22630118.442    22630117.543    22630117.926
        31.800          27.600
 -21580959.989 7 -16816321.981 7  20557728.967    20557725.110    20557727.857
        47.000          44.300
  -5716759.604 4  -4454610.900 2  23439873.994    23439876.485    23439874.288
        26.800          16.100
 -13456922.105 6 -10485900.392 5  21946646.580    21946647.021    21946645.287
        38.500          34.000
 06  6  7  0  9  0.0000000  0  9G20G 6G 1G16G25G13G23G 3G 7
  -6931644.277 5  -5401271.034 3  23320066.106    23320066.493    23320064.939
        30.800          21.600
  -2346381.596 3  -1828330.968 3  24145332.159    24145332.070    24145331.487
        22.600          19.300
  -7381947.015 5  -5752162.546 5  22812454.782    22812457.119    22812454.919
        31.500          30.100
 -22811227.598 7 -17774968.131 8  20236262.228    20236260.463    20236261.062
        43.700          50.500
 -14020227.352 6 -10924838.462 6  21785838.680    21785838.445    21785837.900
        41.500          37.000
 -10433509.403 5  -8130000.562 4  22612830.083    22612829.111    22612829.614
        32.300          28.100
 -21616874.612 7 -16844307.404 7  20550894.770    20550890.779    20550893.500
        47.000          44.300
  -5825918.809 4  -4539669.930 3  23419103.049    23419104.493    23419102.289
        26.500          19.900
 -13491868.555 6 -10513131.357 5  21939996.242    21939996.975    21939995.062
        38.700          34.600
 06  6  7  0  9 30.0000000  0  9G20G 6G 1G16G25G13G23G 3G 7
  -6848299.860 5  -5336327.396 3  23335925.525    23335926.353    23335924.594
        30.200          19.300
  -2282590.621 3  -1778623.720 3  24157472.276    24157471.403    24157470.963
        20.500          18.600
  -7284314.333 5  -5676085.165 4  22831034.686    22831036.406    22831034.238
        32.000          29.500
 -22806477.117 7 -17771266.441 8  20237166.189    20237164.433    20237165.050
        43.600          50.500
 -13963945.513 6 -10880982.510 6  21796548.752    21796548.279    21796548.054
        41.900          36.600
 -10524077.890 5  -8200573.359 4  22595594.903    22595594.145    22595594.579
        32.600          27.900
 -21652251.454 7 -16871873.777 7  20544162.947    20544158.800    20544161.462
        46.800          44.300
  -5934941.109 4  -4624622.270 3  23398356.693    23398358.243    23398355.892
        24.900          19.900
 -13526316.358 6 -10539973.769 5  21933441.089    21933441.692    21933440.142
        38.800          34.400
 06  6  7  0 10  0.0000000  0  9G20G 6G 1G16G25G13G23G 3G 7
  -6764667.997 4  -5271159.762 3  23351840.316    23351841.044    23351838.988
        29.900          20.500
  -2218382.447 3  -1728591.358 3  24169689.809    24169689.620    24169689.003
        19.300          18.600
  -7186414.136 5  -5599799.346 4  22849664.796    22849665.973    22849663.850
        31.300          28.600
 -22801228.029 7 -17767176.224 8  20238164.896    20238163.321    20238163.792
        43.800          50.500
 -13907451.674 6 -10836961.354 6  21807299.144    21807298.769    21807298.529
        41.900          36.800
 -10614360.381 5  -8270923.356 4  22578414.921    22578413.864    22578414.493
        32.400          28.400
 -21687088.824 7 -16899019.779 7  20537533.414    20537529.476    20537532.075
        46.800          44.400
  -6043823.544 4  -4709465.639 3  23377636.519    23377638.480    23377636.000
        25.600          20.500
 -13560264.439 6 -10566426.786 5  21926981.099    21926981.491    21926979.868
        38.700          34.600
 06  6  7  0 10 30.0000000  0  9G20G 6G 1G16G25G13G23G 3G 7
  -6680751.285 4  -5205770.163 3  23367809.245    23367809.921    23367807.927
        29.000          21.100
  -2153758.926 3  -1678235.327 3  24181987.290    24181987.325    24181986.561
        21.100          18.600
  -7088248.294 4  -5523306.536 4  22868345.463    22868346.340    22868344.243
        29.700          28.600
 -22795481.482 7 -17762698.377 8  20239258.361    20239256.868    20239257.286
        43.600          50.500
 -13850746.068 6 -10792775.196 6  21818089.914    21818089.703    21818089.280
        41.400          36.800
 -10704353.837 5  -8341048.103 4  22561289.974    22561288.915    22561289.477
        32.800          29.000
 -21721384.942 7 -16925744.026 7  20531007.023    20531003.193    20531005.712
        46.900          44.500
  -6152563.228 4  -4794197.796 3  23356943.357    23356945.700    23356943.415
        25.900          21.100
 -13593711.337 6 -10592489.274 5  21920615.776    21920616.651    21920614.863
        39.000          34.100
 06  6  7  0 11  0.0000000  0  9G20G 6G 1G16G25G13G23G 3G 7
  -6596552.750 5  -5140160.986 3  23383831.517    23383832.772    23383830.568
        30.200          22.100
  -2088722.052 3  -1627557.221 2  24194363.658    24194362.668    24194362.693
        23.000          17.000
  -6989818.655 5  -5446608.182 4  22887076.102    22887077.006    22887074.918
        30.100          28.100
 -22789238.364 7 -17757833.600 8  20240446.473    20240444.800    20240445.336
        43.600          50.500
 -13793828.907 6 -10748424.195 6  21828920.903    21828920.717    21828920.244
        41.400          36.600
 -10794056.135 5  -8410945.979 4  22544219.410    22544219.207    22544219.252
        32.600          29.700
 -21755138.479 7 -16952045.484 7  20524583.776    20524580.134    20524582.526
        46.800          44.700
  -6261157.409 4  -4878816.541 3  23336278.940    23336280.997    23336278.583
        27.100          21.100
 -13626655.816 6 -10618160.259 5  21914346.922    21914347.699    21914345.827
        39.100          34.800
 06  6  7  0 11 30.0000000  0  9G20G 6G 1G16G25G13G23G 3G 7
  -6512075.770 5  -5074334.827 3  23399907.682    23399907.961    23399906.098
        30.100          21.100
  -2023273.996 3  -1576558.676 2  24206817.628    24206816.720    24206816.842
        20.500          13.900
  -6891127.076 5  -5369705.701 4  22905856.760    22905857.347    22905855.335
        30.100          28.600
 -22782499.586 7 -17752582.587 8  20241728.645    20241727.073    20241727.584
        43.600          50.400
 -13736700.430 6 -10703908.522 6  21839792.109    21839791.806    21839791.433
        41.400          36.500
 -10883464.359 5  -8480614.720 4  22527205.917    22527205.374    22527205.659
        33.200          29.900
 -21788347.298 7 -16977922.492 7  20518264.398    20518260.688    20518263.133
        46.700          44.700
  -6369602.649 4  -4963319.277 3  23315642.469    23315644.849    23315642.245
        27.100          23.400
 -13659096.376 6 -10643438.577 5  21908174.086    21908174.417    21908172.719
        38.600          34.800
 06  6  7  0 12  0.0000000  0  9G20G 6G 1G16G25G13G23G 3G 7
  -6427323.570 5  -5008294.216 3  23416035.413    23416035.700    23416033.966
        30.200          22.100
  -1957416.658 3  -1525241.237 1  24219349.508    24219348.768    24219348.902
        19.900           9.000
  -6792175.356 5  -5292600.515 4  22924687.208    22924687.343    22924685.575
        30.600          28.600
 -22775266.219 7 -17746946.185 8  20243105.190    20243103.512    20243104.049
        43.500          50.300
 -13679360.877 6 -10659228.375 6  21850703.490    21850703.281    21850702.787
        40.700          36.500
 -10972576.063 5  -8550052.395 4  22510248.715    22510247.561    22510248.415
        33.200          28.600
 -21821010.155 7 -17003374.071 7  20512049.046    20512045.210    20512047.696
        46.800          44.800
  -6477896.177 4  -5047703.779 3  23295034.722    23295037.184    23295034.510
        26.500          21.100
 -13691031.739 6 -10668323.236 5  21902096.881    21902097.250    21902095.674
        39.100          35.100
 06  6  7  0 12 30.0000000  0  9G20G 6G 1G16G25G13G23G 3G 7
  -6342299.131 5  -4942041.455 3  23432214.610    23432215.178    23432213.495
        30.100          19.900
  -1891151.982 3  -1473606.404 2  24231959.274    24231958.946    24231958.676
        20.500          13.900
  -6692965.257 5  -5215294.001 4  22943565.066    22943566.616    22943564.465
        30.600          28.100
 -22767539.205 7 -17740925.122 8  20244575.629    20244573.961    20244574.500
        43.600          50.400
 -13621810.436 6 -10614383.900 6  21861654.810    21861654.778    21861654.182
        40.900          36.600
 -11061388.418 5  -8619256.790 4  22493348.401    22493347.231    22493348.017
        33.600          28.600
 -21853125.186 7 -17028398.780 7  20505937.897    20505933.963    20505936.632
        47.100          45.200
  -6586034.994 4  -5131967.737 3  23274457.004    23274459.038    23274456.266
        27.400          22.600
 -13722460.548 6 -10692813.179 5  21896115.926    21896116.402    21896114.847
        38.900          34.400
 06  6  7  0 13  0.0000000  0  9G20G 6G 1G16G25G13G23G 3G 7
  -6257005.586 5  -4875579.001 3  23448445.774    23448446.283    23448444.512
        30.800          21.600
  -1824481.820 2  -1421655.652 2  24244645.872    24244646.154    24244645.105
        17.000          12.600
  -6593498.599 4  -5137787.591 4  22962493.230    22962494.296    22962492.231
        29.700          27.900
 -22759319.598 7 -17734520.218 8  20246139.810    20246138.110    20246138.734
        43.600          50.400
 -13564049.380 6 -10569375.316 6  21872646.457    21872646.450    21872645.814
        40.700          36.700
 -11149899.141 5  -8688226.145 4  22476505.543    22476504.268    22476505.058
        34.300          29.700
 -21884690.485 7 -17052995.122 7  20499931.193    20499927.283    20499929.879
        47.000          45.200
  -6694016.116 4  -5216108.843 3  23253907.951    23253910.830    23253908.285
        26.200          23.400
 -13753381.848 6 -10716907.665 5  21890231.919    21890232.302    21890230.784
        39.300          34.800
 06  6  7  0 13 30.0000000  0  9G20G 6G 1G16G25G13G23G 3G 7
  -6171446.005 5  -4808909.240 3  23464726.813    23464727.733    23464725.821
        30.400          18.600
  -1757408.362 3  -1369390.606 2  24257409.803    24257410.024    24257409.142
        18.600          17.000
  -6493777.394 5  -5060082.788 4  22981469.408    22981470.419    22981468.585
        30.100          27.100
 -22750608.352 7 -17727732.213 8  20247797.485    20247795.800    20247796.373
        43.900          50.500
 -13506077.959 6 -10524202.806 6  21883677.935    21883678.074    21883677.438
        40.900          36.500
 -11238105.595 5  -8756958.420 4  22459720.034    22459719.192    22459719.803
        33.200          29.200
 -21915704.557 7 -17077161.929 7  20494029.127    20494025.542    20494027.908
        46.900          45.300
  -6801836.294 4  -5300124.534 3  23233390.312    23233392.729    23233390.541
        25.300          19.900
 -13783793.953 6 -10740605.370 5  21884444.581    21884445.029    21884443.393
        39.000          34.800
 06  6  7  0 14  0.0000000  0  9G20G 6G 1G16G25G13G23G 3G 7
  -6085623.537 4  -4742034.652 2  23481058.808    23481059.295    23481057.450
        29.700          17.800
  -1689933.621 3  -1316812.891 3  24270250.367    24270250.157    24270249.492
        20.500          19.900
  -6393803.415 4  -4982181.043 4  23000494.374    23000495.407    23000493.292
        29.900          28.800
 -22741406.645 7 -17720562.032 8  20249548.433    20249546.806    20249547.295
        43.800          50.500
 -13447896.379 6 -10478866.533 6  21894749.787    21894749.677    21894749.092
        40.700          36.300
 -11326005.162 5  -8825451.538 4  22442993.102    22442992.092    22442992.947
        33.500          29.900
 -21946165.921 7 -17100898.054 7  20488232.674    20488228.935    20488231.264
        46.700          45.300
  -6909492.479 4  -5384012.448 3  23212904.276    23212906.668    23212904.427
        27.400          19.900
 -13813695.923 6 -10763905.574 5  21878754.421    21878754.827    21878753.258
        39.500          35.200
 06  6  7  0 14 30.0000000  0  9G20G 6G 1G16G25G13G23G 3G 7
  -5999541.354 5  -4674957.669 2  23497439.949    23497440.164    23497438.754
        30.100          17.000
  -1622059.586 3  -1263924.061 3  24283166.866    24283165.808    24283165.797
        18.600          19.900
  -6293578.513 4  -4904083.791 4  23019566.139    23019567.657    23019565.310
        29.900          28.100
 -22731715.653 7 -17713010.586 8  20251392.666    20251391.000    20251391.467
        43.800          50.400
 -13389504.870 6 -10433366.678 6  21905861.652    21905861.188    21905860.781
        40.700          36.500
 -11413594.748 5  -8893703.121 5  22426325.613    22426324.714    22426325.268
        34.000          30.400
 -21976072.977 7 -17124202.255 7  20482541.479    20482537.740    20482540.194
        46.900          45.200
  -7016981.895 4  -5467770.398 3  23192450.297    23192451.814    23192449.695
        28.400          22.600
 -13843086.490 6 -10786807.279 5  21873161.868    21873162.102    21873160.599
        39.400          35.100
 06  6  7  0 15  0.0000000  0  9G20G 6G 1G16G25G13G23G 3G 7
  -5913202.624 4  -4607680.800 2  23513869.744    23513869.970    23513868.281
        29.500          17.800
  -1553788.331 3  -1210725.716 2  24296157.203    24296157.026    24296156.460
        23.400          17.000
  -6193104.511 5  -4825792.426 4  23038685.504    23038687.100    23038685.072
        30.200          28.600
 -22721536.077 7 -17705078.421 8  20253329.750    20253328.185    20253328.607
        43.800          50.600
 -13330903.587 6 -10387703.357 5  21917012.973    21917012.466    21917012.256
        40.700          35.900
 -11500872.177 5  -8961711.476 5  22409717.548    22409716.400    22409717.018
        34.500          30.200
 -22005424.058 7 -17147073.220 7  20476956.418    20476952.316    20476955.075
        47.000          45.200
  -7124301.486 4  -5551396.041 3  23172028.333    23172029.912    23172027.595
        26.800          21.600
 -13871964.473 6 -10809309.570 5  21867666.318    21867666.819    21867665.169
        39.400          34.900
 06  6  7  0 15 30.0000000  0  9G20G 6G 1G16G25G13G23G 3G 7
  -5826610.533 4  -4540206.471 2  23530347.233    23530347.932    23530346.044
        28.800          17.000
  -1485121.739 3  -1157219.285 2  24309224.286    24309223.874    24309223.583
        21.100          12.600
  -6092383.264 4  -4747308.379 4  23057852.706    23057853.987    23057851.741
        29.200          28.600
 -22710869.303 7 -17696766.624 8  20255359.477    20255357.938    20255358.444
        43.600          50.500
 -13272092.877 6 -10341876.843 6  21928204.002    21928203.968    21928203.497
        40.700          36.000
 -11587834.936 5  -9029474.649 5  22393168.341    22393168.011    22393168.231
        34.300          30.600
 -22034217.613 7 -17169509.758 7  20471476.981    20471473.174    20471475.806
        47.300          45.400
  -7231448.163 4  -5634886.928 3  23151639.208    23151640.310    23151638.340
        28.600          21.600
 -13900328.648 6 -10831411.490 5  21862268.306    21862269.055    21862267.224
        38.900          35.100
 06  6  7  0 16  0.0000000  0  9G20G 6G 1G16G25G13G23G 3G 7
  -5739768.036 4  -4472537.048 2  23546872.815    23546873.646    23546871.173
        27.600          16.100
  -1416062.249 3  -1103406.708 1  24322366.783    24322365.161    24322365.728
        19.900           9.000
  -5991416.661 5  -4668633.190 4  23077066.606    23077067.548    23077065.357
        30.200          29.700
 -22699716.342 7 -17688075.985 8  20257481.830    20257480.196    20257480.724
        43.900          50.400
 -13213072.997 6 -10295887.342 6  21939435.367    21939435.084    21939434.693
        40.700          36.200
 -11674480.222 5  -9096990.412 4  22376680.640    22376679.447    22376680.299
        34.400          29.000
 -22062451.918 7 -17191510.513 7  20466104.263    20466100.423    20466102.939
        47.200          45.400
  -7338419.117 4  -5718240.881 3  23131283.475    23131284.677    23131282.296
        26.800          22.600
 -13928177.878 6 -10853112.151 5  21856968.961    21856969.499    21856967.754
        39.100          34.800
 06  6  7  0 16 30.0000000  0  9G20G 6G 1G16G25G13G23G 3G 7
  -5652678.389 4  -4404675.046 3  23563445.145    23563446.442    23563444.170
        26.500          18.600
  -1346611.515 3  -1049289.260 1  24335582.264    24335581.536    24335581.256
        20.500          11.000
  -5890206.407 4  -4589768.122 4  23096325.385    23096327.163    23096324.586
        28.400          27.600
 -22688078.177 7 -17679007.251 8  20259696.569    20259694.762    20259695.399
        44.200          50.400
 -13153844.062 6 -10249734.937 5  21950706.433    21950705.791    21950705.602
        40.500          35.600
 -11760805.329 5  -9164256.689 4  22360253.522    22360252.261    22360253.210
        35.500          29.200
 -22090125.727 7 -17213074.509 7  20460837.867    20460834.192    20460836.630
        47.000          45.300
  -7445211.240 4  -5801455.503 3  23110961.531    23110962.758    23110960.488
        29.200          22.100
 -13955510.947 6 -10874410.618 5  21851767.736    21851768.227    21851766.522
        39.000          35.200
 06  6  7  0 17  0.0000000  0  9G20G 6G 1G16G25G13G23G 3G 7
  -5565344.669 4  -4336622.872 3  23580064.398    23580065.567    23580063.138
        25.600          21.100
  -1276771.922 3   -994868.777 2  24348872.286    24348871.416    24348871.493
        20.500          12.600
  -5788754.452 4  -4510714.717 4  23115630.437    23115632.766    23115629.888
        27.900          26.500
 -22675956.098 7 -17669561.443 8  20262003.311    20262001.492    20262002.139
        44.000          50.300
 -13094406.387 6 -10203419.870 5  21962017.073    21962016.552    21962016.189
        40.500          35.800
 -11846807.962 5  -9231271.729 5  22343887.949    22343886.669    22343887.543
        34.800          30.800
 -22117237.361 7 -17234200.450 7  20455678.706    20455674.905    20455677.482
        47.000          45.200
  -7551821.280 4  -5884528.232 4  23090675.100    23090675.620    23090673.700
        28.100          24.900
 -13982326.898 6 -10895306.127 5  21846664.723    21846665.347    21846663.488
        39.300          35.300
 06  6  7  0 17 30.0000000  0  9G20G 6G 1G16G25G13G23G 3G 7
  -5477770.029 4  -4268382.962 3  23596729.387    23596730.386    23596728.397
        26.500          19.300
  -1206545.359 3   -940146.748 2  24362235.715    24362235.144    24362235.159
        22.100          12.600
  -5687062.812 4  -4431474.544 4  23134981.980    23134984.081    23134981.575
        28.400          27.600
 -22663351.044 7 -17659739.287 8  20264401.936    20264400.123    20264400.823
        44.100          50.200
 -13034760.212 6 -10156942.340 5  21973366.701    21973367.042    21973366.341
        40.200          35.700
 -11932485.224 5  -9298033.189 5  22327583.521    22327582.757    22327583.213
        33.500          30.400
 -22143785.500 7 -17254887.294 7  20450626.933    20450622.999    20450625.650
        47.100          45.200
  -7658246.284 4  -5967456.775 4  23070422.405    23070423.390    23070421.339
        27.600          24.600
 -14008624.566 6 -10915797.775 5  21841660.353    21841660.955    21841659.163
        39.100          35.100
 06  6  7  0 18  0.0000000  0  9G20G 6G 1G16G25G13G23G 3G 7
  -5389957.839 4  -4199957.969 3  23613439.347    23613440.838    23613438.375
        27.900          21.100
  -1135934.124 3   -885124.981 3  24375672.630    24375672.450    24375672.272
        22.100          18.600
  -5585133.205 4  -4352048.948 4  23154379.101    23154380.728    23154378.484
        27.900          27.100
 -22650264.350 7 -17649541.826 8  20266892.257    20266890.427    20266891.086
        44.100          50.300
 -12974905.792 6 -10110302.539 5  21984757.166    21984756.782    21984756.402
        40.200          35.200
 -12017834.293 5  -9364538.894 4  22311341.996    22311340.960    22311341.757
        34.600          29.900
 -22169768.526 7 -17275133.797 7  20445682.518    20445678.627    20445681.327
        47.100          45.300
  -7764483.293 4  -6050238.832 3  23050206.423    23050207.023    23050205.141
        28.800          22.600
 -14034402.922 6 -10935884.771 5  21836754.852    21836755.484    21836753.764
        39.400          35.200
 06  6  7  0 18 30.0000000  0  9G20G 6G 1G16G25G13G23G 3G 7
  -5301911.007 4  -4131350.123 3  23630194.637    23630195.652    23630193.291
        29.000          22.100
  -1064940.159 2   -829804.999 2  24389181.777    24389182.301    24389181.406
        17.800          17.000
  -5482967.679 4  -4272439.515 4  23173820.726    23173822.347    23173819.850
        28.600          26.500
 -22636697.164 7 -17638969.956 8  20269473.886    20269472.110    20269472.766
        44.100          50.300
 -12914843.347 6 -10063500.631 5  21996186.929    21996186.386    21996186.064
        40.300          35.200
 -12102852.865 5  -9430787.104 5  22295163.808    22295162.423    22295163.402
        34.800          30.100
 -22195184.895 7 -17294938.748 7  20440845.985    20440842.011    20440844.751
        47.200          45.400
  -7870529.354 4  -6132872.112 3  23030026.547    23030027.194    23030025.371
        28.800          23.800
 -14059660.758 6 -10955566.156 5  21831948.714    21831948.982    21831947.477
        39.600          35.100
 06  6  7  0 19  0.0000000  0  9G20G 6G 1G16G25G13G23G 3G 7
  -5213632.791 4  -4062561.972 3  23646993.653    23646994.423    23646992.291
        29.700          19.900
   -993565.735 3   -774188.588 2  24402764.263    24402764.313    24402763.728
        20.500          17.000
  -5380568.187 4  -4192647.777 4  23193307.610    23193308.120    23193306.104
        27.600          24.900
 -22622650.544 7 -17628024.499 8  20272146.913    20272145.036    20272145.733
        43.900          50.200
 -12854573.027 6 -10016536.745 5  22007655.890    22007655.421    22007654.954
        39.800          35.500
 -12187538.268 5  -9496775.683 5  22279048.512    22279047.503    22279048.274
        34.900          31.500
 -22220033.183 7 -17314301.035 7  20436117.334    20436113.604    20436116.127
        47.100          45.500
  -7976381.430 4  -6215354.241 4  23009883.283    23009884.270    23009881.977
        28.800          24.200
 -14084397.172 6 -10974841.238 5  21827241.651    21827241.743    21827240.312
        39.000          35.100
 06  6  7  0 19 30.0000000  0  9G20G 6G 1G16G25G13G23G 3G 7
  -5125126.076 4  -3993595.775 3  23663835.813    23663836.617    23663834.627
        29.700          19.300
   -921812.956 3   -718277.320 2  24416418.173    24416418.099    24416417.701
        19.300          17.000
  -5277936.639 4  -4112675.216 4  23212837.122    23212838.338    23212835.801
        26.200          25.600
 -22608125.807 7 -17616706.480 8  20274910.728    20274909.005    20274909.639
        44.000          50.300
 -12794095.119 6  -9969411.096 5  22019164.113    22019163.806    22019163.513
        39.800          35.100
 -12271888.097 5  -9562502.825 5  22262997.767    22262996.510    22262997.278
        35.300          31.500
 -22244312.228 7 -17333219.761 7  20431497.185    20431493.402    20431495.950
        47.200          45.600
  -8082036.593 4  -6297682.918 3  22989777.968    22989778.376    22989776.546
        27.900          21.600
 -14108611.164 6 -10993709.234 5  21822633.216    21822633.866    21822632.306
        39.500          35.500
 06  6  7  0 20  0.0000000  0  9G20G 6G 1G16G25G13G23G 3G 7
  -5036394.401 4  -3924454.256 2  23680720.623    23680721.820    23680719.598
        28.400          17.800
   -849683.885 3   -662072.863 2  24430144.626    24430144.186    24430143.886
        21.100          16.100
  -5175075.021 4  -4032523.378 4  23232410.833    23232412.811    23232410.163
        28.400          26.200
 -22593123.987 7 -17605016.712 8  20277765.336    20277763.685    20277764.293
        44.000          50.100
 -12733409.956 6  -9922123.955 5  22030712.087    22030711.855    22030711.542
        39.900          34.800
 -12355899.488 5  -9627966.220 5  22247011.014    22247009.612    22247010.602
        35.700          32.000
 -22268020.216 7 -17351693.491 7  20426985.956    20426981.818    20426984.650
        47.300          45.400
  -8187491.708 4  -6379855.721 4  22969710.324    22969711.172    22969709.194
        28.600          24.200
 -14132301.628 6 -11012169.286 5  21818125.052    21818125.725    21818124.043
        39.300          34.600
 06  6  7  0 20 30.0000000  0  9G20G 6G 1G16G25G13G23G 3G 7
  -4947440.688 4  -3855139.723 2  23697648.337    23697648.630    23697647.183
        28.800          12.600
   -777180.514 3   -605576.721 2  24443942.707    24443940.842    24443941.307
        21.600          13.900
  -5071985.173 4  -3952193.685 4  23252027.479    23252029.881    23252027.498
        28.800          25.900
 -22577646.595 7 -17592956.368 8  20280710.636    20280708.849    20280709.454
        43.900          50.100
 -12672517.685 6  -9874675.430 5  22042299.650    22042299.196    22042298.838
        39.200          34.600
 -12439569.786 6  -9693163.817 5  22231089.116    22231087.622    22231088.663
        36.000          32.100
 -22291156.025 7 -17369721.371 7  20422583.433    20422579.197    20422582.148
        47.400          45.500
  -8292743.722 4  -6461870.245 4  22949681.350    22949682.637    22949680.253
        29.200          24.200
 -14155467.636 6 -11030220.671 5  21813716.785    21813717.319    21813715.686
        39.500          35.500
 06  6  7  0 21  0.0000000  0  9G20G 6G 1G16G25G13G23G 3G 7
  -4858267.893 4  -3785654.484 2  23714617.217    23714617.895    23714616.017
        26.500          17.800
   -704305.347 3   -548790.909 1  24457809.354    24457808.755    24457808.412
        21.100           9.000
  -4968669.049 4  -3871687.665 4  23271687.995    23271690.221    23271687.749
        28.400          26.500
 -22561694.721 7 -17580526.297 8  20283746.247    20283744.315    20283745.159
        44.100          50.000
 -12611418.571 6  -9827065.719 5  22053926.444    22053925.817    22053925.613
        39.500          34.300
 -12522896.380 6  -9758093.603 5  22215232.181    22215231.124    22215231.959
        36.200          32.000
 -22313718.389 7 -17387302.412 7  20418289.782    20418285.777    20418288.467
        47.400          45.600
  -8397789.717 5  -6543724.246 4  22929691.829    22929693.001    22929690.795
        30.200          24.900
 -14178108.271 6 -11047862.672 5  21809408.788    21809408.812    21809407.360
        39.500          35.500
 06  6  7  0 21 30.0000000  0  9G20G 6G 1G16G25G13G23G 3G 7
  -4768879.801 4  -3716001.482 2  23731627.301    23731627.536    23731626.177
        25.600          12.600
   -631060.504 3   -491717.017 2  24471747.414    24471746.301    24471746.409
        19.300          13.900
  -4865128.594 4  -3791006.856 4  23291392.464    23291393.799    23291391.412
        27.100          27.900
 -22545269.453 7 -17567727.344 8  20286871.809    20286869.936    20286870.706
        44.000          50.000
 -12550112.913 6  -9779295.067 5  22065592.174    22065592.130    22065591.535
        39.200          34.700
 -12605877.044 6  -9822753.894 5  22199441.763    22199440.222    22199441.374
        36.100          31.300
 -22335706.023 7 -17404435.614 7  20414105.565    20414101.635    20414104.335
        47.400          45.600
  -8502626.325 4  -6625415.100 4  22909741.516    22909743.209    22909740.620
        29.500          25.300
 -14200222.772 6 -11065094.690 5  21805200.116    21805200.502    21805199.013
        39.800          35.400
 06  6  7  0 22  0.0000000  0  9G20G 6G 1G16G25G13G23G 3G 7
  -4679279.223 4  -3646182.930 2  23748678.052    23748678.616    23748676.612
        24.900          13.900
   -557448.126 3   -434356.745 1  24485754.101    24485754.264    24485753.724
        19.300           6.500
  -4761365.634 4  -3710152.696 4  23311137.488    23311139.232    23311136.406
        25.900          27.600
 -22528372.098 7 -17554560.539 8  20290087.231    20290085.375    20290086.058
        44.000          50.000
 -12488600.866 6  -9731363.596 5  22077297.523    22077297.446    22077296.850
        38.900          34.400
 -12688508.399 6  -9887141.927 5  22183717.265    22183716.035    22183716.955
        36.700          31.800
 -22357117.199 7 -17421119.626 7  20410031.236    20410027.148    20410029.940
        47.300          45.600
  -8607250.889 5  -6706940.692 4  22889832.094    22889833.667    22889831.504
        30.100          25.600
 -14221810.007 6 -11081915.850 5  21801092.069    21801092.607    21801091.087
        39.700          35.600
 06  6  7  0 22 30.0000000  0  9G20G 6G 1G16G25G13G23G 3G 7
  -4589469.186 4  -3576201.169 2  23765767.305    23765768.985    23765766.492
        24.600          15.100
   -483470.012 3   -376711.505 2  24499831.420    24499832.508    24499831.119
        21.600          15.100
  -4657382.260 4  -3629126.757 4  23330925.403    23330926.821    23330924.343
        27.400          26.200
 -22511003.983 7 -17541026.901 8  20293392.150    20293390.433    20293391.012
        44.100          50.000
 -12426882.742 6  -9683271.537 5  22089042.196    22089042.084    22089041.511
        39.100          34.600
 -12770788.249 6  -9951256.045 5  22168059.915    22168058.717    22168059.670
        36.000          31.500
 -22377950.661 7 -17437353.472 7  20406066.771    20406062.631    20406065.514
        47.400          45.700
  -8711660.114 4  -6788298.499 4  22869963.503    22869964.967    22869962.864
        29.900          24.200
 -14242869.073 6 -11098325.444 5  21797084.904    21797085.033    21797083.724
        39.700          35.400
 06  6  7  0 23  0.0000000  0  9G20G 6G 1G16G25G13G23G 3G 7
  -4499452.874 4  -3506058.654 2  23782897.706    23782898.496    23782896.567
        25.900          16.100
   -409128.755 2   -318783.310 2  24513978.117    24513979.230    24513978.006
        17.000          15.100
  -4553180.421 4  -3547930.590 4  23350753.937    23350755.583    23350752.957
        27.600          24.900
 -22493166.518 7 -17527127.540 8  20296786.376    20296784.812    20296785.284
        44.000          50.100
 -12364958.816 6  -9635019.118 5  22100826.102    22100825.768    22100825.415
        39.200          34.400
 -12852713.753 6 -10015093.996 5  22152469.838    22152468.660    22152469.514
        36.000          31.800
 -22398205.392 7 -17453136.363 7  20402212.379    20402208.311    20402211.185
        47.600          45.600
  -8815851.033 4  -6869486.184 4  22850136.140    22850138.071    22850135.763
        29.000          25.600
 -14263399.189 6 -11114322.866 5  21793177.838    21793178.304    21793176.684
        39.800          35.200
 06  6  7  0 23 30.0000000  0  9G20G 6G 1G16G25G13G23G 3G 7
  -4409233.508 4  -3435757.899 1  23800066.247    23800066.373    23800064.821
        26.200           9.000
   -334426.466 3   -260573.786 1  24528193.822    24528194.611    24528193.227
        20.500           9.000
  -4448762.060 4  -3466565.672 4  23370623.856    23370625.541    23370623.048
        26.200          24.900
 -22474860.752 7 -17512863.274 8  20300269.799    20300268.226    20300268.698
        43.900          49.900
 -12302829.281 6  -9586606.497 5  22112648.779    22112648.699    22112648.231
        39.000          34.100
 -12934282.882 6 -10078654.316 5  22136947.664    22136946.599    22136947.323
        36.100          32.100
 -22417880.105 7 -17468467.286 7  20398468.773    20398464.407    20398467.371
        47.700          45.900
  -8919820.560 4  -6950501.360 4  22830351.366    22830353.503    22830351.048
        29.200          24.900
 -14283399.585 6 -11129907.527 5  21789372.225    21789372.317    21789370.976
        40.200          35.600
 06  6  7  0 24  0.0000000  0  9G20G 6G 1G16G25G13G23G 3G 7
  -4318814.499 4  -3365301.600 2  23817271.989    23817272.825    23817270.789
        27.100          13.900
   -259365.229 3   -202084.520 1  24542478.679    24542478.334    24542477.543
        21.100          11.000
  -4344129.223 4  -3385033.649 3  23390534.676    23390536.374    23390533.979
        26.200          22.100
 -22456087.872 7 -17498235.019 8  20303842.099    20303840.546    20303841.060
        44.100          50.000
 -12240494.357 6  -9538033.825 5  22124510.884    22124510.522    22124510.077
        38.900          34.800
 -13015492.512 6 -10141934.451 5  22121493.989    22121492.999    22121493.711
        36.600          32.600
 -22436973.537 7 -17483345.271 7  20394835.086    20394831.065    20394833.798
        47.500          45.700
  -9023565.681 4  -7031341.664 4  22810610.662    22810611.177    22810609.284
        29.700          25.300
 -14302869.298 6 -11145078.664 6  21785667.029    21785667.437    21785665.825
        40.000          36.100
 06  6  7  0 24 30.0000000  0  9G20G 6G 1G16G25G13G23G 3G 7
  -4228198.574 4  -3294691.849 2  23834515.640    23834516.535    23834514.356
        25.900          13.900
   -183947.282 3   -143317.348 1  24556830.335    24556829.661    24556829.304
        19.900          11.000
  -4239283.825 4  -3303335.994 3  23410487.081    23410488.218    23410485.634
        25.300          23.800
 -22436849.281 7 -17483243.877 8  20307503.281    20307501.464    20307502.113
        44.100          49.900
 -12177954.392 6  -9489301.381 5  22136411.722    22136411.588    22136411.126
        39.100          34.800
 -13096340.132 6 -10204932.560 5  22106109.069    22106108.116    22106108.777
        36.500          32.700
 -22455484.372 7 -17497769.287 7  20391312.378    20391308.519    20391311.157
        47.500          45.900
  -9127083.461 5  -7112004.833 4  22790911.972    22790912.264    22790910.621
        30.600          24.900
 -14321807.722 6 -11159835.813 6  21782062.962    21782063.368    21782062.000
        40.400          36.100
 06  6  7  0 25  0.0000000  0  9G20G 6G 1G16G25G13G23G 3G 7
  -4137389.116 3  -3223931.305 2  23851796.447    23851797.372    23851794.878
        23.400          17.800
   -108174.892 3    -84273.920 1  24571248.823    24571248.315    24571248.083
        19.300           9.000
  -4134227.923 4  -3221474.313 4  23430479.014    23430479.972    23430477.426
        27.400          25.300
 -22417146.490 7 -17467891.025 8  20311252.571    20311250.717    20311251.479
        44.100          49.800
 -12115209.575 6  -9440409.326 5  22148351.580    22148351.643    22148351.081
        38.900          34.500
 -13176823.251 6 -10267646.641 5  22090793.846    22090792.477    22090793.490
        36.900          32.000
 -22473411.281 7 -17511738.286 7  20387901.061    20387897.145    20387899.825
        47.500          45.900
  -9230370.912 4  -7192488.509 4  22771256.821    22771257.862    22771255.335
        29.900          26.200
 -14340213.810 6 -11174178.159 5  21778560.568    21778560.714    21778559.355
        40.200          35.900
 06  6  7  0 25 30.0000000  0  9G20G 6G 1G16G25G13G23G 3G 7
  -4046389.338 4  -3153022.439 3  23869112.833    23869113.946    23869111.752
        27.600          19.300
    -32050.263 3    -24956.047 1  24585734.476    24585734.119    24585734.009
        20.500           6.500
  -4028963.485 4  -3139450.136 4  23450508.930    23450511.163    23450508.269
        26.200          24.600
 -22396980.605 7 -17452177.317 8  20315090.034    20315088.170    20315088.884
        44.300          49.900
 -12052260.149 6  -9391357.827 5  22160331.199    22160330.374    22160330.129
        39.100          34.300
 -13256939.064 6 -10330074.485 5  22075548.351    22075546.937    22075547.963
        37.100          32.600
 -22490753.365 7 -17525251.590 7  20384601.137    20384596.980    20384599.817
        47.500          45.700
  -9333424.869 5  -7272790.253 4  22751646.657    22751647.156    22751645.140
        31.000          26.800
 -14358086.746 6 -11188105.051 5  21775159.382    21775159.478    21775158.165
        40.000          35.800
 06  6  7  0 26  0.0000000  0  9G20G 6G 1G16G25G13G23G 3G 7
  -3955202.306 4  -3081967.644 2  23886465.475    23886466.570    23886464.142
        27.600          17.800
     44424.357 3     34634.523    24600287.832    24600287.302    24600287.146
        21.100           3.000
  -3923492.381 4  -3057264.891 4  23470578.445    23470581.495    23470578.820
        27.100          24.900
 -22376353.243 7 -17436104.015 8  20319015.240    20319013.414    20319014.145
        44.300          49.800
 -11989106.469 6  -9342147.178 5  22172348.177    22172348.139    22172347.665
        38.800          33.900
 -13336685.100 6 -10392214.232 5  22060372.927    22060371.938    22060372.708
        37.500          33.200
 -22507509.309 7 -17538308.164 7  20381412.397    20381408.379    20381411.126
        47.500          46.000
  -9436242.459 5  -7352907.823 4  22732080.270    22732081.454    22732079.460
        31.300          27.400
 -14375426.282 6 -11201616.320 6  21771859.507    21771860.037    21771858.521
        40.100          36.100
 06  6  7  0 26 30.0000000  0  9G20G 6G 1G16G25G13G23G 3G 7
  -3863830.963 4  -3010769.237 2  23903852.893    23903854.231    23903851.432
        26.200          17.000
    121246.840 3     94496.201 9  24614907.152    24614906.232    24614906.006
        21.100          -3.000
  -3817816.408 4  -2974920.013 3  23490689.039    23490690.924    23490688.116
        25.600          23.400
 -22355265.165 7 -17419671.720 8  20323028.154    20323026.284    20323026.989
        44.400          49.800
 -11925748.636 6  -9292777.443 5  22184405.045    22184404.657    22184404.335
        39.000          33.800
 -13416058.465 6 -10454063.553 5  22045268.953    22045267.553    22045268.546
        37.400          33.200
 -22523678.017 7 -17550907.152 7  20378335.610    20378331.591    20378334.395
        47.400          45.800
  -9538820.550 5  -7432838.743 4  22712559.387    22712561.375    22712559.355
        31.500          27.100
 -14392231.302 6 -11214711.083 6  21768661.594    21768662.036    21768660.483
        40.300          36.500
 06  6  7  0 27  0.0000000  0  9G20G 6G 1G16G25G13G23G 3G 7
  -3772278.558 4  -2939429.730 2  23921274.723    23921275.779    23921273.378
        25.600          13.900
    198414.677 3    154626.897 1  24629590.973    24629590.780    24629590.415
        20.500           6.500
  -3711937.633 4  -2892417.109 3  23510838.236    23510838.853    23510836.580
        25.900          22.600
 -22333718.095 7 -17402881.760 8  20327128.390    20327126.561    20327127.218
        44.400          49.800
 -11862186.885 6  -9243248.814 5  22196500.394    22196500.165    22196499.666
        38.700          33.600
 -13495056.833 6 -10515620.653 5  22030236.346    22030234.608    22030235.825
        37.500          33.500
 -22539258.233 7 -17563047.577 7  20375370.803    20375366.812    20375369.517
        47.400          45.900
  -9641156.184 5  -7512580.735 4  22693085.625    22693087.547    22693085.585
        31.800          27.100
 -14408501.104 6 -11227388.789 6  21765565.634    21765565.962    21765564.480
        40.200          36.100
 06  6  7  0 27 30.0000000  0  9G20G 6G 1G16G25G13G23G 3G 7
  -3680548.565 4  -2867951.862 2  23938730.639    23938731.391    23938729.506
        25.900          15.100
    275925.932 2    215025.256 9  24644341.269    24644340.470    24644340.686
        17.000          -3.000
  -3605858.232 4  -2809757.901 4  23531024.397    23531025.541    23531022.707
        24.900          24.200
 -22311713.529 7 -17385735.313 8  20331315.687    20331313.858    20331314.563
