     2.10           OBSERVATION DATA    G (GPS)             RINEX VERSION / TYPE
teqc  2005Sep1                          20060102 01:17:09UTCPGM / RUN BY / DATE
Linux 2.4.20-8|Pentium IV|gcc|Linux|486/DX+                 COMMENT
ALGO CACS-ACP   883160   ALGONQUIN PARK  ONT  CANADA        MARKER NAME
40104M002                                                   MARKER NUMBER
-Unknown-           GEOD. SURVEY, NATURAL RESOURCES CANADA  OBSERVER / AGENCY
1103                AOA BENCHMARK ACT   3.3.32.2N           REC # / TYPE / VERS
386                 AOAD/M_T        NONE                    ANT # / TYPE
   918129.4000 -4346071.2000  4561977.8000                  APPROX POSITION XYZ
        0.1000        0.0000        0.0000                  ANTENNA: DELTA H/E/N
     1     1                                                WAVELENGTH FACT L1/2
     7    L1    L2    C1    P2    P1    S1    S2            # / TYPES OF OBSERV
    30.0000                                                 INTERVAL
L1 PHASE CENTRE  .110m ABOVE ARP                            COMMENT
L2 PHASE CENTRE  .128m ABOVE ARP                            COMMENT
where ARP is the Antenna Reference Point for HI measurement COMMENT
    P1 =    P1  TurboRogue; =    Y1  Benchmark              COMMENT
    L1 = L1(CA)                                             COMMENT
    P2 =    P2  TurboRogue; =    Y2  Benchmark              COMMENT
    L2 = L2(P2) TurboRogue; = L2(Y2) Benchmark              COMMENT
 SNR is mapped to RINEX snr flag value [0-9]                COMMENT
  L1 & L2: min(max(int(snr_dBHz/6), 0), 9)                  COMMENT
  2006     1     2     0     0    0.0000000     GPS         TIME OF FIRST OBS
                                                            END OF HEADER
 06  1  2  0  0  0.0000000  0  6G29G 6G10G 2G26G21
 -14401966.278 6 -11222303.412 6  21576507.476    21576505.887    21576506.782
        39.800          36.400
 -18141248.465 7 -14136026.526 6  21356549.412    21356548.478    21356548.655
        44.800          40.700
 -22603792.668 7 -17613328.758 7  20200275.771    20200274.402    20200274.572
        45.500          46.200
 -14057059.327 6 -10953538.160 6  22148477.678    22148474.326    22148476.848
        40.900          36.100
 -10724372.090 5  -8356648.452 5  22441493.796    22441493.207    22441493.391
        33.600          30.800
  -3922915.233 4  -3056813.649 3  24158475.904    24158474.477    24158475.393
        26.200          23.000
 06  1  2  0  0 30.0000000  0  6G29G 6G10G 2G26G21
 -14481285.336 6 -11284110.438 6  21561413.408    21561411.871    21561412.634
        39.500          36.300
 -18169976.048 7 -14158411.645 6  21351082.891    21351081.704    21351082.037
        44.800          40.700
 -22575594.158 7 -17591355.887 7  20205641.815    20205640.320    20205640.611
        45.800          46.100
 -13974626.777 6 -10889305.011 5  22164163.781    22164160.395    22164163.305
        41.000          35.500
 -10838065.873 5  -8445240.963 5  22419858.497    22419857.826    22419857.973
        34.600          30.800
  -4018153.626 3  -3131025.321 3  24140353.626    24140350.975    24140352.297
        23.800          23.800
 06  1  2  0  1  0.0000000  0  6G29G 6G10G 2G26G21
 -14560171.155 6 -11345579.865 6  21546401.626    21546400.543    21546401.120
        39.600          36.700
 -18198161.312 7 -14180374.175 6  21345719.482    21345718.156    21345718.727
        44.900          40.700
 -22546978.168 7 -17569057.704 7  20211087.376    20211085.772    20211086.173
        45.800          46.200
 -13891939.041 6 -10824873.018 6  22179899.766    22179895.649    22179898.460
        40.600          36.100
 -10951466.777 5  -8533605.211 5  22398278.907    22398278.415    22398278.595
        34.100          31.500
  -4113372.453 4  -3205221.708 4  24122234.084    24122231.463    24122232.973
        28.400          24.200
 06  1  2  0  1 30.0000000  0  6G29G 6G10G 2G26G21
 -14638621.233 6 -11406709.758 6  21531473.098    21531471.916    21531472.441
        39.100          36.400
 -18225803.489 7 -14201913.525 6  21340459.385    21340457.813    21340458.597
        45.000          40.400
 -22517946.238 7 -17546435.413 7  20216611.835    20216610.427    20216610.685
        46.000          46.100
 -13808996.902 6 -10760242.799 5  22195682.405    22195678.740    22195681.807
        41.200          34.900
 -11064571.507 5  -8621738.733 5  22376756.226    22376755.411    22376755.519
        35.300          31.100
  -4208570.886 4  -3279402.254 3  24104117.409    24104114.963    24104116.949
        28.800          22.100
 06  1  2  0  2  0.0000000  0  6G29G 6G10G 2G26G21
 -14716633.246 6 -11467498.302 6  21516628.657    21516626.705    21516627.570
        39.700          36.500
 -18252901.160 7 -14223028.581 6  21335302.659    21335301.297    21335301.950
        45.000          40.500
 -22488499.834 7 -17523490.154 7  20222215.465    20222213.917    20222214.271
        46.100          46.200
 -13725801.313 6 -10695415.084 6  22211514.111    22211510.720    22211513.403
        41.000          36.000
 -11177376.618 5  -8709638.757 5  22355290.564    22355289.064    22355289.509
        34.500          31.300
  -4303748.251 4  -3353566.388 3  24086005.904    24086003.441    24086004.913
        28.400          21.100
 06  1  2  0  2 30.0000000  0  6G29G 6G10G 2G26G21
 -14794204.716 6 -11527943.580 6  21501866.582    21501865.136    21501866.073
        40.100          36.500
 -18279453.145 7 -14243718.425 6  21330250.065    21330248.738    21330249.330
        45.000          40.700
 -22458640.351 7 -17500223.019 7  20227897.565    20227895.960    20227896.397
        46.100          46.100
 -13642353.267 6 -10630390.664 6  22227394.019    22227390.447    22227393.206
        40.800          36.100
 -11289878.846 5  -8797302.776 5  22333881.822    22333880.677    22333880.833
        34.000          31.100
  -4398903.286 5  -3427713.114 3  24067898.221    24067896.083    24067897.404
        30.100          19.900
 06  1  2  0  3  0.0000000  0  6G29G 6G10G 2G26G21
 -14871333.236 6 -11588043.696 6  21487189.856    21487188.136    21487188.887
        39.800          36.600
 -18305457.976 7 -14263981.914 6  21325301.609    21325300.084    21325300.758
        44.700          40.600
 -22428369.513 7 -17476635.346 7  20233657.724    20233656.298    20233656.587
        46.000          46.000
 -13558653.372 6 -10565169.969 5  22243320.970    22243317.624    22243320.511
        40.600          35.100
 -11402074.933 5  -8884728.216 5  22312531.556    22312530.347    22312530.615
        35.500          31.600
  -4494035.054 5  -3501841.718 3  24049796.484    24049793.493    24049795.190
        30.600          19.900
 06  1  2  0  3 30.0000000  0  6G29G 6G10G 2G26G21
 -14948016.322 6 -11647796.723 6  21472597.162    21472595.796    21472596.345
        39.600          36.900
 -18330914.986 7 -14283818.529 6  21320457.154    21320455.803    21320456.365
        44.800          40.600
 -22397688.619 7 -17452728.148 7  20239496.256    20239494.689    20239494.989
        45.900          46.000
 -13474702.424 6 -10499753.667 5  22259297.027    22259293.101    22259295.917
        40.200          35.300
 -11513961.176 5  -8971912.254 5  22291240.769    22291238.853    22291239.467
        35.200          31.800
  -4589142.544 4  -3575951.410 3  24031698.061    24031695.461    24031697.084
        29.700          19.300
 06  1  2  0  4  0.0000000  0  6G29G 6G10G 2G26G21
 -15024251.648 6 -11707200.833 6  21458090.013    21458088.669    21458089.400
        40.000          37.000
 -18355822.903 7 -14303227.285 6  21315717.058    21315716.004    21315716.395
        44.600          40.700
 -22366599.135 7 -17428502.572 7  20245412.222    20245410.823    20245411.101
        46.000          46.100
 -13390501.602 6 -10434142.649 5  22275319.488    22275316.010    22275318.824
        40.300          34.900
 -11625534.599 5  -9058852.542 5  22270008.620    22270007.193    22270007.453
        35.100          31.800
  -4684224.848 4  -3650041.464 2  24013604.547    24013601.152    24013603.173
        28.600          17.800
 06  1  2  0  4 30.0000000  0  6G29G 6G10G 2G26G21
 -15100037.033 6 -11766254.363 6  21443668.463    21443667.072    21443667.822
        40.000          36.800
 -18380180.755 7 -14322207.423 6  21311081.884    21311080.951    21311081.114
        44.200          40.700
 -22335102.681 7 -17403959.873 7  20251405.738    20251404.313    20251404.628
        46.000          45.900
 -13306051.898 6 -10368337.688 5  22291390.163    22291386.200    22291389.203
        40.000          34.800
 -11736791.766 5  -9145546.372 5  22248837.018    22248835.711    22248835.938
        34.900          32.300
  -4779280.934 4  -3724111.066 3  23995514.640    23995512.420    23995513.755
        26.800          20.500
 06  1  2  0  5  0.0000000  0  6G29G 6G10G 2G26G21
 -15175370.005 6 -11824955.345 6  21429332.639    21429331.731    21429332.424
        40.500          36.900
 -18403987.454 7 -14340758.080 6  21306551.571    21306550.634    21306550.879
        44.300          40.800
 -22303200.985 7 -17379101.405 7  20257476.506    20257475.023    20257475.344
        45.900          46.000
 -13221353.834 6 -10302339.211 5  22307507.342    22307503.786    22307506.560
        40.100          34.600
 -11847729.153 5  -9231991.040 5  22227726.922    22227724.954    22227725.523
        34.700          32.000
  -4874309.495 4  -3798159.239 3  23977431.602    23977429.297    23977430.453
        27.100          21.600
 06  1  2  0  5 30.0000000  0  7G29G 6G27G10G 2G26G21
 -15250248.239 6 -11883301.994 6  21415084.682    21415082.793    21415083.619
        39.700          36.800
 -18427241.829 7 -14358878.355 6  21302126.491    21302125.452    21302125.774
        44.500          40.600
    -27690.532 3    -21576.432 3  25214084.418    25214083.945    25214083.293
        21.600          19.300
 -22270895.250 7 -17353928.101 7  20263624.141    20263622.639    20263622.967
        45.900          46.000
 -13136408.313 6 -10236147.912 5  22323672.088    22323668.476    22323671.337
        40.200          34.800
 -11958343.431 5  -9318183.929 5  22206677.530    22206675.564    22206676.336
        35.900          31.500
  -4969309.683 4  -3872185.282 3  23959353.918    23959350.550    23959352.754
        28.100          20.500
 06  1  2  0  6  0.0000000  0  7G29G 6G27G10G 2G26G21
 -15324669.292 6 -11941292.396 6  21400922.407    21400921.037    21400921.769
        40.100          37.400
 -18449943.034 7 -14376567.593 6  21297806.890    21297805.450    21297805.971
        44.500          40.700
    -47962.985 3    -37373.123 3  25210227.008    25210225.992    25210226.417
        23.800          20.500
 -22238187.151 7 -17328441.266 7  20269848.358    20269846.801    20269847.142
        46.100          46.000
 -13051216.554 6 -10169764.752 5  22339883.941    22339879.578    22339882.878
        39.800          33.800
 -12068631.299 6  -9404122.491 5  22185690.327    22185688.347    22185689.146
        36.500          31.800
  -5064280.381 4  -3946188.365 3  23941281.695    23941278.682    23941280.597
        28.600          23.400
 06  1  2  0  6 30.0000000  0  7G29G 6G27G10G 2G26G21
 -15398631.093 6 -11998924.933 6  21386848.294    21386846.340    21386847.373
        40.500          37.000
 -18472089.907 7 -14393824.891 6  21293592.091    21293591.040    21293591.402
        44.400          40.800
    -67809.842 4    -52838.177 3  25206450.486    25206449.939    25206449.534
        24.900          22.600
 -22205078.519 7 -17302642.325 7  20276148.656    20276147.106    20276147.487
        46.100          45.700
 -12965779.267 6 -10103190.254 5  22356141.561    22356138.007    22356140.878
        39.500          34.600
 -12178589.480 5  -9489804.135 5  22164765.621    22164764.341    22164764.505
        35.600          32.800
  -5159220.703 4  -4020167.771 3  23923214.453    23923212.411    23923213.520
        28.400          23.400
 06  1  2  0  7  0.0000000  0  7G29G 6G27G10G 2G26G21
 -15472131.440 6 -12056197.911 6  21372861.355    21372859.742    21372860.667
        40.500          37.600
 -18493681.626 7 -14410649.591 6  21289483.216    21289482.344    21289482.462
        44.300          40.700
    -87230.027 3    -67970.758 3  25202754.622    25202753.887    25202753.806
        23.000          19.900
 -22171570.641 7 -17276532.287 7  20282525.091    20282523.475    20282523.902
        46.400          45.800
 -12880097.305 6 -10036425.098 5  22372446.019    22372442.895    22372445.533
        39.100          34.700
 -12288214.520 6  -9575226.186 5  22143904.952    22143903.059    22143903.825
        36.000          32.600
  -5254129.372 4  -4094122.515 3  23905154.381    23905151.548    23905153.029
        28.600          23.000
 06  1  2  0  7 30.0000000  0  7G29G 6G27G10G 2G26G21
 -15545167.751 6 -12113109.286 6  21358962.675    21358961.519    21358962.004
        40.300          38.100
 -18514717.109 7 -14427040.860 6  21285480.465    21285479.384    21285479.688
        44.500          40.800
   -106222.202 3    -82769.845 3  25199141.378    25199139.852    25199140.417
        22.100          19.300
 -22137664.819 7 -17250112.163 7  20288977.036    20288975.539    20288975.907
        46.600          45.700
 -12794171.681 6  -9969470.098 5  22388797.734    22388793.924    22388796.701
        39.100          34.500
 -12397503.154 6  -9660386.120 5  22123107.647    22123106.204    22123106.580
        36.000          33.100
  -5349005.482 4  -4168051.870 4  23887099.278    23887097.757    23887098.502
        29.900          26.500
 06  1  2  0  8  0.0000000  0  7G29G 6G27G10G 2G26G21
 -15617737.867 6 -12169657.391 6  21345152.938    21345151.836    21345152.394
        40.900          37.800
 -18535195.635 7 -14442998.142 6  21281583.679    21281582.327    21281582.930
        44.600          40.800
   -124785.746 3    -97234.910 2  25195608.190    25195607.097    25195607.381
        23.000          17.800
 -22103362.838 7 -17223383.341 7  20295504.446    20295502.940    20295503.306
        46.500          45.700
 -12708003.030 6  -9902325.734 5  22405194.974    22405191.720    22405194.102
        38.900          35.400
 -12506452.074 6  -9745281.327 5  22102375.263    22102373.929    22102374.305
        36.600          33.200
  -5443847.801 5  -4241954.907 4  23869052.024    23869050.167    23869051.054
        30.100          25.600
 06  1  2  0  8 30.0000000  0  7G29G 6G27G10G 2G26G21
 -15689839.676 6 -12225840.589 6  21331432.700    21331431.050    21331431.955
        40.800          37.500
 -18555115.803 7 -14458520.339 6  21277792.983    21277791.703    21277792.243
        44.700          40.800
   -142919.337 4   -111364.933 3  25192157.924    25192156.485    25192157.004
        25.900          21.100
 -22068666.261 7 -17196347.044 7  20302106.963    20302105.445    20302105.846
        46.400          45.600
 -12621592.506 6  -9834992.883 5  22421638.401    22421634.816    22421637.625
        39.200          34.700
 -12615057.961 6  -9829909.231 5  22081707.855    22081706.667    22081707.184
        37.200          32.800
  -5538655.440 4  -4315830.901 4  23851010.444    23851008.885    23851009.389
        29.200          24.200
 06  1  2  0  9  0.0000000  0  7G29G 6G27G10G 2G26G21
 -15761470.942 6 -12281657.140 6  21317801.905    21317800.076    21317801.052
        41.000          37.500
 -18574476.656 7 -14473606.702 6  21274108.599    21274107.547    21274107.884
        44.800          40.900
   -160621.718 3   -125159.004 3  25188788.691    25188788.068    25188787.634
        23.400          19.900
 -22033576.648 7 -17169004.481 7  20308784.338    20308782.793    20308783.192
        46.600          45.600
 -12534940.911 6  -9767472.196 5  22438127.822    22438123.997    22438126.779
        38.900          34.300
 -12723317.509 6  -9914267.263 5  22061105.830    22061105.505    22061105.701
        36.700          32.800
  -5633427.179 4  -4389678.965 3  23832976.177    23832973.934    23832974.897
        28.800          22.600
 06  1  2  0  9 30.0000000  0  7G29G 6G27G10G 2G26G21
 -15832629.471 6 -12337105.311 6  21304260.595    21304259.002    21304259.833
        40.900          37.800
 -18593278.027 7 -14488257.110 6  21270530.984    21270529.646    21270530.257
        45.000          40.700
   -177891.811 3   -138616.209 2  25185502.235    25185500.902    25185500.989
        22.100          17.000
 -21998095.550 7 -17141356.873 7  20315536.324    20315534.606    20315535.098
        46.400          45.500
 -12448049.140 6  -9699764.338 5  22454662.186    22454659.176    22454661.820
        39.400          34.600
 -12831227.365 6  -9998352.803 5  22040571.099    22040571.040    22040571.262
        37.400          33.200
  -5728162.006 4  -4463498.274 3  23814948.530    23814946.219    23814947.300
        28.800          23.800
 06  1  2  0 10  0.0000000  0  7G29G 6G27G10G 2G26G21
 -15903312.799 6 -12392183.206 6  21290809.861    21290808.537    21290809.328
        41.400          37.900
 -18611518.566 7 -14502470.506 6  21267060.122    21267058.541    21267059.387
        45.000          40.700
   -194728.656 4   -151735.797 2  25182298.458    25182297.017    25182297.760
        24.900          17.000
 -21962224.485 7 -17113405.393 7  20322362.254    20322360.614    20322361.049
        46.500          45.400
 -12360918.040 6  -9631869.996 5  22471243.217    22471239.522    22471242.312
        39.100          34.500
 -12938784.117 6 -10082163.216 5  22020103.915    22020103.357    22020103.926
        37.100          33.000
  -5822858.996 5  -4537288.087 3  23796929.057    23796926.027    23796927.942
        31.100          23.000
 06  1  2  0 10 30.0000000  0  7G29G 6G27G10G 2G26G21
 -15973519.091 6 -12446889.374 6  21277450.344    21277448.546    21277449.649
        41.100          37.700
 -18629197.456 7 -14516246.253 6  21263695.654    21263694.443    21263694.902
        44.700          40.700
   -211131.092 3   -164516.876 2  25179177.189    25179175.883    25179175.967
        22.100          17.000
 -21925964.910 7 -17085151.176 7  20329262.234    20329260.573    20329260.994
        46.400          45.300
 -12273548.764 6  -9563790.052 5  22487868.607    22487865.205    22487867.946
        38.200          33.900
 -13045984.725 6 -10165696.117 5  21999704.343    21999703.722    21999704.269
        37.200          32.800
  -5917516.695 5  -4611047.294 4  23778915.974    23778913.503    23778914.720
        31.100          24.200
 06  1  2  0 11  0.0000000  0  7G29G 6G27G10G 2G26G21
 -16043245.944 6 -12501221.967 6  21264181.400    21264180.071    21264180.815
        41.100          38.100
 -18646313.944 7 -14529583.764 6  21260438.303    21260437.269    21260437.619
        44.500          40.900
   -227098.147 4   -176958.722 3  25176138.188    25176137.457    25176137.985
        24.200          18.600
 -21889318.541 7 -17056595.563 7  20336235.879    20336234.172    20336234.629
        46.400          45.300
 -12185942.175 6  -9495525.195 5  22504539.769    22504536.257    22504539.127
        38.100          33.900
 -13152825.708 6 -10248948.795 5  21979373.850    21979372.862    21979373.269
        37.900          34.000
  -6012133.994 5  -4684775.028 3  23760910.668    23760908.048    23760909.492
        31.600          23.000
 06  1  2  0 11 30.0000000  0  7G29G 6G27G10G 2G26G21
 -16112491.364 6 -12555179.403 6  21251004.730    21251003.093    21251003.787
        40.700          38.100
 -18662867.553 7 -14542482.667 6  21257288.421    21257287.035    21257287.621
        44.600          40.600
   -242628.740 3   -189060.473 3  25173183.761    25173182.272    25173182.159
        23.000          19.300
 -21852287.066 7 -17027739.865 7  20343282.463    20343281.097    20343281.398
        46.600          45.300
 -12098099.368 6  -9427076.275 5  22521256.104    22521252.399    22521255.218
        38.100          34.100
 -13259303.672 6 -10331918.578 5  21959111.807    21959110.727    21959111.026
        37.600          34.500
  -6106709.871 5  -4758470.477 4  23742912.990    23742910.445    23742911.984
        30.200          24.600
 06  1  2  0 12  0.0000000  0  7G29G 6G27G10G 2G26G21
 -16181253.159 6 -12608760.002 6  21237919.243    21237918.044    21237918.990
        41.600          37.900
 -18678856.948 7 -14554941.925 6  21254245.693    21254244.271    21254244.952
        44.500          40.600
   -257721.898 3   -200821.366 3  25170310.356    25170310.274    25170309.931
        22.600          19.300
 -21814871.987 7 -16998585.255 7  20350402.428    20350400.916    20350401.227
        46.700          45.300
 -12010020.987 6  -9358443.805 5  22538016.426    22538013.072    22538015.718
        38.100          33.600
 -13365415.535 6 -10414603.087 5  21938919.456    21938918.081    21938918.577
        37.200          34.400
  -6201243.405 5  -4832132.928 3  23724924.533    23724921.290    23724923.425
        30.600          23.800
 06  1  2  0 12 30.0000000  0  7G29G 6G27G10G 2G26G21
 -16249529.465 6 -12661962.293 6  21224927.515    21224925.329    21224926.535
        41.300          37.700
 -18694281.668 7 -14566961.177 6  21251310.475    21251309.139    21251309.790
        44.500          40.900
   -272376.610 4   -212240.587 2  25167522.829    25167520.475    25167521.677
        25.300          13.900
 -21777074.744 7 -16969132.853 7  20357594.941    20357593.472    20357593.792
        46.800          45.300
 -11921708.098 6  -9289628.581 5  22554821.536    22554818.473    22554821.007
        37.700          33.200
 -13471157.823 6 -10496999.628 5  21918797.375    21918795.851    21918796.403
        37.300          33.900
  -6295733.116 4  -4905761.219 3  23706942.890    23706940.423    23706941.909
        28.100          22.100
 06  1  2  0 13  0.0000000  0  7G29G 6G27G10G 2G26G21
 -16317317.911 6 -12714784.438 6  21212027.015    21212025.723    21212026.581
        41.400          38.100
 -18709141.026 7 -14578539.883 6  21248482.736    21248481.691    21248481.972
        44.500          40.800
   -286591.847 3   -223317.333 2  25164817.211    25164816.012    25164816.459
        23.000          16.100
 -21738897.183 7 -16939384.100 7  20364860.009    20364858.418    20364858.845
        46.700          45.300
 -11833161.437 6  -9220631.198 5  22571671.767    22571668.161    22571671.028
        37.600          32.800
 -13576527.364 6 -10579105.719 5  21898746.218    21898744.653    21898745.420
        38.100          34.000
  -6390177.900 4  -4979354.512 3  23688971.229    23688968.448    23688969.970
        29.200          23.400
 06  1  2  0 13 30.0000000  0  7G29G 6G27G10G 2G26G21
 -16384616.538 6 -12767224.895 6  21199221.363    21199219.396    21199220.362
        41.800          38.700
 -18723434.280 7 -14589677.474 6  21245763.087    21245761.803    21245762.306
        44.700          41.200
   -300366.723 3   -234051.006 2  25162196.020    25162194.649    25162194.836
        21.100          17.000
 -21700340.637 7 -16909340.036 7  20372197.047    20372195.436    20372195.899
        46.600          45.100
 -11744382.129 6  -9151452.536 5  22588566.340    22588562.673    22588565.374
        37.600          33.600
 -13681520.995 6 -10660918.913 5  21878766.089    21878764.990    21878765.574
        38.400          33.900
  -6484576.707 5  -5052911.992 3  23671007.492    23671004.461    23671006.627
        30.200          21.600
 06  1  2  0 14  0.0000000  0  7G29G 6G27G10G 2G26G21
 -16451423.117 6 -12819281.942 6  21186507.916    21186506.418    21186507.374
        41.900          38.600
 -18737160.484 7 -14600373.207 6  21243151.132    21243149.739    21243150.358
        44.700          41.200
   -313699.904 3   -244440.512 3  25159658.001    25159657.753    25159657.995
        23.800          18.600
 -21661406.863 7 -16879002.028 7  20379605.800    20379604.282    20379604.639
        46.600          45.000
 -11655371.192 6  -9082093.393 5  22605504.473    22605500.597    22605503.618
        37.700          32.600
 -13786135.182 6 -10742436.438 5  21858858.160    21858857.591    21858858.115
        38.400          34.400
  -6578928.199 5  -5126432.593 3  23653053.317    23653050.060    23653052.144
        31.100          22.600
 06  1  2  0 14 30.0000000  0  7G29G 6G27G10G 2G26G21
 -16517735.816 7 -12870954.154 6  21173889.336    21173887.443    21173888.519
        42.100          38.300
 -18750318.903 7 -14610626.512 6  21240647.085    21240645.680    21240646.288
        44.700          41.200
   -326590.957 3   -254485.470 2  25157205.983    25157204.454    25157205.048
        23.800          17.000
 -21622097.310 7 -16848371.203 7  20387086.140    20387084.591    20387085.023
        46.700          45.100
 -11566129.589 6  -9012554.483 5  22622486.323    22622482.603    22622485.719
        37.500          32.600
 -13890366.827 6 -10823655.846 5  21839022.376    21839023.132    21839023.339
        38.600          35.200
  -6673231.545 5  -5199915.710 3  23635107.335    23635104.454    23635106.574
        31.800          22.100
 06  1  2  0 15  0.0000000  0  7G29G 6G27G10G 2G26G21
 -16583552.618 7 -12922239.948 6  21161364.738    21161362.895    21161363.917
        42.200          38.600
 -18762909.372 7 -14620437.262 6  21238251.131    21238249.770    21238250.381
        44.700          40.900
   -339038.802 4   -264185.086 3  25154837.157    25154835.919    25154836.110
        26.200          18.600
 -21582413.831 7 -16817449.008 7  20394637.895    20394636.172    20394636.686
        46.700          44.900
 -11476658.256 6  -8942836.565 5  22639512.131    22639508.342    22639511.353
        36.800          32.100
 -13994212.468 6 -10904574.475 5  21819262.452    21819261.646    21819262.218
        38.600          34.600
  -6767485.301 5  -5273360.158 4  23617171.821    23617169.157    23617170.693
        31.000          24.200
 06  1  2  0 15 30.0000000  0  7G29G 6G27G10G 2G26G21
 -16648871.490 7 -12973137.743 6  21148934.643    21148933.190    21148933.929
        42.100          38.800
 -18774930.850 7 -14629804.643 6  21235963.676    21235962.192    21235962.852
        44.800          41.100
   -351042.311 3   -273538.471 3  25152552.692    25152551.403    25152551.378
        22.600          18.600
 -21542357.939 7 -16786236.624 7  20402260.257    20402258.521    20402259.053
        46.900          44.900
 -11386958.007 6  -8872940.284 5  22656581.557    22656578.032    22656580.711
        36.700          32.700
 -14097669.055 6 -10985189.974 5  21799576.048    21799574.404    21799575.077
        38.400          34.100
  -6861688.297 4  -5346765.055 4  23599245.384    23599242.771    23599244.293
        29.200          25.600
 06  1  2  0 16  0.0000000  0  7G29G 6G27G10G 2G26G21
 -16713690.270 7 -13023645.856 6  21136600.215    21136598.570    21136599.402
        42.000          39.100
 -18786383.015 7 -14638728.399 6  21233784.287    21233782.944    21233783.396
        44.400          41.200
   -362601.056 3   -282545.238 2  25150353.171    25150352.248    25150352.158
        22.600          17.800
 -21501931.121 7 -16754735.205 7  20409953.235    20409951.564    20409952.034
        46.900          44.800
 -11297029.774 6  -8802866.354 5  22673694.137    22673691.019    22673693.556
        36.500          33.200
 -14200733.429 6 -11065499.835 5  21779963.955    21779962.078    21779962.683
        38.600          35.100
  -6955839.315 5  -5420129.449 4  23581328.889    23581326.622    23581327.939
        31.600          27.100
 06  1  2  0 16 30.0000000  0  7G29G 6G27G10G 2G26G21
 -16778007.162 7 -13073762.894 6  21124360.986    21124359.536    21124360.277
        42.100          39.100
 -18797265.167 7 -14647207.989 6  21231713.276    21231712.173    21231712.584
        44.400          41.200
   -373713.856 3   -291204.566 2  25148238.383    25148237.107    25148237.419
        23.400          15.100
 -21461135.173 7 -16722946.152 7  20417716.281    20417714.722    20417715.190
        47.000          44.800
 -11206874.481 6  -8732615.506 5  22690849.750    22690846.728    22690849.343
        36.500          32.600
 -14303402.157 6 -11145501.411 5  21760426.002    21760424.706    21760425.250
        38.800          34.700
  -7049937.268 5  -5493452.475 4  23563422.994    23563420.522    23563421.935
        33.200          28.400
 06  1  2  0 17  0.0000000  0  7G29G 6G27G10G 2G26G21
 -16841820.136 7 -13123487.265 6  21112217.547    21112216.112    21112217.044
        42.200          39.000
 -18807576.523 7 -14655242.805 6  21229751.093    21229749.973    21229750.314
        44.300          41.100
   -384379.848 4   -299515.686 3  25146208.535    25146208.024    25146207.908
        24.900          19.300
 -21419971.342 7 -16690870.436 7  20425549.620    20425547.941    20425548.373
        46.800          44.700
 -11116493.377 6  -8662188.705 5  22708049.827    22708045.973    22708048.582
        36.400          33.200
 -14405672.126 6 -11225192.251 5  21740963.929    21740963.386    21740963.845
        38.900          34.600
  -7143980.758 5  -5566733.076 4  23545526.868    23545524.689    23545525.739
        33.100          28.600
 06  1  2  0 17 30.0000000  0  7G29G 6G27G10G 2G26G21
 -16905127.357 7 -13172817.537 6  21100171.021    21100169.130    21100170.139
        42.200          38.800
 -18817316.950 7 -14662832.743 6  21227897.586    21227896.404    21227896.831
        44.300          41.100
   -394598.445 4   -307478.203 3  25144264.764    25144262.951    25144263.494
        26.200          19.900
 -21378441.307 7 -16658509.365 7  20433452.579    20433450.821    20433451.309
        46.800          44.800
 -11025887.096 6  -8591586.447 5  22725291.850    22725287.653    22725290.643
        36.300          33.000
 -14507540.178 6 -11304569.905 5  21721578.718    21721578.474    21721578.792
        38.900          34.600
  -7237968.724 5  -5639970.428 4  23527641.391    23527638.695    23527640.484
        32.600          26.500
 06  1  2  0 18  0.0000000  0  7G29G 6G27G10G 2G26G21
 -16967926.924 7 -13221752.242 6  21088220.285    21088218.517    21088219.687
        42.500          38.900
 -18826485.603 7 -14669977.139 6  21226152.921    21226151.651    21226152.122
        44.600          41.100
   -404368.582 4   -315091.296 1  25142404.975    25142403.242    25142404.199
        25.300          11.000
 -21336546.799 7 -16625864.290 7  20441424.478    20441423.095    20441423.407
        46.700          44.600
 -10935056.821 6  -8520809.644 5  22742575.248    22742572.245    22742574.695
        36.000          32.600
 -14609003.059 6 -11383631.847 5  21702271.902    21702270.496    21702271.193
        39.000          34.700
  -7331899.819 5  -5713163.465 4  23509766.678    23509764.676    23509765.688
        31.800          27.100
 06  1  2  0 18 30.0000000  0  7G29G 6G27G10G 2G26G21
 -17030216.701 7 -13270289.711 6  21076366.985    21076365.283    21076366.326
        42.300          38.900
 -18835082.186 7 -14676675.770 6  21224516.922    21224515.712    21224516.209
        44.500          41.200
   -413689.738 3   -322354.527 3  25140631.514    25140630.123    25140630.648
        21.100          18.600
 -21294289.454 7 -16592936.484 7  20449465.787    20449464.430    20449464.664
        46.800          44.600
 -10844003.572 5  -8449859.081 5  22759901.420    22759898.907    22759901.389
        35.800          31.800
 -14710057.320 6 -11462375.386 5  21683042.295    21683040.664    21683041.257
        38.900          35.400
  -7425772.842 5  -5786311.250 4  23491902.920    23491900.638    23491901.914
        31.500          25.300
 06  1  2  0 19  0.0000000  0  7G29G 6G27G10G 2G26G21
 -17091994.934 7 -13318428.569 6  21064611.132    21064609.453    21064610.295
        42.400          39.500
 -18843105.967 7 -14682928.061 6  21222990.040    21222988.758    21222989.301
        44.500          41.000
   -422560.786 3   -329267.018 3  25138943.052    25138942.059    25138942.115
        23.000          18.600
 -21251670.913 7 -16559727.228 7  20457575.912    20457574.426    20457574.783
        46.800          44.600
 -10752728.294 6  -8378735.508 5  22777272.465    22777267.960    22777271.226
        36.500          31.100
 -14810699.975 6 -11540798.196 5  21663889.973    21663888.952    21663889.489
        39.300          35.600
  -7519586.761 5  -5859412.965 4  23474050.986    23474048.812    23474050.100
        32.000          25.600
 06  1  2  0 19 30.0000000  0  7G29G 6G27G10G 2G26G21
 -17153260.007 7 -13366167.562 6  21052952.396    21052951.168    21052951.864
        42.700          39.700
 -18850556.941 7 -14688734.011 6  21221572.323    21221570.843    21221571.565
        44.400          40.900
   -430981.322 3   -335828.459 3  25137340.912    25137339.746    25137339.634
        23.000          20.500
 -21208692.899 7 -16526237.865 7  20465754.171    20465752.915    20465753.100
        46.800          44.300
 -10661231.846 5  -8307439.598 5  22794683.161    22794679.496    22794682.123
        35.600          31.600
 -14910927.889 6 -11618897.825 5  21644816.960    21644816.125    21644816.622
        39.200          35.700
  -7613340.206 5  -5932467.581 4  23456210.977    23456207.938    23456209.839
        31.600          25.300
 06  1  2  0 20  0.0000000  0  7G29G 6G27G10G 2G26G21
 -17214009.689 7 -13413504.950 6  21041392.414    21041390.762    21041391.653
        42.700          39.500
 -18857434.360 7 -14694093.036 6  21220263.687    21220262.202    21220262.857
        44.400          40.800
   -438950.700 3   -342038.364 2  25135823.778    25135823.147    25135822.866
        22.100          17.800
 -21165356.769 7 -16492469.446 7  20474000.970    20473999.448    20473999.859
        46.800          44.300
 -10569515.436 5  -8235972.304 5  22812135.073    22812132.609    22812134.809
        35.100          31.500
 -15010737.875 6 -11696671.798 5  21625823.615    21625822.885    21625823.284
        39.400          35.400
  -7707031.938 5  -6005474.102 4  23438381.794    23438378.889    23438380.675
        33.000          25.300
 06  1  2  0 20 30.0000000  0  7G29G 6G27G10G 2G26G21
 -17274242.377 7 -13460439.481 6  21029930.491    21029928.698    21029929.695
        42.600          39.600
 -18863737.813 7 -14699004.810 6  21219063.894    21219062.820    21219063.242
        44.200          41.100
   -446468.155 4   -347896.082 2  25134393.896    25134392.286    25134392.947
        24.600          17.000
 -21121664.101 7 -16458423.211 7  20482315.551    20482313.904    20482314.403
        46.800          44.300
 -10477579.851 5  -8164334.225 5  22829629.973    22829627.042    22829629.822
        35.200          30.600
 -15110126.622 6 -11774117.541 6  21606911.314    21606910.033    21606910.443
        39.800          36.100
  -7800660.471 5  -6078431.394 4  23420564.991    23420561.896    23420563.858
        33.800          24.900
 06  1  2  0 21  0.0000000  0  7G29G 6G27G10G 2G26G21
 -17333956.348 7 -13506969.824 6  21018567.225    21018565.657    21018566.528
        42.900          39.700
 -18869466.836 7 -14703468.978 6  21217973.684    21217972.481    21217972.990
        44.300          40.800
   -453532.524 3   -353400.771 3  25133048.945    25133048.572    25133048.085
        23.400          19.900
 -21077616.744 7 -16424100.594 7  20490697.523    20490695.761    20490696.319
        46.800          44.100
 -10385426.212 5  -8092526.219 5  22847167.358    22847163.621    22847166.549
        35.600          31.100
 -15209090.989 6 -11851232.594 6  21588078.656    21588077.605    21588078.083
        40.000          36.000
  -7894224.595 5  -6151338.478 4  23402760.520    23402757.401    23402759.335
        33.100          25.600
 06  1  2  0 21 30.0000000  0  7G29G 6G27G10G 2G26G21
 -17393149.506 7 -13553094.340 6  21007303.144    21007301.571    21007302.453
        42.800          40.000
 -18874621.271 7 -14707485.414 6  21216993.024    21216991.491    21216992.235
        44.400          40.800
   -460143.445 4   -358552.108 3  25131791.634    25131789.951    25131790.763
        27.100          19.300
 -21033216.262 7 -16389502.810 7  20499146.505    20499144.929    20499145.343
        46.800          44.200
 -10293055.395 5  -8020548.965 5  22864745.083    22864741.053    22864744.068
        35.600          31.600
 -15307627.887 6 -11928014.556 5  21569327.262    21569326.553    21569327.076
        40.100          35.900
  -7987723.251 5  -6224194.535 4  23384967.638    23384965.063    23384966.695
        32.800          25.900
 06  1  2  0 22  0.0000000  0  8G29G 6G27G 8G10G 2G26G21
 -17451820.414 7 -13598811.897 6  20996138.761    20996136.803    20996137.832
        42.700          39.800
 -18879200.626 7 -14711053.741 6  21216121.467    21216120.159    21216120.818
        44.300          40.900
   -466299.977 4   -363349.382 3  25130620.201    25130618.194    25130619.470
        26.800          18.600
    -83869.123 4    -65352.671 2  24836575.451    24836574.153    24836574.863
        27.600          13.900
 -20988464.351 7 -16354631.192 7  20507662.641    20507660.957    20507661.475
        46.700          44.100
 -10200468.543 5  -7948403.394 5  22882363.789    22882359.835    22882362.734
        35.200          31.800
 -15405734.070 6 -12004460.910 5  21550658.868    21550657.442    21550658.210
        40.500          35.600
  -8081155.119 5  -6296998.564 4  23367188.397    23367185.666    23367187.380
        33.600          26.800
 06  1  2  0 22 30.0000000  0  8G29G 6G27G 8G10G 2G26G21
 -17509967.046 7 -13644120.929 6  20985073.455    20985071.789    20985072.772
        43.000          40.100
 -18883204.676 7 -14714173.778 6  21215359.719    21215358.213    21215358.885
        44.200          40.800
   -472001.870 3   -367792.399 3  25129534.500    25129533.686    25129533.706
        22.600          19.900
   -146363.965 4   -114049.935 1  24824682.593    24824681.928    24824681.926
        25.600          11.000
 -20943362.433 7 -16319486.835 7  20516245.272    20516243.622    20516244.131
        47.000          44.100
 -10107666.799 5  -7876090.370 5  22900022.399    22900019.550    22900022.128
        34.700          31.500
 -15503406.483 6 -12080569.259 6  21532072.357    21532071.194    21532071.801
        40.600          36.300
  -8174518.670 5  -6369749.359 4  23349422.207    23349419.051    23349420.786
        33.500          27.100
 06  1  2  0 23  0.0000000  0  8G29G 6G27G 8G10G 2G26G21
 -17567587.818 7 -13689020.207 6  20974108.003    20974106.857    20974107.583
        42.600          40.100
 -18886633.196 7 -14716845.347 6  21214707.250    21214705.694    21214706.386
        44.100          40.800
   -477248.458 4   -371880.594 3  25128536.206    25128535.177    25128535.219
        24.600          18.600
   -208506.477 4   -162472.647 2  24812858.038    24812857.027    24812856.745
        25.900          13.900
 -20897912.090 7 -16284070.979 7  20524894.131    20524892.404    20524892.993
        47.100          44.100
 -10014650.916 5  -7803610.481 5  22917723.636    22917719.830    22917722.612
        34.300          31.100
 -15600642.088 6 -12156337.229 6  21513568.574    21513567.986    21513568.316
        40.600          36.800
  -8267812.909 5  -6442446.141 4  23331668.840    23331665.848    23331667.701
        32.800          27.100
 06  1  2  0 23 30.0000000  0  8G29G 6G27G 8G10G 2G26G21
 -17624681.149 7 -13733508.485 6  20963244.135    20963242.285    20963243.208
        42.700          39.900
 -18889485.721 7 -14719068.090 6  21214164.163    21214162.991    21214163.440
        44.000          40.800
   -482038.873 3   -375613.405 3  25127624.688    25127623.549    25127623.479
        23.400          18.600
   -270294.050 3   -210618.767 2  24801100.615    24801098.779    24801099.174
        21.600          13.900
 -20852115.158 7 -16248385.055 7  20533608.996    20533607.277    20533607.812
        46.900          44.100
  -9921421.890 5  -7730964.512 5  22935464.732    22935460.615    22935463.510
        34.000          30.800
 -15697437.750 6 -12231762.386 6  21495149.497    21495148.219    21495148.742
        40.400          36.600
  -8361036.256 5  -6515087.660 4  23313928.811    23313925.898    23313927.809
        32.800          27.100
 06  1  2  0 24  0.0000000  0  8G29G 6G27G 8G10G 2G26G21
 -17681245.254 7 -13777584.385 6  20952480.278    20952478.342    20952479.432
        42.700          39.700
 -18891761.773 7 -14720841.631 6  21213731.292    21213729.975    21213730.430
        44.100          41.000
   -486372.837 4   -378990.502 3  25126800.352    25126798.297    25126799.340
        24.600          18.600
   -331723.898 3   -258486.129 3  24789409.392    24789409.466    24789408.157
        21.600          18.600
 -20805973.239 7 -16212430.311 7  20542389.633    20542387.770    20542388.420
        47.000          44.100
  -9827980.750 5  -7658153.237 5  22953245.610    22953242.052    22953244.620
        34.000          31.500
 -15793790.237 6 -12306842.220 6  21476814.382    21476812.880    21476813.675
        40.800          37.000
  -8454187.318 5  -6587672.868 4  23296202.314    23296200.061    23296201.403
        33.100          27.900
 06  1  2  0 24 30.0000000  0  8G29G 6G27G 8G10G 2G26G21
 -17737278.250 7 -13821246.433 6  20941817.169    20941815.737    20941816.592
        42.800          40.100
 -18893461.752 7 -14722166.289 6  21213407.672    21213406.298    21213406.908
        44.000          40.800
   -490249.353 3   -382011.157 2  25126062.516    25126060.861    25126061.455
        19.900          17.000
   -392793.324 3   -306072.672 3  24777787.859    24777788.210    24777787.333
        19.900          19.900
 -20759487.771 7 -16176207.868 7  20551235.419    20551233.670    20551234.203
        46.800          43.900
  -9734328.658 5  -7585177.616 5  22971067.875    22971063.544    22971066.399
        33.800          31.300
 -15889696.443 6 -12381574.304 6  21458563.417    21458562.320    21458563.146
        41.100          36.100
  -8547265.041 5  -6660200.921 4  23278489.575    23278487.711    23278488.805
        32.300          27.400
 06  1  2  0 25  0.0000000  0  8G29G 6G27G 8G10G 2G26G21
 -17792778.861 7 -13864493.641 6  20931255.909    20931254.289    20931255.234
        42.900          40.300
 -18894585.428 7 -14723041.870 6  21213193.963    21213192.386    21213193.117
        44.000          40.500
   -493668.052 3   -384675.064 2  25125411.538    25125410.025    25125410.730
        22.100          17.800
   -453499.416 3   -353376.055 3  24766235.892    24766236.335    24766234.989
        18.600          19.300
 -20712660.385 7 -16139718.994 7  20560146.336    20560144.746    20560145.115
        46.800          44.000
  -9640466.549 5  -7512038.337 5  22988928.155    22988925.058    22988927.411
        34.300          31.500
 -15985153.440 6 -12455956.349 6  21440398.735    21440397.638    21440398.270
        41.200          37.100
  -8640267.996 5  -6732670.715 4  23260792.687    23260789.737    23260791.713
        34.100          27.100
 06  1  2  0 25 30.0000000  0  8G29G 6G27G 8G10G 2G26G21
 -17847745.265 7 -13907324.579 6  20920796.352    20920794.544    20920795.510
        42.900          40.500
 -18895132.294 7 -14723468.001 6  21213089.936    21213088.355    21213089.137
        44.200          40.700
   -496628.382 3   -386981.760 2  25124848.395    25124847.106    25124847.436
        22.600          17.800
   -513839.554 3   -400394.264 2  24754754.164    24754753.931    24754753.302
        22.600          17.800
 -20665492.861 7 -16102965.075 7  20569121.782    20569120.471    20569120.699
        46.700          44.000
  -9546395.544 5  -7438736.278 5  23006828.685    23006825.888    23006828.383
        33.500          30.600
 -16080157.989 6 -12529985.834 6  21422320.177    21422318.755    21422319.448
        41.000          37.200
  -8733194.460 5  -6805080.914 4  23243108.724    23243106.465    23243108.013
        34.300          28.800
 06  1  2  0 26  0.0000000  0  8G29G 6G27G 8G10G 2G26G21
 -17902175.959 7 -13949738.078 6  20910438.607    20910436.662    20910437.777
        43.200          40.400
 -18895101.984 7 -14723444.386 6  21213095.657    21213094.202    21213094.916
        44.300          40.500
   -499129.849 3   -388930.980 2  25124372.497    25124371.158    25124371.821
        21.600          15.100
   -573810.974 3   -447125.237 2  24743341.968    24743341.097    24743341.096
        21.600          13.900
 -20617986.721 7 -16065947.302 7  20578161.815    20578160.668    20578160.721
        46.600          44.100
  -9452116.518 5  -7365272.119 5  23024768.590    23024766.521    23024769.186
        33.600          30.100
 -16174707.156 6 -12603660.475 6  21404327.412    21404326.635    21404327.270
        41.400          37.200
  -8826043.477 5  -6877430.759 4  23225440.649    23225438.010    23225439.769
        34.100          28.100
 06  1  2  0 26 30.0000000  0  8G29G 6G27G 8G10G 2G26G21
 -17956069.098 7 -13991732.705 6  20900183.248    20900181.145    20900182.297
        43.300          40.500
 -18894494.520 7 -14722971.033 6  21213211.246    21213209.824    21213210.480
        44.200          40.800
   -501172.189 3   -390522.366 2  25123982.976    25123981.999    25123982.435
        20.500          15.100
   -633411.278 3   -493567.019 2  24731999.844    24731999.331    24731998.703
        22.100          17.800
 -20570143.539 7 -16028666.899 7  20587266.205    20587264.830    20587265.074
        46.400          43.900
  -9357630.440 5  -7291646.624 4  23042749.585    23042746.645    23042749.482
        34.400          28.600
 -16268797.705 6 -12676977.750 6  21386422.845    21386421.793    21386422.249
        41.200          37.000
  -8918813.905 5  -6949719.366 4  23207786.937    23207783.787    23207785.762
        32.800          28.100
 06  1  2  0 27  0.0000000  0  8G29G 6G27G 8G10G 2G26G21
 -18009423.413 7 -14033307.475 6  20890030.048    20890028.112    20890029.336
        43.400          40.500
 -18893310.064 7 -14722048.080 6  21213436.484    21213435.333    21213435.718
        43.800          41.000
   -502754.740 3   -391755.514 3  25123682.062    25123681.339    25123681.461
        23.800          19.300
   -692637.364 3   -539717.153 3  24720730.162    24720729.407    24720729.155
        23.400          20.500
 -20521965.067 7 -15991125.234 7  20596434.384    20596432.900    20596433.179
        46.300          43.900
  -9262938.692 5  -7217860.874 4  23060770.700    23060766.238    23060769.401
        34.900          29.700
 -16362426.879 6 -12749935.521 6  21368606.278    21368604.809    21368605.422
        41.300          37.600
  -9011504.194 5  -7021945.505 4  23190148.597    23190145.917    23190147.366
        34.100          28.100
 06  1  2  0 27 30.0000000  0  8G29G 6G27G 8G10G 2G26G21
 -18062237.277 7 -14074461.119 6  20879979.826    20879978.018    20879979.157
        43.600          40.400
 -18891548.360 7 -14720675.318 6  21213771.698    21213770.693    21213770.877
        43.800          41.000
   -503877.210 3   -392630.115 3  25123469.033    25123467.981    25123468.042
        22.100          20.500
   -751486.800 4   -585573.822 3  24709531.208    24709530.581    24709530.648
        25.900          19.900
 -20473452.974 7 -15953323.602 7  20605665.961    20605664.476    20605664.721
        46.500          43.900
  -9168042.196 5  -7143915.568 4  23078828.703    23078824.075    23078827.345
        33.800          28.800
 -16455591.438 6 -12822531.260 6  21350877.056    21350876.147    21350876.629
        41.400          37.500
  -9104112.695 5  -7094107.956 4  23172525.453    23172522.553    23172524.492
        34.400          28.100
 06  1  2  0 28  0.0000000  0  8G29G 6G27G 8G10G 2G26G21
 -18114509.007 7 -14115192.313 6  20870032.894    20870031.013    20870032.070
        43.200          40.800
 -18889209.328 7 -14718852.696 6  21214216.646    21214215.635    21214215.885
        43.600          40.900
   -504539.026 4   -393145.818 3  25123343.243    25123341.570    25123342.216
        24.200          18.600
   -809956.809 3   -631134.782 3  24698404.719    24698404.432    24698403.913
        23.400          23.000
 -20424608.708 7 -15915263.132 7  20614960.651    20614959.158    20614959.482
        46.600          43.800
  -9072941.845 5  -7069811.415 5  23096924.853    23096921.259    23096924.063
        33.600          30.100
 -16548288.496 6 -12894762.704 6  21333237.597    21333236.380    21333237.130
        41.500          37.800
  -9196638.167 5  -7166205.683 4  23154918.955    23154915.384    23154917.749
        33.200          26.200
 06  1  2  0 28 30.0000000  0  8G29G 6G27G 8G10G 2G26G21
 -18166237.323 7 -14155500.069 6  20860189.179    20860187.432    20860188.433
        43.100          40.800
 -18886293.004 7 -14716580.234 6  21214771.782    21214770.553    21214771.005
        43.700          41.000
   -504739.858 4   -393302.273 3  25123304.395    25123303.618    25123303.709
        24.900          20.500
   -868044.722 4   -676398.046 3  24687351.544    24687350.662    24687350.387
        25.300          23.800
 -20375434.189 7 -15876945.324 7  20624318.080    20624316.726    20624317.040
        46.800          43.600
  -8977638.752 5  -6995549.298 4  23115059.094    23115056.744    23115059.517
        34.000          29.900
 -16640514.865 6 -12966627.383 6  21315687.408    21315686.267    21315686.912
        41.900          37.900
  -9289079.289 5  -7238237.713 4  23137327.489    23137324.742    23137326.300
        34.400          27.400
 06  1  2  0 29  0.0000000  0  8G29G 6G27G 8G10G 2G26G21
 -18217420.604 7 -14195383.118 6  20850449.298    20850447.419    20850448.611
        43.200          40.600
 -18882799.167 7 -14713857.765 6  21215436.556    21215435.401    21215435.836
        43.600          40.600
   -504478.839 4   -393098.877 3  25123354.174    25123353.524    25123353.378
        24.900          22.100
   -925748.227 4   -721361.771 3  24676370.954    24676369.307    24676369.773
        25.600          18.600
 -20325930.899 7 -15838371.329 7  20633738.374    20633736.829    20633737.224
        46.800          43.600
  -8882133.744 5  -6921129.839 4  23133234.022    23133230.726    23133233.488
        32.000          28.800
 -16732267.684 6 -13038123.046 6  21298226.981    21298226.225    21298226.814
        41.800          37.600
  -9381434.557 5  -7310202.816 4  23119753.681    23119750.368    23119752.447
        35.300          29.000
 06  1  2  0 29 30.0000000  0  8G29G 6G27G 8G10G 2G26G21
 -18268057.347 7 -14234840.306 6  20840813.384    20840811.493    20840812.634
        43.300          40.700
 -18878728.046 7 -14710685.460 6  21216211.376    21216210.176    21216210.605
        43.600          41.000
   -503756.022 3   -392535.635 3  25123491.317    25123490.902    25123490.700
        23.000          20.500
   -983063.867 4   -766023.275 3  24665463.512    24665462.830    24665462.081
        24.200          21.100
 -20276100.370 7 -15799542.343 7  20643220.761    20643219.324    20643219.607
        46.800          43.500
  -8786428.304 5  -6846554.202 4  23151446.698    23151443.277    23151445.683
        32.300          28.600
 -16823543.993 6 -13109247.407 6  21280858.236    21280856.936    21280857.524
        41.900          37.600
  -9473702.628 5  -7382099.982 4  23102195.202    23102192.286    23102194.051
        34.800          28.400
 06  1  2  0 30  0.0000000  0  8G29G 6G27G 8G10G 2G26G21
 -18318146.253 7 -14273870.600 6  20831281.671    20831279.959    20831281.037
        43.200          41.100
 -18874079.465 7 -14707063.195 6  21217095.915    21217094.892    21217095.117
        43.400          41.000
   -502571.004 3   -391612.227 3  25123717.553    25123716.110    25123716.522
        22.100          18.600
  -1039989.179 4   -810380.641 3  24654631.010    24654630.655    24654630.045
        24.900          21.100
 -20225944.191 7 -15760459.603 7  20652765.364    20652763.729    20652764.197
        47.000          43.300
  -8690523.536 5  -6771823.245 5  23169696.918    23169693.530    23169695.597
        32.300          30.200
 -16914340.670 7 -13179998.033 6  21263579.936    21263578.743    21263579.539
        42.300          37.700
  -9565882.210 5  -7453928.193 4  23084653.699    23084650.956    23084652.618
        34.700          27.900
 06  1  2  0 30 30.0000000  0  8G29G 6G27G 8G10G 2G26G21
 -18367685.867 7 -14312472.875 6  20821854.662    20821852.951    20821853.984
        43.400          41.000
 -18868853.676 7 -14702991.150 6  21218090.186    21218089.192    21218089.371
        43.500          40.800
   -500923.428 4   -390328.416 3  25124031.245    25124029.997    25124030.361
        24.900          21.600
  -1096522.171 4   -854432.252 3  24643873.644    24643873.053    24643872.292
        25.900          23.400
 -20175464.155 7 -15721124.510 7  20662371.200    20662369.813    20662370.157
        47.100          43.400
  -8594420.157 5  -6696937.511 4  23187984.671    23187981.155    23187983.576
        32.100          29.000
 -17004654.938 6 -13250372.759 6  21246393.765    21246392.404    21246393.122
        41.800          37.700
  -9657971.811 5  -7525686.298 4  23067130.048    23067126.776    23067128.744
        35.400          27.600
 06  1  2  0 31  0.0000000  0  8G29G 6G27G 8G10G 2G26G21
 -18416674.762 7 -14350646.017 6  20812532.490    20812530.655    20812531.720
        43.400          41.300
 -18863050.861 7 -14698469.470 6  21219194.616    21219193.392    21219193.867
        43.600          40.700
   -498812.736 3   -388683.698 3  25124432.866    25124431.258    25124431.906
        23.400          22.600
  -1152659.955 4   -898175.936 2  24633191.295    24633189.071    24633190.180
        28.400          17.000
 -20124661.788 7 -15681538.242 7  20672038.550    20672037.153    20672037.511
        47.100          43.200
  -8498119.187 5  -6621897.833 4  23206310.072    23206306.514    23206309.121
        32.100          29.000
 -17094483.834 7 -13320369.280 6  21229299.780    21229298.636    21229299.237
        42.000          38.200
  -9749970.026 5  -7597373.174 4  23049622.551    23049619.753    23049621.611
        34.800          27.400
 06  1  2  0 31 30.0000000  0  8G29G 6G27G 8G10G 2G26G21
 -18465111.422 7 -14388388.851 6  20803315.235    20803313.432    20803314.514
        43.400          41.300
 -18856670.682 7 -14693497.900 6  21220408.810    21220407.504    21220408.018
        43.600          40.700
   -496238.648 4   -386677.907 3  25124922.604    25124921.396    25124921.589
        24.200          22.100
  -1208399.879 4   -941609.649 2  24622584.476    24622582.353    24622582.945
        26.200          15.100
 -20073538.567 7 -15641701.961 7  20681767.054    20681765.493    20681765.930
        46.800          43.000
  -8401621.950 5  -6546705.205 4  23224672.564    23224669.302    23224672.073
        31.800          28.100
 -17183824.218 7 -13389985.129 6  21212298.491    21212297.749    21212298.175
        42.000          38.300
  -9841875.250 5  -7668987.609 4  23032134.114    23032130.676    23032132.973
        35.700          27.100
 06  1  2  0 32  0.0000000  0  8G29G 6G27G 8G10G 2G26G21
 -18512994.707 7 -14425700.483 6  20794203.375    20794201.481    20794202.623
        43.300          41.100
 -18849713.572 7 -14688076.781 6  21221732.753    21221731.471    21221731.981
        43.800          40.900
   -493200.932 4   -384310.871 3  25125500.300    25125499.526    25125499.319
        24.600          22.100
  -1263739.241 4   -984731.177 2  24612052.964    24612051.530    24612051.910
        25.300          15.100
 -20022096.261 7 -15601617.049 7  20691556.298    20691554.557    20691555.095
        46.800          42.800
  -8304929.301 5  -6471360.289 4  23243071.914    23243069.597    23243071.711
        31.600          28.600
 -17272673.527 7 -13459218.331 6  21195391.651    21195390.175    21195390.834
        42.000          38.300
  -9933686.048 6  -7740528.468 4  23014663.133    23014659.744    23014662.130
        36.300          28.800
 06  1  2  0 32 30.0000000  0  8G29G 6G27G 8G10G 2G26G21
 -18560323.314 7 -14462579.898 6  20785196.872    20785195.119    20785196.158
        43.400          41.200
 -18842179.327 7 -14682205.938 6  21223166.478    21223164.988    21223165.781
        44.000          40.300
   -489699.392 3   -381582.374 3  25126167.005    25126165.410    25126165.886
        23.400          19.900
  -1318675.414 4  -1027538.550 2  24601598.935    24601598.024    24601597.855
        27.900          17.000
 -19970336.465 7 -15561284.735 7  20701405.852    20701404.138    20701404.654
        46.800          42.700
  -8208042.406 5  -6395864.054 4  23261509.060    23261506.294    23261508.737
        32.100          27.900
 -17361028.615 7 -13528066.418 6  21178577.457    21178576.590    21178577.281
        42.200          38.000
 -10025400.893 6  -7811994.557 4  22997209.778    22997207.122    22997208.927
        36.300          29.200
 06  1  2  0 33  0.0000000  0  8G29G 6G27G 8G10G 2G26G21
 -18607095.833 7 -14499025.996 6  20776296.003    20776294.663    20776295.430
        43.600          41.300
 -18834068.677 7 -14675885.948 6  21224709.912    21224708.525    21224709.138
        44.100          40.500
   -485733.619 4   -378492.142 3  25126921.493    25126920.308    25126920.768
        24.600          21.100
  -1373206.195 4  -1070030.032 2  24591222.152    24591220.860    24591221.138
        27.100          17.000
 -19918260.852 7 -15520706.333 7  20711315.469    20711313.890    20711314.264
        46.700          42.800
  -8110962.407 5  -6320217.315 4  23279983.366    23279980.053    23279982.522
        31.100          27.600
 -17448886.490 7 -13596527.074 6  21161859.427    21161857.656    21161858.667
        42.500          37.700
 -10117018.496 6  -7883384.869 5  22979775.996    22979773.082    22979774.968
        36.500          30.200
 06  1  2  0 33 30.0000000  0  8G29G 6G27G 8G10G 2G26G21
 -18653310.796 7 -14535037.637 6  20767501.932    20767500.186    20767501.209
        43.400          41.400
 -18825381.487 7 -14669116.707 6  21226363.313    21226361.589    21226362.529
        44.100          40.600
   -481303.543 3   -375040.119 3  25127764.594    25127762.785    25127763.322
        22.100          20.500
  -1427328.754 4  -1112203.422 2  24580922.467    24580921.706    24580921.733
        24.200          17.000
 -19865870.851 7 -15479882.955 7  20721284.890    20721283.390    20721283.754
        46.500          42.800
  -8013690.394 5  -6244420.958 4  23298494.748    23298490.090    23298493.398
        31.600          27.600
 -17536244.507 7 -13664598.236 6  21145235.512    21145234.076    21145234.984
        42.700          38.000
 -10208537.191 5  -7954698.109 4  22962360.649    22962357.673    22962359.460
        35.600          29.700
 06  1  2  0 34  0.0000000  0  8G29G 6G27G 8G10G 2G26G21
 -18698967.356 7 -14570614.157 6  20758813.712    20758811.961    20758813.120
        43.700          41.200
 -18816117.989 7 -14661898.396 6  21228125.754    21228124.469    21228124.978
        43.700          40.500
   -476409.132 3   -371226.262 3  25128695.855    25128694.908    25128694.991
        23.000          21.600
  -1481040.798 4  -1154056.909 2  24570700.532    24570700.703    24570699.894
        24.200          17.000
 -19813168.197 7 -15438815.953 7  20731313.950    20731312.322    20731312.743
        46.600          42.700
  -7916227.420 5  -6168475.793 4  23317040.539    23317037.259    23317039.844
        32.000          29.200
