     2.10           OBSERVATION DATA    G (GPS)             RINEX VERSION / TYPE
teqc  2005Sep1                          20060101 01:04:01UTCPGM / RUN BY / DATE
Linux 2.4.20-8|Pentium IV|gcc|Linux|486/DX+                 COMMENT
ALGO CACS-ACP   883160   ALGONQUIN PARK  ONT  CANADA        MARKER NAME
40104M002                                                   MARKER NUMBER
-Unknown-           GEOD. SURVEY, NATURAL RESOURCES CANADA  OBSERVER / AGENCY
1103                AOA BENCHMARK ACT   3.3.32.2N           REC # / TYPE / VERS
386                 AOAD/M_T        NONE                    ANT # / TYPE
   918129.4000 -4346071.2000  4561977.8000                  APPROX POSITION XYZ
        0.1000        0.0000        0.0000                  ANTENNA: DELTA H/E/N
     1     1                                                WAVELENGTH FACT L1/2
     7    L1    L2    C1    P2    P1    S1    S2            # / TYPES OF OBSERV
    30.0000                                                 INTERVAL
L1 PHASE CENTRE  .110m ABOVE ARP                            COMMENT
L2 PHASE CENTRE  .128m ABOVE ARP                            COMMENT
where ARP is the Antenna Reference Point for HI measurement COMMENT
    P1 =    P1  TurboRogue; =    Y1  Benchmark              COMMENT
    L1 = L1(CA)                                             COMMENT
    P2 =    P2  TurboRogue; =    Y2  Benchmark              COMMENT
    L2 = L2(P2) TurboRogue; = L2(Y2) Benchmark              COMMENT
 SNR is mapped to RINEX snr flag value [0-9]                COMMENT
  L1 & L2: min(max(int(snr_dBHz/6), 0), 9)                  COMMENT
  2006     1     1     0     0    0.0000000     GPS         TIME OF FIRST OBS
                                                            END OF HEADER
 06  1  1  0  0  0.0000000  0  6G29G 6G10G 2G26G21
 -13756450.979 6 -10719302.137 5  21703413.911    21703411.878    21703413.070
        38.500          34.700
 -17872031.175 7 -13926243.585 6  21407579.072    21407577.646    21407578.248
        44.900          40.500
 -22878236.630 7 -17827175.316 7  20160590.275    20160588.580    20160589.169
        45.900          46.400
 -14648524.249 6 -11414415.680 6  22020494.612    22020490.815    22020493.909
        41.600          36.200
  -9857646.978 5  -7681275.854 4  22621054.862    22621052.894    22621053.626
        33.900          29.900
  -3121997.571 4  -2432722.223 3  24304026.964    24304026.203    24304026.414
        24.900          21.100
 06  1  1  0  0 30.0000000  0  6G29G 6G10G 2G26G21
 -13839213.863 6 -10783792.680 5  21687663.837    21687662.711    21687663.436
        38.100          35.300
 -17905207.516 7 -13952095.262 6  21401265.757    21401264.494    21401264.996
        45.200          40.700
 -22853389.542 7 -17807813.942 7  20165318.442    20165316.880    20165317.325
        45.900          46.300
 -14568238.461 6 -11351855.339 6  22035772.591    22035768.646    22035771.836
        41.800          36.100
  -9973621.298 5  -7771645.409 4  22598985.129    22598983.347    22598983.932
        33.400          29.500
  -3217346.018 4  -2507019.633 2  24285883.991    24285881.504    24285882.916
        26.500          16.100
 06  1  1  0  1  0.0000000  0  6G29G 6G10G 2G26G21
 -13921563.744 6 -10847961.367 5  21671993.345    21671992.162    21671992.929
        38.400          35.900
 -17937852.343 7 -13977532.775 6  21395053.499    21395052.183    21395052.696
        45.000          40.600
 -22828113.228 7 -17788118.102 7  20170128.185    20170126.808    20170127.158
        45.900          46.500
 -14487690.455 6 -11289090.664 6  22051100.591    22051096.520    22051099.690
        41.900          36.400
 -10089330.554 5  -7861808.397 4  22576966.333    22576964.550    22576965.249
        33.500          29.500
  -3312682.806 4  -2581307.978 2  24267742.385    24267739.532    24267741.217
        27.900          17.800
 06  1  1  0  1 30.0000000  0  6G29G 6G10G 2G26G21
 -14003498.154 6 -10911806.343 5  21656402.840    21656400.463    21656401.659
        38.600          35.900
 -17969964.255 7 -14002555.028 6  21388942.929    21388941.507    21388942.116
        45.100          40.600
 -22802409.124 7 -17768088.925 7  20175019.700    20175018.137    20175018.526
        45.800          46.500
 -14406881.026 6 -11226122.290 6  22066477.728    22066474.013    22066477.135
        41.900          36.500
 -10204771.405 5  -7951762.264 4  22554997.218    22554996.788    22554997.288
        33.800          29.700
  -3408006.992 4  -2655586.509 3  24249602.771    24249599.863    24249601.555
        28.100          18.600
 06  1  1  0  2  0.0000000  0  6G29G 6G10G 2G26G21
 -14085014.784 6 -10975325.775 5  21640890.024    21640888.245    21640889.395
        39.000          35.700
 -18001542.057 7 -14027161.091 6  21382933.828    21382932.544    21382933.136
        45.400          40.700
 -22776278.674 7 -17747727.538 7  20179992.203    20179990.658    20179991.010
        45.800          46.700
 -14325811.437 7 -11162951.188 6  22081904.931    22081901.099    22081904.126
        42.000          36.500
 -10319940.375 5  -8041504.293 5  22533080.420    22533080.939    22533081.257
        33.000          30.100
  -3503317.657 4  -2729854.513 1  24231465.427    24231462.564    24231464.222
        29.000          11.000
 06  1  1  0  2 30.0000000  0  6G29G 6G10G 2G26G21
 -14166110.860 6 -11038517.498 5  21625458.137    21625456.078    21625457.273
        39.000          35.500
 -18032584.360 7 -14051349.883 6  21377026.881    21377025.332    21377026.113
        45.400          40.600
 -22749723.223 7 -17727034.972 7  20185045.462    20185044.045    20185044.327
        45.700          46.600
 -14244482.079 6 -11099577.672 6  22097381.344    22097377.627    22097380.699
        41.700          36.500
 -10434834.042 5  -8131031.773 4  22511217.046    22511217.169    22511217.780
        34.700          29.700
  -3598613.825 4  -2804111.225 2  24213330.115    24213328.461    24213329.184
        28.100          16.100
 06  1  1  0  3  0.0000000  0  6G29G 6G10G 2G26G21
 -14246784.009 6 -11101379.661 6  21610106.730    21610104.615    21610105.657
        38.700          36.000
 -18063089.661 7 -14075120.231 6  21371222.031    21371220.176    21371221.182
        45.600          40.600
 -22722744.282 7 -17706012.416 7  20190179.489    20190177.964    20190178.274
        45.600          46.600
 -14162893.750 6 -11036002.366 6  22112907.275    22112903.440    22112906.538
        41.300          36.300
 -10549449.179 5  -8220342.242 5  22489407.194    22489406.581    22489407.287
        34.700          30.100
  -3693894.344 4  -2878355.737 3  24195199.879    24195197.148    24195198.673
        28.100          20.500
 06  1  1  0  3 30.0000000  0  6G29G 6G10G 2G26G21
 -14327031.622 6 -11163910.242 6  21594835.991    21594833.954    21594835.134
        39.600          36.300
 -18093057.054 7 -14098471.432 6  21365519.125    21365517.603    21365518.353
        45.400          40.600
 -22695343.597 7 -17684661.228 7  20195393.477    20195392.065    20195392.326
        45.800          46.600
 -14081047.373 6 -10972225.965 6  22128481.864    22128478.146    22128481.174
        41.400          36.300
 -10663782.299 5  -8309432.934 5  22467650.218    22467650.062    22467650.142
        33.800          31.000
  -3789158.814 4  -2952587.743 3  24177071.973    24177069.215    24177070.863
        27.600          21.600
 06  1  1  0  4  0.0000000  0  6G29G 6G10G 2G26G21
 -14406851.377 6 -11226107.420 6  21579646.658    21579644.690    21579645.963
        39.600          36.200
 -18122485.107 7 -14121402.369 6  21359918.909    21359917.643    21359918.158
        45.000          40.700
 -22667522.363 7 -17662982.344 7  20200687.813    20200686.182    20200686.579
        45.800          46.400
 -13998943.688 6 -10908249.076 6  22144106.163    22144102.028    22144105.040
        41.000          36.200
 -10777830.086 5  -8398301.290 5  22445948.184    22445947.306    22445947.673
        33.100          30.800
  -3884405.907 4  -3026806.166 3  24158945.784    24158943.881    24158945.014
        25.900          22.100
 06  1  1  0  4 30.0000000  0  6G29G 6G10G 2G26G21
 -14486240.688 6 -11287969.193 6  21564539.158    21564537.227    21564538.515
        40.000          36.200
 -18151372.568 7 -14143912.059 6  21354421.968    21354420.619    21354421.098
        45.000          41.000
 -22639282.042 7 -17640976.897 7  20206061.738    20206060.083    20206060.561
        46.000          46.300
 -13916583.921 6 -10844072.650 5  22159778.142    22159774.503    22159777.595
        41.300          35.500
 -10891589.168 5  -8486944.698 4  22424300.873    22424299.386    22424300.265
        34.400          29.700
  -3979634.706 4  -3101010.362 3  24140825.154    24140822.065    24140823.566
        24.200          23.400
 06  1  1  0  5  0.0000000  0  6G29G 6G10G 2G26G21
 -14565196.917 6 -11349493.499 6  21549514.023    21549512.627    21549513.556
        39.800          36.800
 -18179718.049 7 -14165999.432 6  21349028.099    21349026.635    21349027.274
        45.200          40.800
 -22610624.413 7 -17618646.272 7  20211515.197    20211513.477    20211513.989
        46.200          46.300
 -13833968.453 6 -10779696.963 5  22175499.872    22175495.713    22175498.859
        41.100          35.700
 -11005056.127 5  -8575360.476 5  22402708.550    22402707.313    22402708.109
        34.000          30.400
  -4074844.120 4  -3175199.412 3  24122707.312    24122704.496    24122706.274
        26.800          23.800
 06  1  1  0  5 30.0000000  0  6G29G 6G10G 2G26G21
 -14643718.092 6 -11410678.791 6  21534571.994    21534570.429    21534571.334
        39.300          36.500
 -18207520.693 7 -14187663.818 6  21343737.406    21343735.758    21343736.670
        45.400          40.600
 -22581550.807 7 -17595991.508 7  20217047.621    20217046.090    20217046.497
        46.200          46.400
 -13751098.377 6 -10715122.900 5  22191269.698    22191265.242    22191268.741
        41.500          35.600
 -11118227.570 5  -8663545.959 5  22381173.057    22381171.705    22381172.410
        34.800          31.300
  -4170033.220 4  -3249372.684 3  24104592.852    24104589.886    24104592.180
        28.800          21.600
 06  1  1  0  6  0.0000000  0  6G29G 6G10G 2G26G21
 -14721801.455 6 -11471522.935 6  21519713.965    21519711.724    21519712.858
        39.700          36.600
 -18234779.196 7 -14208904.191 6  21338550.154    21338548.471    21338549.404
        45.300          40.300
 -22552062.566 7 -17573013.652 7  20222659.185    20222657.520    20222658.038
        46.400          46.300
 -13667974.578 6 -10650351.106 5  22207086.798    22207083.401    22207086.418
        40.600          35.500
 -11231100.202 5  -8751498.623 5  22359694.811    22359692.590    22359693.603
        34.700          30.400
  -4265201.330 4  -3323529.597 3  24086482.604    24086480.014    24086481.495
        27.100          20.500
 06  1  1  0  6 30.0000000  0  6G29G 6G10G 2G26G21
 -14799444.714 6 -11532024.153 6  21504938.292    21504936.413    21504937.717
        40.500          36.400
 -18261492.308 7 -14229719.589 6  21333466.947    21333465.244    21333466.170
        45.100          40.500
 -22522161.156 7 -17549713.850 7  20228349.222    20228347.535    20228348.097
        46.300          46.400
 -13584597.831 6 -10585382.241 6  22222953.808    22222949.794    22222952.810
        40.800          36.100
 -11343670.627 5  -8839215.796 5  22338272.848    22338271.192    22338271.714
        34.900          31.000
  -4360347.172 4  -3397669.166 2  24068376.706    24068374.436    24068376.155
        29.700          17.800
 06  1  1  0  7  0.0000000  0  6G29G 6G10G 2G26G21
 -14876645.551 6 -11592180.618 6  21490247.804    21490245.729    21490246.853
        40.200          36.600
 -18287659.003 7 -14250109.207 6  21328487.580    21328485.941    21328486.807
        44.800          40.500
 -22491848.145 7 -17526093.316 7  20234117.516    20234115.878    20234116.347
        46.000          46.100
 -13500969.102 6 -10520217.004 5  22238866.931    22238863.277    22238866.594
        40.900          34.700
 -11455935.589 5  -8926694.942 5  22316909.654    22316907.896    22316908.727
        35.500          31.300
  -4455469.845 4  -3471790.685 3  24050276.803    24050273.765    24050275.460
        29.900          19.300
 06  1  1  0  7 30.0000000  0  6G29G 6G10G 2G26G21
 -14953401.445 6 -11651990.384 6  21475641.264    21475639.484    21475640.470
        40.100          37.200
 -18313277.953 7 -14270072.008 6  21323612.241    21323610.742    21323611.511
        45.100          40.500
 -22461125.281 7 -17502153.414 7  20239963.972    20239962.267    20239962.779
        46.400          46.200
 -13417089.344 6 -10454856.154 5  22254829.520    22254825.304    22254828.404
        40.300          35.400
 -11567891.596 5  -9013933.349 5  22295605.681    22295603.105    22295604.375
        35.500          31.100
  -4550568.124 5  -3545893.214 3  24032180.084    24032177.198    24032179.165
        30.100          18.600
 06  1  1  0  8  0.0000000  0  6G29G 6G10G 2G26G21
 -15029709.952 6 -11711451.516 6  21461119.881    21461118.470    21461119.382
        40.000          37.100
 -18338348.274 7 -14289607.311 6  21318841.450    21318840.041    21318840.703
        44.800          40.700
 -22429993.981 7 -17477895.253 7  20245887.956    20245886.332    20245886.845
        46.300          46.300
 -13332959.140 6 -10389300.166 5  22270838.705    22270834.648    22270837.920
        40.400          35.100
 -11679535.267 5  -9100928.375 5  22274360.163    22274357.932    22274358.866
        35.100          31.100
  -4645641.226 4  -3619976.119 2  24014088.325    24014084.760    24014087.027
        29.200          17.800
 06  1  1  0  8 30.0000000  0  6G29G 6G10G 2G26G21
 -15105568.782 6 -11770562.275 6  21446684.640    21446682.838    21446684.023
        40.500          36.800
 -18362868.750 7 -14308714.168 6  21314175.210    21314173.995    21314174.452
        44.700          40.900
 -22398455.703 7 -17453319.970 7  20251889.412    20251887.806    20251888.296
        46.300          46.100
 -13248579.522 6 -10323549.819 5  22286895.618    22286891.529    22286894.827
        40.300          34.500
 -11790863.394 5  -9187677.513 5  22253174.839    22253173.087    22253173.736
        35.300          32.600
  -4740688.123 4  -3694038.571 2  23996000.220    23995997.616    23995999.551
        26.500          17.800
 06  1  1  0  9  0.0000000  0  6G29G 6G10G 2G26G21
 -15180975.637 6 -11829320.835 6  21432334.615    21432333.465    21432334.488
        40.800          36.900
 -18386838.249 7 -14327391.691 6  21309613.893    21309612.730    21309613.210
        44.600          40.700
 -22366511.968 7 -17428428.749 7  20257968.272    20257966.504    20257967.033
        46.200          46.100
 -13163951.518 6 -10257605.921 5  22302999.987    22302995.754    22302999.030
        40.000          34.400
 -11901872.605 5  -9274178.139 5  22232051.153    22232048.495    22232049.654
        34.900          32.400
  -4835707.734 4  -3768079.795 3  23977918.833    23977916.423    23977917.812
        27.100          19.300
 06  1  1  0  9 30.0000000  0  6G29G 6G10G 2G26G21
 -15255928.246 6 -11887725.447 6  21418072.662    21418070.364    21418071.580
        40.000          37.000
 -18410255.851 7 -14345639.161 6  21305157.817    21305156.549    21305157.040
        44.700          40.800
 -22334164.318 7 -17403222.787 7  20264123.841    20264122.136    20264122.632
        46.300          46.100
 -13079076.018 6 -10191469.186 5  22319150.920    22319147.152    22319150.250
        40.200          34.800
 -12012559.427 5  -9360427.559 5  22210987.846    22210985.485    22210986.637
        35.700          32.000
  -4930698.928 4  -3842098.844 3  23959842.981    23959839.572    23959841.828
        28.100          18.600
 06  1  1  0 10  0.0000000  0  7G29G 6G27G10G 2G26G21
 -15330424.291 6 -11945774.292 6  21403896.288    21403894.359    21403895.534
        40.700          37.200
 -18433120.634 7 -14363455.868 6  21300806.975    21300805.416    21300806.136
        44.800          40.700
    -35506.228 4    -27666.263 2  25211142.694    25211140.611    25211141.880
        25.900          17.800
 -22301414.147 7 -17377703.172 7  20270356.053    20270354.310    20270354.796
        46.300          46.000
 -12993953.562 6 -10125140.006 5  22335349.660    22335345.135    22335348.658
        40.000          34.300
 -12122920.444 6  -9446423.126 5  22189986.655    22189984.242    22189985.599
        36.700          31.300
  -5025660.721 4  -3916095.003 3  23941772.318    23941769.191    23941771.240
        28.600          22.100
 06  1  1  0 10 30.0000000  0  7G29G 6G27G10G 2G26G21
 -15404461.356 6 -12003465.482 6  21389807.780    21389805.387    21389806.766
        40.700          37.200
 -18455431.202 7 -14380840.720 6  21296561.231    21296559.840    21296560.501
        44.800          40.700
    -55409.610 4    -43175.379 3  25207355.463    25207354.086    25207354.377
        25.900          22.600
 -22268262.951 7 -17351871.068 7  20276664.443    20276662.694    20276663.240
        46.600          46.000
 -12908585.291 6 -10058619.282 5  22351594.534    22351590.298    22351593.678
        39.600          34.600
 -12232952.601 5  -9532162.423 5  22169048.112    22169046.232    22169046.908
        35.700          33.100
  -5120592.167 4  -3990067.515 3  23923707.112    23923704.547    23923706.008
        29.000          22.100
 06  1  1  0 11  0.0000000  0  7G29G 6G27G10G 2G26G21
 -15478037.202 6 -12060797.292 6  21375806.323    21375804.325    21375805.687
        40.800          37.200
 -18477186.935 7 -14397793.235 6  21292421.266    21292419.826    21292420.429
        44.500          40.900
    -74886.450 3    -58352.118 3  25203648.827    25203647.291    25203648.090
        23.400          18.600
 -22234712.380 7 -17325727.758 7  20283049.000    20283047.206    20283047.800
        46.600          45.900
 -12822972.089 6  -9991907.715 5  22367885.292    22367882.031    22367885.074
        39.400          34.500
 -12342652.376 5  -9617642.711 5  22148172.922    22148170.780    22148171.807
        35.900          32.100
  -5215491.988 4  -4064015.380 3  23905648.370    23905645.503    23905647.104
        28.800          22.100
 06  1  1  0 11 30.0000000  0  7G29G 6G27G10G 2G26G21
 -15551149.454 6 -12117767.854 6  21361893.285    21361891.677    21361892.651
        40.700          37.600
 -18498386.977 7 -14414312.736 6  21288386.899    21288385.646    21288386.142
        44.700          40.700
    -93935.353 3    -73195.433 2  25200024.615    25200022.366    25200023.431
        22.600          17.000
 -22200764.113 7 -17299274.561 7  20289509.034    20289507.344    20289507.883
        46.700          45.900
 -12737114.979 6  -9925006.097 5  22384224.149    22384220.058    22384223.223
        39.100          34.600
 -12452016.606 6  -9702861.555 5  22127361.706    22127359.436    22127360.538
        36.300          32.300
  -5310359.369 4  -4137937.957 4  23887595.527    23887593.450    23887594.660
        29.200          25.900
 06  1  1  0 12  0.0000000  0  7G29G 6G27G10G 2G26G21
 -15623796.082 6 -12174375.588 6  21348068.927    21348067.544    21348068.332
        40.800          38.000
 -18519029.491 7 -14430397.802 6  21284458.827    21284457.412    21284458.137
        44.900          40.700
   -112555.597 3    -87704.694 2  25196480.813    25196478.761    25196479.676
        23.000          17.800
 -22166419.731 7 -17272512.700 7  20296044.500    20296042.794    20296043.363
        46.900          45.700
 -12651014.668 6  -9857914.959 5  22400608.368    22400604.818    22400607.540
        39.200          34.900
 -12561041.796 6  -9787816.205 5  22106614.534    22106612.621    22106613.512
        36.300          32.700
  -5405192.987 4  -4211834.230 4  23869549.369    23869547.383    23869548.269
        29.500          25.300
 06  1  1  0 12 30.0000000  0  7G29G 6G27G10G 2G26G21
 -15695974.592 6 -12230618.558 6  21334334.053    21334332.100    21334333.394
        41.100          37.500
 -18539114.518 7 -14446048.464 6  21280636.969    21280635.341    21280636.185
        45.100          40.800
   -130745.962 4   -101878.963 3  25193019.649    25193017.356    25193018.753
        24.900          18.600
 -22131680.683 7 -17245443.310 7  20302655.094    20302653.383    20302653.998
        46.900          45.800
 -12564672.170 6  -9790635.112 5  22417039.077    22417035.188    22417038.230
        39.600          34.800
 -12669724.541 6  -9872504.012 5  22085932.623    22085930.970    22085931.836
        36.900          33.000
  -5499992.043 4  -4285703.552 4  23851509.534    23851507.733    23851508.536
        28.400          24.200
 06  1  1  0 13  0.0000000  0  7G29G 6G27G10G 2G26G21
 -15767683.014 6 -12286495.238 6  21320688.693    21320686.481    21320687.840
        41.200          37.700
 -18558640.837 7 -14461263.766 6  21276921.041    21276919.766    21276920.371
        45.100          41.000
   -148505.285 3   -115717.414 3  25189639.722    25189638.276    25189638.562
        23.800          19.300
 -22096548.646 7 -17218067.692 7  20309340.587    20309338.816    20309339.408
        46.900          45.700
 -12478088.200 6  -9723167.094 5  22433515.580    22433511.345    22433514.499
        38.900          34.400
 -12778061.606 6  -9956922.485 5  22065316.159    22065314.960    22065315.719
        37.100          32.400
  -5594755.055 4  -4359544.835 3  23833476.892    23833474.489    23833475.756
        29.500          21.600
 06  1  1  0 13 30.0000000  0  7G29G 6G27G10G 2G26G21
 -15838919.055 6 -12342003.822 6  21307132.618    21307130.627    21307131.867
        41.400          37.700
 -18577607.586 7 -14476043.043 6  21273311.891    21273310.486    21273311.144
        45.200          41.000
   -165832.571 3   -129219.192 2  25186342.485    25186340.414    25186341.280
        23.400          16.100
 -22061025.156 7 -17190387.043 7  20316100.645    20316098.678    20316099.389
        46.800          45.600
 -12391263.717 6  -9655511.677 5  22450037.501    22450033.598    22450036.821
        39.400          34.500
 -12886049.668 6 -10041068.974 5  22044766.147    22044765.529    22044766.233
        37.300          33.500
  -5689481.096 4  -4433357.306 3  23815450.973    23815448.635    23815449.809
        29.200          22.600
 06  1  1  0 14  0.0000000  0  7G29G 6G27G10G 2G26G21
 -15909680.445 6 -12397142.547 6  21293667.113    21293665.306    21293666.427
        41.300          38.100
 -18596013.891 7 -14490385.617 6  21269809.566    21269807.709    21269808.796
        45.200          41.000
   -182726.467 4   -142383.268 2  25183127.541    25183125.542    25183127.040
        25.300          13.900
 -22025111.545 7 -17162402.402 7  20322934.587    20322932.773    20322933.387
        46.600          45.500
 -12304199.680 6  -9587669.578 5  22466604.788    22466601.485    22466604.322
        39.200          34.500
 -12993685.448 6 -10124940.971 5  22024283.650    22024282.962    22024283.879
        37.500          33.000
  -5784169.191 5  -4507140.197 3  23797433.125    23797429.968    23797432.138
        30.800          22.600
 06  1  1  0 14 30.0000000  0  7G29G 6G27G10G 2G26G21
 -15979965.123 6 -12451909.807 6  21280292.582    21280290.399    21280291.876
        41.800          37.800
 -18613858.705 7 -14504290.658 6  21266413.578    21266412.052    21266412.846
        45.100          40.800
   -199186.382 3   -155209.142 2  25179995.687    25179993.237    25179994.563
        22.600          12.600
 -21988809.582 7 -17134115.148 7  20329842.548    20329840.817    20329841.395
        46.700          45.600
 -12216897.158 6  -9519641.648 5  22483218.336    22483214.166    22483217.443
        38.700          33.800
 -13100965.664 6 -10208535.919 5  22003868.933    22003868.037    22003869.067
        37.200          32.100
  -5878818.230 5  -4580892.656 4  23779421.914    23779419.062    23779420.641
        31.000          24.900
 06  1  1  0 15  0.0000000  0  7G29G 6G27G10G 2G26G21
 -16049770.970 6 -12506303.964 6  21267008.866    21267006.888    21267008.086
        41.300          37.800
 -18631141.433 7 -14517757.712 6  21263124.572    21263123.296    21263123.838
        44.800          41.000
   -215210.984 3   -167695.836 2  25176945.438    25176944.206    25176945.257
        23.400          17.800
 -21952120.912 7 -17105526.568 7  20336824.252    20336822.428    20336823.049
        46.800          45.400
 -12129357.014 6  -9451428.565 5  22499876.332    22499872.723    22499875.749
        38.600          33.800
 -13207887.031 6 -10291851.239 5  21983523.252    21983521.837    21983522.850
        38.400          33.500
  -5973427.070 5  -4654613.795 3  23761418.080    23761415.578    23761417.038
        31.300          23.000
 06  1  1  0 15 30.0000000  0  7G29G 6G27G10G 2G26G21
 -16119095.610 6 -12560323.131 6  21253816.823    21253814.936    21253815.898
        41.100          38.300
 -18647861.109 7 -14530786.022 6  21259943.028    21259941.493    21259942.268
        44.700          40.700
   -230799.317 4   -179842.599 2  25173980.455    25173977.743    25173978.817
        24.600          17.800
 -21915047.017 7 -17076637.808 7  20343879.039    20343877.442    20343877.923
        46.800          45.600
 -12041580.171 6  -9383031.035 5  22516580.314    22516576.308    22516579.570
        38.700          34.300
 -13314446.270 6 -10374884.381 5  21963245.655    21963244.422    21963245.066
        38.200          34.400
  -6067994.542 5  -4728302.698 3  23743421.899    23743419.420    23743421.069
        30.200          23.400
 06  1  1  0 16  0.0000000  0  7G29G 6G27G10G 2G26G21
 -16187937.098 6 -12613965.825 6  21240716.228    21240714.716    21240715.949
        41.700          37.900
 -18664016.918 7 -14543374.956 6  21256868.671    21256867.080    21256867.865
        44.900          40.800
   -245950.196 3   -191648.483 2  25171095.601    25171094.871    25171095.147
        22.100          16.100
 -21877589.321 7 -17047449.988 7  20351006.961    20351005.387    20351005.806
        46.900          45.400
 -11953567.462 6  -9314449.711 5  22533328.294    22533324.394    22533327.412
        37.800          33.900
 -13420639.879 6 -10457632.615 5  21943038.164    21943036.349    21943037.208
        37.700          34.300
  -6162519.511 5  -4801958.475 3  23725435.318    23725431.588    23725434.171
        31.300          23.000
 06  1  1  0 16 30.0000000  0  7G29G 6G27G10G 2G26G21
 -16256293.141 6 -12667230.247 6  21227709.331    21227706.876    21227708.372
        41.500          37.800
 -18679608.630 7 -14555524.333 6  21253901.756    21253900.041    21253900.998
        44.800          40.700
   -260662.974 4   -203112.953 2  25168297.252    25168294.366    25168296.221
        25.900          15.100
 -21839749.681 7 -17017964.542 7  20358207.651    20358205.988    20358206.467
        47.000          45.400
 -11865319.787 6  -9245685.305 5  22550121.266    22550117.415    22550120.426
        37.800          33.200
 -13526464.796 6 -10540093.551 5  21922900.016    21922898.293    21922899.211
        37.100          33.600
  -6257000.853 4  -4875580.248 3  23707455.238    23707452.484    23707454.308
        29.200          21.100
 06  1  1  0 17  0.0000000  0  7G29G 6G27G10G 2G26G21
 -16324161.827 6 -12720114.924 6  21214793.588    21214791.875    21214793.130
        41.600          38.000
 -18694634.794 7 -14567233.020 6  21251042.211    21251040.867    21251041.419
        44.800          41.000
   -274936.146 4   -214234.854 2  25165580.495    25165578.561    25165579.879
        24.600          17.000
 -21801529.517 7 -16988182.590 7  20365480.795    20365479.021    20365479.627
        47.000          45.400
 -11776838.183 6  -9176738.610 5  22566958.483    22566954.755    22566957.893
        37.900          33.100
 -13631917.576 6 -10622264.527 5  21902833.418    21902831.290    21902832.450
        38.100          33.800
  -6351437.412 4  -4949167.144 3  23689485.477    23689482.163    23689484.083
        28.800          22.600
 06  1  1  0 17 30.0000000  0  7G29G 6G27G10G 2G26G21
 -16391541.068 6 -12772618.202 6  21201972.458    21201970.195    21201971.500
        41.700          38.600
 -18709094.842 7 -14578500.585 6  21248290.572    21248289.355    21248289.816
        44.800          41.100
   -288769.006 3   -225013.728 2  25162948.442    25162946.226    25162946.892
        21.100          16.100
 -21762930.595 7 -16958105.504 7  20372825.903    20372824.087    20372824.721
        47.100          45.300
 -11688123.707 6  -9107610.469 5  22583840.386    22583836.899    22583839.701
        37.700          33.500
 -13736994.922 6 -10704142.959 5  21882837.250    21882835.738    21882836.672
        38.600          33.600
  -6445827.901 5  -5022718.140 3  23671522.776    23671519.788    23671522.010
        30.400          23.000
 06  1  1  0 18  0.0000000  0  7G29G 6G27G10G 2G26G21
 -16458428.749 7 -12824738.451 6  21189243.693    21189241.926    21189243.148
        42.100          38.600
 -18722988.443 7 -14589326.760 6  21245647.056    21245645.396    21245646.302
        45.100          41.300
   -302160.502 3   -235448.680 2  25160399.360    25160398.116    25160399.025
        23.800          17.000
 -21723954.472 7 -16927734.491 7  20380242.748    20380241.004    20380241.538
        46.900          45.200
 -11599177.402 6  -9038301.698 5  22600766.764    22600762.638    22600765.767
        37.200          33.000
 -13841693.740 6 -10785726.440 5  21862913.419    21862912.169    21862913.075
        38.500          34.400
  -6540171.420 5  -5096232.532 3  23653570.565    23653566.879    23653569.307
        31.800          21.100
 06  1  1  0 18 30.0000000  0  7G29G 6G27G10G 2G26G21
 -16524822.879 7 -12876474.117 6  21176609.565    21176607.331    21176608.822
        42.400          38.500
 -18736314.485 7 -14599710.682 6  21243111.036    21243109.476    21243110.238
        45.000          41.100
   -315109.649 4   -245538.910 2  25157936.274    25157933.566    25157935.239
        25.600          17.000
 -21684602.539 7 -16897070.639 7  20387731.148    20387729.405    20387729.995
        47.000          45.100
 -11509999.800 6  -8968812.664 5  22617736.537    22617732.438    22617735.988
        37.700          32.300
 -13946010.693 6 -10867012.334 5  21843061.132    21843061.520    21843062.101
        38.100          34.600
  -6634466.803 5  -5169709.438 3  23635626.161    23635622.547    23635625.175
        32.400          21.100
 06  1  1  0 19  0.0000000  0  7G29G 6G27G10G 2G26G21
 -16590721.367 7 -12927823.569 6  21164069.461    21164067.286    21164068.685
        42.300          38.600
 -18749072.509 7 -14609651.997 6  21240683.184    21240681.593    21240682.386
        44.900          41.000
   -327615.514 4   -255283.757 2  25155556.116    25155554.099    25155555.449
        26.500          17.800
 -21644876.370 7 -16866115.176 7  20395290.985    20395289.098    20395289.742
        47.000          45.000
 -11420592.177 6  -8899144.395 5  22634749.634    22634745.921    22634749.210
        37.000          31.800
 -14049942.621 6 -10947998.214 5  21823284.445    21823283.674    21823284.558
        38.600          34.700
  -6728712.521 5  -5243147.634 3  23617692.034    23617688.843    23617690.919
        31.600          23.000
 06  1  1  0 19 30.0000000  0  7G29G 6G27G10G 2G26G21
 -16656122.286 7 -12978785.307 6  21151623.905    21151621.936    21151623.150
        42.200          38.900
 -18761261.967 7 -14619150.271 6  21238363.694    21238362.101    21238362.951
        45.000          41.100
   -339677.409 3   -264682.659 2  25153261.055    25153258.775    25153259.745
        23.800          16.100
 -21604777.781 7 -16834869.518 7  20402921.481    20402919.584    20402920.275
        47.100          44.900
 -11330955.148 6  -8829297.388 5  22651807.483    22651803.705    22651806.654
        36.800          32.700
 -14153486.064 6 -11028681.404 5  21803581.667    21803579.916    21803580.970
        38.800          34.100
  -6822907.324 5  -5316546.154 4  23599767.028    23599764.167    23599765.825
        30.600          25.900
 06  1  1  0 20  0.0000000  0  7G29G 6G27G10G 2G26G21
 -16721023.528 7 -13029357.684 6  21139273.688    21139271.677    21139272.805
        42.000          38.900
 -18772882.364 7 -14628205.121 6  21236152.391    21236150.796    21236151.579
        44.600          41.100
   -351294.512 4   -273734.915 2  25151050.134    25151048.161    25151049.288
        25.300          17.000
 -21564308.288 7 -16803334.845 7  20410622.519    20410620.709    20410621.346
        47.200          45.000
 -11241089.909 6  -8759272.530 5  22668908.224    22668904.553    22668907.523
        36.500          33.000
 -14256637.946 6 -11109059.485 5  21783953.088    21783950.911    21783951.893
        38.600          34.800
  -6917050.391 5  -5389904.349 4  23581851.517    23581849.493    23581850.901
        31.500          25.900
 06  1  1  0 20 30.0000000  0  7G29G 6G27G10G 2G26G21
 -16785423.114 7 -13079539.159 6  21127018.683    21127016.906    21127018.022
        42.400          39.300
 -18783932.966 7 -14636815.970 6  21234049.409    21234047.973    21234048.616
        44.500          41.100
   -362465.905 3   -282439.909 2  25148924.130    25148921.843    25148923.126
        21.600          13.900
 -21523469.549 7 -16771512.449 7  20418393.739    20418392.021    20418392.651
        47.200          45.000
 -11150997.625 6  -8689070.772 5  22686051.737    22686048.481    22686051.397
        36.800          33.000
 -14359394.932 6 -11189129.838 5  21764398.776    21764396.802    21764397.781
        39.000          34.400
  -7011140.423 5  -5463221.211 4  23563947.619    23563944.923    23563946.612
        33.000          27.100
 06  1  1  0 21  0.0000000  0  7G29G 6G27G10G 2G26G21
 -16849319.368 7 -13129328.423 6  21114859.508    21114857.702    21114858.936
        42.600          39.100
 -18794412.833 7 -14644982.094 6  21232054.956    21232053.751    21232054.220
        44.500          41.100
   -373190.745 4   -290796.886 3  25146883.497    25146881.820    25146882.681
        25.300          19.300
 -21482263.109 7 -16739403.534 7  20426235.174    20426233.331    20426233.950
        47.100          44.900
 -11060678.936 6  -8618692.593 5  22703239.003    22703235.611    22703238.413
        36.500          33.200
 -14461753.816 6 -11268889.992 5  21744919.786    21744918.507    21744919.390
        39.300          34.600
  -7105176.078 5  -5536495.714 4  23546052.934    23546050.552    23546051.859
        33.100          27.400
 06  1  1  0 21 30.0000000  0  7G29G 6G27G10G 2G26G21
 -16912710.010 7 -13178723.706 6  21102796.905    21102794.807    21102796.093
        42.300          39.300
 -18804321.794 7 -14652703.355 6  21230169.427    21230168.068    21230168.686
        44.600          41.200
   -383468.073 4   -298805.189 2  25144928.117    25144925.702    25144927.128
        27.100          17.000
 -21440690.548 7 -16707009.328 7  20434146.201    20434144.338    20434144.956
        47.100          44.800
 -10970135.009 6  -8548138.910 5  22720470.120    22720465.550    22720468.792
        36.500          33.200
 -14563711.405 6 -11348337.428 5  21725517.435    21725516.615    21725517.395
        39.400          34.700
  -7199156.316 5  -5609727.048 4  23528169.144    23528166.027    23528168.150
        32.600          25.300
 06  1  1  0 22  0.0000000  0  7G29G 6G27G10G 2G26G21
 -16975593.303 7 -13227723.659 6  21090830.381    21090828.285    21090829.774
        42.700          38.800
 -18813659.339 7 -14659979.356 6  21228392.642    21228391.246    21228391.880
        44.600          41.100
   -393297.033 4   -306464.131 2  25143057.457    25143054.738    25143056.751
        24.600          12.600
 -21398753.535 7 -16674331.136 7  20442126.326    20442124.710    20442125.174
        47.000          44.700
 -10879366.860 6  -8477410.496 5  22737742.516    22737738.234    22737741.381
        36.500          32.800
 -14665264.525 6 -11427469.706 5  21706192.846    21706191.484    21706192.414
        39.200          34.600
  -7293079.949 5  -5682914.270 4  23510295.722    23510293.381    23510294.660
        31.300          26.200
 06  1  1  0 22 30.0000000  0  7G29G 6G27G10G 2G26G21
 -17037967.348 7 -13276326.793 6  21078960.982    21078958.966    21078960.371
        42.700          39.100
 -18822424.672 7 -14666809.481 6  21226724.577    21226723.164    21226723.846
        44.800          41.000
   -402676.970 3   -313773.182 3  25141272.732    25141270.387    25141271.745
        23.000          18.600
 -21356453.800 7 -16641370.305 7  20450175.640    20450174.102    20450174.517
        47.000          44.600
 -10788375.305 6  -8406508.011 5  22755056.112    22755053.264    22755055.987
        36.400          31.800
 -14766409.727 6 -11506284.120 5  21686946.198    21686944.395    21686945.297
        39.300          35.300
  -7386945.713 5  -5756056.384 3  23492433.153    23492430.751    23492432.323
        32.000          23.800
 06  1  1  0 23  0.0000000  0  7G29G 6G27G10G 2G26G21
 -17099830.175 7 -13324531.563 6  21067189.129    21067186.969    21067188.218
        42.500          39.300
 -18830617.645 7 -14673193.614 6  21225165.521    21225164.092    21225164.777
        44.800          41.100
   -411607.074 4   -320731.700 2  25139573.034    25139571.020    25139572.200
        24.200          17.000
 -21313792.810 7 -16608127.977 7  20458293.853    20458292.172    20458292.685
        47.000          44.600
 -10697161.184 6  -8335432.065 5  22772414.575    22772410.411    22772413.883
        36.500          31.000
 -14867144.009 6 -11584778.340 5  21667776.800    21667775.205    21667776.160
        39.600          35.500
  -7480752.094 5  -5829152.227 4  23474582.812    23474580.449    23474581.883
        32.100          26.200
 06  1  1  0 23 30.0000000  0  7G29G 6G27G10G 2G26G21
 -17161179.884 7 -13372336.509 6  21055514.224    21055512.642    21055513.679
        42.800          39.600
 -18838237.801 7 -14679131.391 6  21223715.525    21223713.857    21223714.792
        44.600          41.000
   -420086.498 4   -327339.042 2  25137959.657    25137957.503    25137958.212
        24.200          17.800
 -21270772.142 7 -16574605.376 7  20466480.215    20466478.766    20466479.144
        47.000          44.500
 -10605725.785 6  -8264183.711 5  22789814.758    22789810.399    22789813.553
        36.100          32.000
 -14967464.271 6 -11662949.938 5  21648685.997    21648684.981    21648685.676
        39.500          35.700
  -7574498.059 5  -5902201.008 3  23456744.447    23456740.948    23456743.151
        32.300          23.400
 06  1  1  0 24  0.0000000  0  7G29G 6G27G10G 2G26G21
 -17222014.816 7 -13419740.334 6  21043938.034    21043936.089    21043937.254
        43.000          39.800
 -18845284.462 7 -14684622.294 6  21222374.520    21222373.003    21222373.841
        44.700          40.900
   -428115.077 3   -333595.088 3  25136431.147    25136429.988    25136430.615
        23.000          18.600
 -21227393.410 7 -16540803.765 7  20474735.230    20474733.412    20474734.041
        47.000          44.400
 -10514070.106 5  -8192763.729 5  22807255.414    22807252.003    22807254.682
        35.300          31.500
 -15067367.082 6 -11740796.259 5  21629675.018    21629673.891    21629674.775
        39.500          35.500
  -7668182.308 5  -5975201.685 4  23438916.523    23438913.456    23438915.515
        33.200          24.900
 06  1  1  0 24 30.0000000  0  7G29G 6G27G10G 2G26G21
 -17282333.024 7 -13466741.514 6  21032459.747    21032457.773    21032458.982
        42.800          39.700
 -18851757.274 7 -14689666.035 6  21221143.015    21221141.377    21221142.187
        44.700          41.100
   -435691.406 4   -339498.714 2  25134990.091    25134987.737    25134989.193
        24.900          17.800
 -21183658.313 7 -16506724.468 7  20483057.812    20483055.949    20483056.627
        47.000          44.400
 -10422194.809 5  -8121172.620 5  22824738.472    22824735.066    22824738.078
        35.400          30.800
 -15166849.532 6 -11818315.027 5  21610744.738    21610743.237    21610743.975
        40.000          35.900
  -7761803.433 5  -6048153.201 3  23421101.038    23421097.749    23421100.021
        34.000          23.800
 06  1  1  0 25  0.0000000  0  7G29G 6G27G10G 2G26G21
 -17342132.800 7 -13513338.729 6  21021080.087    21021078.323    21021079.477
        42.900          40.000
 -18857655.929 7 -14694262.387 6  21220020.402    21220018.893    21220019.601
        44.500          41.000
   -442814.934 3   -345049.513 3  25133634.019    25133632.713    25133633.365
        23.800          19.300
 -21139568.322 7 -16472368.631 7  20491447.821    20491445.926    20491446.622
        47.000          44.400
 -10330101.132 5  -8049411.323 5  22842263.644    22842260.181    22842263.203
        35.900          31.800
 -15265908.232 6 -11895503.601 6  21591894.621    21591892.915    21591893.858
        40.200          36.200
  -7855360.296 5  -6121054.618 4  23403298.126    23403294.828    23403296.927
        33.500          25.300
 06  1  1  0 25 30.0000000  0  7G29G 6G27G10G 2G26G21
 -17401412.172 7 -13559530.430 6  21009799.897    21009797.876    21009799.077
        42.700          39.800
 -18862980.090 7 -14698411.077 6  21219007.112    21219005.565    21219006.451
        44.700          41.100
   -449484.929 4   -350246.893 2  25132365.509    25132363.012    25132364.519
        27.100          15.100
 -21095125.309 7 -16437737.706 7  20499904.976    20499903.177    20499903.768
        47.100          44.400
 -10237790.106 6  -7977480.660 5  22859830.556    22859826.059    22859829.610
        36.100          30.600
 -15364540.206 6 -11972359.651 5  21573124.782    21573123.860    21573124.623
        40.300          35.800
  -7948851.808 5  -6193905.106 4  23385506.570    23385503.641    23385505.583
        32.700          25.300
 06  1  1  0 26  0.0000000  0  7G29G 6G27G10G 2G26G21
 -17460169.583 7 -13605315.403 6  20998618.858    20998616.650    20998617.957
        43.000          40.000
 -18867729.482 7 -14702111.896 6  21218103.319    21218101.854    21218102.637
        44.600          40.900
   -455701.003 4   -355090.585 2  25131182.629    25131180.354    25131181.922
        26.200          17.000
 -21050330.846 7 -16402832.934 7  20508429.126    20508427.329    20508427.964
        47.100          44.400
 -10145262.499 5  -7905381.237 5  22877438.410    22877433.708    22877437.151
        35.300          31.100
 -15462742.130 6 -12048880.608 5  21554438.105    21554436.397    21554437.586
        40.400          35.600
  -8042276.395 5  -6266703.453 4  23367728.574    23367725.617    23367727.566
        33.900          25.900
 06  1  1  0 26 30.0000000  0  8G29G 6G27G 8G10G 2G26G21
 -17518403.048 7 -13650692.111 6  20987537.270    20987535.073    20987536.442
        43.000          40.100
 -18871903.366 7 -14705364.265 6  21217309.356    21217307.614    21217308.487
        44.400          41.000
   -461461.983 3   -359579.675 3  25130085.509    25130084.184    25130084.716
        22.100          19.300
   -133861.439 4   -104307.445 2  24826522.501    24826521.190    24826521.580
        25.900          15.100
 -21005186.562 7 -16367655.568 7  20517019.875    20517018.022    20517018.732
        47.200          44.200
 -10052519.425 5  -7833113.943 5  22895085.998    22895082.155    22895085.322
        35.100          31.600
 -15560511.018 6 -12125064.146 6  21535833.494    21535831.761    21535832.805
        40.900          36.200
  -8135632.919 5  -6339448.772 4  23349963.675    23349960.322    23349962.327
        33.400          27.100
 06  1  1  0 27  0.0000000  0  8G29G 6G27G 8G10G 2G26G21
 -17576111.032 7 -13695659.360 6  20976555.318    20976553.615    20976554.762
        43.000          40.100
 -18875501.945 7 -14708168.352 6  21216624.356    21216622.694    21216623.610
        44.400          40.700
   -466767.883 3   -363714.125 2  25129076.459    25129074.445    25129075.472
        23.400          17.800
   -196059.505 4   -152773.453 2  24814686.762    24814685.302    24814685.957
        26.200          16.100
 -20959693.712 7 -16332206.590 7  20525676.808    20525674.900    20525675.660
        47.300          44.200
  -9959562.222 5  -7760679.757 5  22912774.925    22912771.315    22912774.403
        34.300          31.100
 -15657843.800 6 -12200907.855 6  21517311.187    21517310.101    21517310.964
        41.000          36.400
  -8228919.939 5  -6412139.922 4  23332211.617    23332208.471    23332210.534
        32.700          27.400
 06  1  1  0 27 30.0000000  0  8G29G 6G27G 8G10G 2G26G21
 -17633291.832 7 -13740215.804 6  20965674.515    20965672.438    20965673.628
        42.900          40.000
 -18878524.542 7 -14710523.616 6  21216049.231    21216047.545    21216048.391
        44.300          40.700
   -471617.804 3   -367493.317 3  25128153.110    25128151.451    25128152.246
        20.500          19.300
   -257902.641 3   -200962.870 2  24802919.295    24802916.606    24802917.747
        23.800          15.100
 -20913854.187 7 -16296487.479 7  20534399.693    20534397.912    20534398.553
        47.200          44.100
  -9866391.448 5  -7688079.179 5  22930505.361    22930501.013    22930504.143
        34.500          31.100
 -15754737.066 6 -12276409.076 6  21498873.156    21498871.863    21498872.651
        40.600          36.500
  -8322136.150 5  -6484775.877 4  23314473.214    23314469.926    23314472.099
        32.800          26.200
 06  1  1  0 28  0.0000000  0  8G29G 6G27G 8G10G 2G26G21
 -17689943.518 7 -13784359.955 6  20954894.062    20954891.823    20954893.193
        42.800          39.900
 -18880971.100 7 -14712430.016 6  21215583.659    21215582.100    21215582.841
        44.100          41.000
   -476011.082 4   -370916.653 2  25127317.969    25127314.911    25127316.965
        24.600          16.100
   -319388.452 3   -248873.818 2  24791217.721    24791216.551    24791216.321
        22.600          15.100
 -20867669.796 7 -16260499.643 7  20543188.502    20543186.493    20543187.273
        47.100          44.100
  -9773008.359 5  -7615313.141 5  22948275.489    22948271.312    22948274.587
        34.400          30.400
 -15851187.910 6 -12351565.554 6  21480519.799    21480517.804    21480518.900
        40.800          37.000
  -8415280.357 5  -6557355.743 4  23296748.084    23296745.400    23296747.007
        34.100          27.400
 06  1  1  0 28 30.0000000  0  8G29G 6G27G 8G10G 2G26G21
 -17746064.660 7 -13828090.702 6  20944214.151    20944212.376    20944213.603
        43.100          40.200
 -18882841.362 7 -14713887.357 6  21215227.724    21215226.173    21215226.927
        44.300          40.900
   -479947.291 3   -373983.834 2  25126568.758    25126565.954    25126567.273
        23.400          15.100
   -380514.264 3   -296504.306 3  24779584.443    24779584.612    24779584.238
        22.100          19.900
 -20821141.971 7 -16224244.195 7  20552042.297    20552040.459    20552041.117
        47.000          44.200
  -9679413.841 5  -7542382.361 5  22966086.473    22966081.932    22966085.107
        33.800          31.000
 -15947193.334 6 -12426374.964 6  21462249.874    21462248.324    21462249.580
        41.000          36.300
  -8508351.361 5  -6629878.557 4  23279036.573    23279034.368    23279035.816
        33.000          27.100
 06  1  1  0 29  0.0000000  0  8G29G 6G27G 8G10G 2G26G21
 -17801653.509 7 -13871406.669 6  20933636.137    20933634.180    20933635.451
        43.100          40.300
 -18884135.142 7 -14714895.484 6  21214981.549    21214979.781    21214980.738
        44.300          40.600
   -483425.958 3   -376694.486 2  25125906.363    25125903.994    25125905.251
        22.100          17.000
   -441277.243 3   -343852.011 2  24768022.633    24768021.683    24768021.364
        19.300          17.800
 -20774272.216 7 -16187722.307 7  20560961.332    20560959.579    20560960.103
        47.000          44.100
  -9585609.062 5  -7469287.754 5  22983936.188    22983932.553    22983935.416
        34.000          31.100
 -16042750.096 6 -12500834.761 6  21444065.900    21444064.727    21444065.584
        41.200          36.500
  -8601347.543 5  -6702343.077 4  23261341.159    23261337.650    23261339.853
        33.800          26.800
 06  1  1  0 29 30.0000000  0  8G29G 6G27G 8G10G 2G26G21
 -17856708.461 7 -13914306.611 6  20923159.799    20923157.598    20923158.886
        43.200          40.300
 -18884852.101 7 -14715454.149 6  21214845.183    21214843.377    21214844.353
        44.300          40.600
   -486446.210 3   -379047.901 2  25125331.487    25125329.788    25125330.452
        21.100          17.000
   -501674.823 3   -390914.941 2  24756529.326    24756528.431    24756528.674
        21.600          17.800
 -20727062.464 7 -16150935.485 7  20569944.739    20569943.346    20569943.696
        46.800          44.300
  -9491594.985 5  -7396030.054 5  23001826.214    23001822.559    23001825.437
        34.400          30.100
 -16137855.027 6 -12574942.484 6  21425968.460    21425966.758    21425967.731
        41.200          36.900
  -8694267.585 5  -6774748.277 4  23243658.171    23243655.647    23243657.357
        34.100          27.600
 06  1  1  0 30  0.0000000  0  8G29G 6G27G 8G10G 2G26G21
 -17911227.947 7 -13956789.302 6  20912785.115    20912782.830    20912784.216
        43.300          40.400
 -18884992.149 7 -14715563.270 6  21214818.525    21214816.747    21214817.795
        44.500          40.600
   -489007.516 3   -381043.759 2  25124844.658    25124842.208    25124843.626
        23.800          17.800
   -561703.907 4   -437690.847 2  24745106.462    24745105.026    24745105.474
        24.200          17.800
 -20679514.177 7 -16113884.869 7  20578992.852    20578991.507    20578991.777
        46.700          44.300
  -9397372.710 5  -7322610.123 4  23019755.209    23019752.275    23019755.355
        34.700          28.800
 -16232505.303 6 -12648695.921 6  21407956.556    21407955.464    21407956.361
        41.500          37.200
  -8787110.383 5  -6847093.286 4  23225991.326    23225988.427    23225990.245
        34.500          27.600
 06  1  1  0 30 30.0000000  0  8G29G 6G27G 8G10G 2G26G21
 -17965210.425 7 -13998853.549 6  20902512.523    20902510.346    20902511.709
        43.600          40.500
 -18884555.169 7 -14715222.760 6  21214901.709    21214899.968    21214900.902
        44.300          40.900
   -491109.751 3   -382681.845 2  25124443.535    25124441.869    25124442.556
        21.600          15.100
   -621362.095 3   -484177.734 2  24733753.110    24733752.071    24733752.096
        22.100          15.100
 -20631628.786 7 -16076571.572 7  20588105.294    20588103.731    20588104.166
        46.600          44.100
  -9302943.144 5  -7249028.668 4  23037724.787    23037721.780    23037725.027
        34.600          29.500
 -16326697.710 6 -12722092.590 6  21390032.397    21390031.143    21390031.941
        41.300          37.400
  -8879874.486 5  -6919376.974 4  23208338.602    23208335.439    23208337.500
        33.400          27.400
 06  1  1  0 31  0.0000000  0  8G29G 6G27G 8G10G 2G26G21
 -18018654.061 7 -14040497.921 6  20892342.542    20892340.297    20892341.812
        43.600          40.600
 -18883541.097 7 -14714432.569 6  21215094.484    21215093.002    21215093.729
        44.200          40.900
   -492752.236 3   -383961.706 2  25124131.281    25124129.600    25124130.422
        22.100          17.800
   -680646.581 4   -530373.402 3  24722472.453    24722470.842    24722471.404
        24.600          18.600
 -20583407.971 7 -16038996.913 7  20597281.528    20597279.871    20597280.298
        46.700          44.000
  -9208307.516 5  -7175286.620 4  23055734.409    23055730.476    23055733.820
        34.700          29.500
 -16420429.179 6 -12795130.075 6  21372196.543    21372194.679    21372195.649
        41.400          37.600
  -8972558.183 5  -6991597.982 4  23190701.807    23190698.827    23190700.492
        33.900          27.900
 06  1  1  0 31 30.0000000  0  8G29G 6G27G 8G10G 2G26G21
 -18071557.515 7 -14081721.381 6  20882275.384    20882273.126    20882274.620
        43.600          40.700
 -18881949.939 7 -14713192.698 6  21215397.277    21215395.993    21215396.499
        44.200          41.100
   -493934.725 3   -384883.112 3  25123906.439    25123904.988    25123905.385
        21.100          18.600
   -739554.886 4   -576275.917 3  24711262.255    24711261.210    24711261.790
        25.300          18.600
 -20534853.548 7 -16001162.298 7  20606521.155    20606519.493    20606519.897
        46.600          44.000
  -9113466.639 5  -7101384.660 4  23073782.915    23073777.949    23073781.704
        34.000          29.500
 -16513696.777 6 -12867806.111 6  21354447.883    21354446.466    21354447.335
        41.600          37.600
  -9065160.398 5  -7063755.541 4  23173079.858    23173076.650    23173078.778
        34.900          26.500
 06  1  1  0 32  0.0000000  0  8G29G 6G27G 8G10G 2G26G21
 -18123919.260 7 -14122522.722 6  20872311.184    20872309.018    20872310.377
        43.400          40.800
 -18879781.456 7 -14711502.966 6  21215809.660    21215808.446    21215808.873
        43.700          40.900
   -494656.277 3   -385445.383 2  25123769.619    25123766.829    25123768.759
        23.400          16.100
   -798084.315 3   -621883.240 3  24700124.377    24700123.476    24700123.320
        23.400          22.100
 -20485967.202 7 -15963069.038 7  20615823.786    20615822.170    20615822.630
        46.900          43.600
  -9018421.531 5  -7027323.548 4  23091868.768    23091864.437    23091867.684
        34.300          29.200
 -16606497.382 6 -12940118.250 6  21336788.549    21336787.056    21336788.049
        41.900          37.600
  -9157679.868 5  -7135848.600 4  23155474.556    23155470.538    23155473.215
        34.100          26.800
 06  1  1  0 32 30.0000000  0  8G29G 6G27G 8G10G 2G26G21
 -18175737.793 7 -14162900.778 6  20862450.342    20862448.281    20862449.592
        43.500          40.900
 -18877035.677 7 -14709363.396 6  21216332.400    21216330.868    21216331.564
        43.900          40.800
   -494916.858 4   -385648.415 3  25123719.341    25123718.230    25123718.796
        25.600          22.600
   -856232.112 4   -667193.162 3  24689059.878    24689058.307    24689058.970
        25.900          21.600
 -20436750.311 7 -15924718.216 7  20625189.434    20625187.807    20625188.305
        46.900          43.800
  -8923173.328 5  -6953104.174 4  23109992.946    23109989.676    23109992.936
        33.600          29.500
 -16698828.153 7 -13012064.289 6  21319218.676    21319217.026    21319218.065
        42.000          37.700
  -9250114.942 5  -7207875.924 4  23137884.241    23137881.077    23137882.939
        34.600          27.400
 06  1  1  0 33  0.0000000  0  8G29G 6G27G 8G10G 2G26G21
 -18227011.573 7 -14202854.356 6  20852693.220    20852691.058    20852692.487
        43.600          40.700
 -18873712.593 7 -14706773.977 6  21216964.580    21216963.293    21216963.870
        43.800          40.800
   -494715.872 4   -385491.818 3  25123757.910    25123756.268    25123756.742
        24.200          19.900
   -913995.467 4   -712203.524 2  24678067.947    24678065.780    24678066.714
        26.500          17.800
 -20387204.513 7 -15886111.097 7  20634617.772    20634616.009    20634616.615
        47.000          43.600
  -8827722.903 5  -6878727.195 4  23128156.250    23128152.953    23128156.253
        33.200          28.800
 -16790685.894 6 -13083641.723 6  21301738.224    21301737.077    21301738.011
        41.900          37.700
  -9342464.235 5  -7279836.382 4  23120311.385    23120307.750    23120310.115
        35.500          28.400
 06  1  1  0 33 30.0000000  0  8G29G 6G27G 8G10G 2G26G21
 -18277739.150 7 -14242382.324 6  20843040.030    20843037.866    20843039.329
        43.400          40.700
 -18869812.109 7 -14703734.632 6  21217707.013    21217705.537    21217706.195
        43.600          40.900
   -494053.107 3   -384975.390 3  25123883.752    25123882.521    25123883.065
        20.500          20.500
   -971371.712 3   -756912.272 3  24667149.099    24667147.778    24667147.607
        23.400          21.100
 -20337331.647 7 -15847249.121 7  20644108.195    20644106.566    20644107.034
        47.100          43.500
  -8732071.734 5  -6804193.802 4  23146359.064    23146355.186    23146358.213
        32.800          29.900
 -16882067.716 6 -13154848.304 6  21284348.996    21284347.621    21284348.522
        41.900          37.700
  -9434726.460 5  -7351728.999 4  23102754.007    23102750.836    23102752.818
        35.300          28.800
 06  1  1  0 34  0.0000000  0  8G29G 6G27G 8G10G 2G26G21
 -18327919.169 7 -14281483.620 6  20833490.987    20833488.958    20833490.292
        43.400          40.900
 -18865333.880 7 -14700245.104 6  21218559.341    21218557.867    21218558.433
        43.800          41.000
   -492928.131 3   -384098.792 3  25124098.220    25124096.201    25124097.114
        22.600          19.300
  -1028358.203 4   -801317.318 3  24656304.569    24656303.565    24656303.745
        25.300          19.300
 -20287133.253 7 -15808133.484 7  20653660.848    20653659.028    20653659.666
        47.300          43.400
  -8636220.672 5  -6729504.688 4  23164598.848    23164595.259    23164597.630
        32.100          28.800
 -16972970.659 7 -13225681.744 6  21267050.869    21267049.310    21267050.412
        42.400          37.500
  -9526900.283 5  -7423552.731 4  23085213.679    23085210.699    23085212.487
        35.100          27.900
 06  1  1  0 34 30.0000000  0  8G29G 6G27G 8G10G 2G26G21
 -18377550.043 7 -14320157.010 6  20824046.664    20824044.603    20824045.913
        43.600          41.200
 -18860278.605 7 -14696305.924 6  21219520.922    21219519.688    21219520.155
        43.500          41.000
   -491340.531 4   -382861.732 3  25124400.574    25124398.571    25124399.803
        25.900          20.500
  -1084952.813 4   -845416.955 3  24645535.931    24645534.518    24645534.456
        25.600          22.100
 -20236610.759 7 -15768765.306 7  20663274.830    20663273.150    20663273.719
        47.300          43.300
  -8540170.870 5  -6654660.706 4  23182877.517    23182872.809    23182875.989
        32.400          28.400
 -17063391.726 7 -13296139.683 6  21249844.155    21249842.609    21249843.615
        42.000          37.600
  -9618984.121 5  -7495306.350 4  23067690.782    23067687.525    23067689.532
        35.400          27.400
 06  1  1  0 35  0.0000000  0  8G29G 6G27G 8G10G 2G26G21
 -18426630.342 7 -14358401.376 6  20814707.030    20814704.967    20814706.261
        43.600          41.400
 -18854645.815 7 -14691916.732 6  21220593.021    21220591.548    21220592.217
        43.800          40.700
   -489289.986 3   -381263.907 3  25124790.639    25124788.705    25124789.368
        22.100          21.600
  -1141152.331 4   -889208.739 2  24634841.320    24634839.067    24634840.187
        28.100          16.100
 -20185765.750 7 -15729145.812 7  20672950.221    20672948.604    20672949.153
        47.400          43.100
  -8443923.238 5  -6579662.560 4  23201192.151    23201187.944    23201190.978
        31.600          28.800
 -17153327.998 7 -13366219.874 6  21232730.096    21232728.338    21232729.363
        42.100          37.900
