     2.11           OBSERVATION DATA    G (GPS)             RINEX VERSION / TYPE
PRSolve             John Knutson        20151120 134821 UTC PGM / RUN BY / DATE
ARL1                                                        MARKER NAME
85408                                                       MARKER NUMBER
Monitor Station     NGA                                     OBSERVER / AGENCY
1                   ITT MSN SAASM       3.2.11              REC # / TYPE / VERS
1                   ITT 3750323-1                           ANT # / TYPE
  -740289.9180 -5457071.7340  3207245.5420                  APPROX POSITION XYZ
        0.0000        0.0000        0.0000                  ANTENNA: DELTA H/E/N
    10    L1    L2    C1    C2    P1    P2    D1    D2    S1# / TYPES OF OBSERV
          S2                                                # / TYPES OF OBSERV
     1     1                                                WAVELENGTH FACT L1/2
    30.000                                                  INTERVAL
  2015     7    19     1     0    0.0000000     GPS         TIME OF FIRST OBS
                                                            END OF HEADER
 15  7 19  1  0  0.0000000  4  3
XYZ        0.000        0.000        0.000 GPS:12:WC        COMMENT
CLK GPS       0.000 GPS:12:WC                               COMMENT
DIA15892704 0.00 0.00     0.00 GPS:12:WC                    COMMENT
 15  7 19  1  0  0.0000000  0 11G02G05G06G10G12G13G15G20G21G25G29
 -16076728.089   -13055159.735    22080729.847           0.000    22080729.472  
  22080729.376       -1326.938       -1033.976          44.220          49.040  
 -25763561.986   -20414477.018    20568800.351    20568822.830    20568801.182  
  20568801.976       -1459.306       -1137.121          46.430          54.570  
    560951.080      796265.788    25352816.985           0.000    25350352.036  
  25350356.868       -2320.125       -1807.939          20.140          29.050  
  -2320260.362    -4247079.669    24683153.950           0.000    24683153.009  
  24683159.185       -3733.207       -2908.987          32.050          38.190  
 -15436172.114   -12028176.247    22371534.963    22371554.470    22371535.066  
  22371537.931       -3014.965       -2349.324          43.250          47.930  
  -9779051.640    -7620025.334    23221665.290           0.000    23221665.587  
  23221669.750        2608.990        2032.973          39.190          44.850  
  -8675091.221    -6759796.591    23741388.018    23741406.860    23741388.160  
  23741393.430        3348.704        2609.370          38.310          45.750  
 -22856618.126   -18602622.615    20866766.306           0.000    20866765.951  
  20866768.412        1911.813        1489.721          46.090          51.250  
  -2334361.317    -1818977.470    24970317.385           0.000    24970317.567  
  24970321.452        1795.089        1398.776          35.060          38.490  
 -16028451.398   -14888415.341    21811581.337    21811617.380    21811581.253  
  21811586.081       -1218.967        -949.844          44.420          49.250  
 -20254242.464   -15782508.766    21491117.416    21491151.000    21491118.084  
  21491120.611        2428.773        1892.545          45.020          50.940  
 15  7 19  1  0 30.0000000  4  3
XYZ        0.000        0.000        0.000 GPS:12:WC        COMMENT
CLK GPS       0.000 GPS:12:WC                               COMMENT
DIA15892704 0.00 0.00     0.00 GPS:12:WC                    COMMENT
 15  7 19  1  0 30.0000000  0 11G02G05G06G10G12G13G15G20G21G25G29
 -16036880.031   -13024109.313    22088312.546           0.000    22088311.954  
  22088312.074       -1329.585       -1036.039          43.590          48.880  
 -25719560.509   -20380190.150    20577174.126    20577192.680    20577174.435  
  20577175.180       -1474.094       -1148.645          46.350          54.480  
     38273.996      850497.751    25363594.458           0.000    25363593.247  
  25363599.250       -2318.610       -1806.902          25.990          24.130  
  -2208247.150    -4159796.588    24704469.212           0.000    24704468.532  
  24704473.903       -3734.310       -2909.857          31.450          37.730  
 -15345601.493   -11957601.787    22388769.115    22388790.080    22388769.650  
  22388772.719       -3023.053       -2355.627          42.430          47.790  
  -9857223.504    -7680938.351    23206789.400           0.000    23206789.715  
  23206793.658        2602.451        2027.878          38.780          44.730  
  -8775546.576    -6838073.336    23722272.276    23722298.620    23722272.799  
  23722277.605        3348.313        2609.069          39.090          45.550  
 -22913759.618   -18647148.407    20855891.978           0.000    20855891.986  
  20855894.672        1897.617        1478.662          45.920          51.270  
  -2388206.864    -1860934.979    24960072.207           0.000    24960071.631  
  24960074.767        1794.627        1398.409          34.830          38.030  
 -15991625.266   -14859719.669    21818588.743    21818618.840    21818588.974  
  21818593.788       -1236.082        -963.179          44.420          49.160  
 -20326998.327   -15839201.583    21477272.856    21477299.620    21477272.898  
  21477275.550        2421.609        1886.968          44.990          50.920  
 15  7 19  1  1  0.0000000  4  3
XYZ        0.000        0.000        0.000 GPS:12:WC        COMMENT
CLK GPS       0.000 GPS:12:WC                               COMMENT
DIA15892704 0.00 0.00     0.00 GPS:12:WC                    COMMENT
 15  7 19  1  1  0.0000000  0 11G02G05G06G10G12G13G15G20G21G25G29
 -15996952.410   -12992996.886    22095909.541           0.000    22095909.696  
  22095910.541       -1332.256       -1038.125          43.880          49.260  
 -25675116.262   -20345558.276    20585631.217    20585661.860    20585631.473  
  20585632.857       -1488.829       -1160.126          46.170          54.500  
    107851.3211     904712.3731   25376830.7371          0.000    25376834.5261 
  25376836.5941      -2319.3931      -1807.2931         28.9001         19.5401 
  -2096201.828    -4072488.489    24725790.979           0.000    24725789.305  
  24725795.632       -3735.355       -2910.667          30.340          38.210  
 -15254789.640   -11886839.376    22406050.206    22406090.590    22406050.414  
  22406054.289       -3031.042       -2361.844          42.190          48.220  
  -9935197.578    -7741697.263    23191951.641           0.000    23191951.462  
  23191955.963        2595.801        2022.696          39.040          44.980  
  -8875988.650    -6916339.740    23703157.676    23703188.140    23703158.518  
  23703163.294        3347.827        2608.691          38.970          44.890  
 -22970474.645   -18691341.893    20845099.948           0.000    20845099.609  
  20845102.223        1883.386        1467.573          46.040          51.380  
  -2442038.655    -1902881.775    24949827.399           0.000    24949826.831  
  24949831.119        1794.160        1398.046          34.660          38.170  
 -15954286.773   -14830624.751    21825694.046    21825714.280    21825694.460  
  21825699.057       -1253.129        -976.464          44.310          49.050  
 -20399538.237   -15895726.122    21463469.141    21463499.590    21463469.246  
  21463471.629        2414.376        1881.331          45.070          51.000  
 15  7 19  1  1 30.0000000  4  3
XYZ        0.000        0.000        0.000 GPS:12:WC        COMMENT
CLK GPS       0.000 GPS:12:WC                               COMMENT
DIA15892704 0.00 0.00     0.00 GPS:12:WC                    COMMENT
 15  7 19  1  1 30.0000000  0 11G02G05G06G10G12G13G15G20G21G25G29
 -15956944.460   -12961821.858    22103523.173           0.000    22103523.051  
  22103524.005       -1334.936       -1040.211          43.860          49.300  
 -25630230.998   -20310582.750    20594172.835    20594207.770    20594173.110  
  20594174.215       -1503.493       -1171.553          46.300          54.450  
    177412.336      958915.832    25390070.017           0.000    25390070.495  
  25390070.577       -2318.053       -1806.264          25.100          17.120  
  -1984125.208    -3985156.803    24747117.513           0.000    24747117.412  
  24747123.211       -3736.351       -2911.425          31.590          38.840  
 -15163739.645   -11815891.391    22423376.285    22423406.590    22423376.924  
  22423380.079       -3038.932       -2367.993          42.360          47.830  
 -10012970.399    -7802299.343    23177152.144           0.000    23177152.234  
  23177155.914        2589.042        2017.435          39.350          44.810  
  -8976414.348    -6994593.387    23684047.490    23684096.160    23684048.241  
  23684052.698        3347.233        2608.226          39.180          44.810  
 -23026762.082   -18735202.187    20834388.772           0.000    20834388.312  
  20834391.287        1869.111        1456.448          45.960          51.560  
  -2495857.243    -1944817.895    24939588.137           0.000    24939586.135  
  24939590.294        1793.719        1397.706          34.550          38.300  
 -15916437.553   -14801131.880    21832897.251    21832930.000    21832897.066  
  21832901.662       -1270.133        -989.710          44.400          49.200  
 -20471859.500   -15952080.298    21449706.909    21449725.600    21449707.048  
  21449709.383        2407.046        1875.620          45.170          50.990  
 15  7 19  1  2  0.0000000  4  3
XYZ        0.000        0.000        0.000 GPS:12:WC        COMMENT
CLK GPS       0.000 GPS:12:WC                               COMMENT
DIA15892704 0.00 0.00     0.00 GPS:12:WC                    COMMENT
 15  7 19  1  2  0.0000000  0 10G02G05G10G12G13G15G20G21G25G29
 -15916856.384   -12930584.401    22111152.443           0.000    22111151.731  
  22111152.881       -1337.621       -1042.297          43.580          49.580  
 -25584907.272   -20275265.567    20602797.323    20602830.870    20602797.683  
  20602799.110       -1518.087       -1182.925          46.360          54.430  
  -1872021.325    -3897803.505    24768450.875           0.000    24768450.436  
  24768455.315       -3737.232       -2912.129          32.300          38.750  
 -15072455.494   -11744760.942    22440747.208    22440761.300    22440747.813  
  22440750.865       -3046.691       -2374.035          42.210          47.890  
 -10090539.222    -7862742.473    23162390.450           0.000    23162390.985  
  23162394.128        2582.180        2012.084          39.440          44.040  
  -9076821.371    -7072832.472    23664941.474    23664976.400    23664941.542  
  23664945.758        3346.541        2607.689          39.010          44.970  
 -23082621.541   -18778728.992    20823758.870           0.000    20823758.765  
  20823761.768        1854.841        1445.326          46.070          51.760  
  -2549662.826    -1986744.245    24929347.358           0.000    24929346.834  
  24929351.178        1793.321        1397.382          34.170          38.400  
 -15878080.064   -14771242.958    21840195.708    21840220.900    21840195.882  
  21840200.966       -1287.049       -1002.889          44.520          49.190  
 -20543960.174   -16008262.591    21435986.974    21436006.060    21435986.957  
  21435988.950        2399.646        1869.845          45.650          50.900  
 15  7 19  1  2 30.0000000  4  3
XYZ        0.000        0.000        0.000 GPS:12:WC        COMMENT
CLK GPS       0.000 GPS:12:WC                               COMMENT
DIA15892704 0.00 0.00     0.00 GPS:12:WC                    COMMENT
 15  7 19  1  2 30.0000000  0 10G02G05G10G12G13G15G20G21G25G29
 -15876687.451   -12899283.953    22118794.450           0.000    22118794.786  
  22118796.211       -1340.339       -1044.415          43.220          49.240  
 -25539147.116   -20239608.302    20611505.654    20611534.330    20611505.511  
  20611507.119       -1532.602       -1194.237          46.480          54.480  
  -1759892.194    -3810430.138    24789788.937           0.000    24789787.616  
  24789792.960       -3738.070       -2912.770          32.140          37.820  
 -14980939.745   -11673450.044    22458163.379    22458198.380    22458163.080  
  22458166.363       -3054.371       -2380.027          42.790          48.510  
 -10167900.571    -7923023.942    23147670.087           0.000    23147669.650  
  23147673.245        2575.209        2006.644          39.170          44.090  
  -9177206.215    -7151054.262    23645838.209    23645868.280    23645838.788  
  23645843.289        3345.742        2607.069          39.510          44.620  
 -23138052.232   -18821921.697    20813211.145           0.000    20813210.866  
  20813213.593        1840.512        1434.167          46.060          51.800  
  -2603456.082    -2028660.979    24919112.420           0.000    24919110.244  
  24919114.623        1792.886        1397.050          34.040          39.430  
 -15839216.061   -14740959.345    21847591.116    21847621.600    21847591.506  
  21847596.493       -1303.901       -1016.025          44.610          49.200  
 -20615837.935   -16064271.195    21422308.483    21422334.250    21422308.799  
  21422310.822        2392.177        1864.033          45.780          50.830  
 15  7 19  1  3  0.0000000  4  3
XYZ        0.000        0.000        0.000 GPS:12:WC        COMMENT
CLK GPS       0.000 GPS:12:WC                               COMMENT
DIA15892704 0.00 0.00     0.00 GPS:12:WC                    COMMENT
 15  7 19  1  3  0.0000000  0 10G02G05G10G12G13G15G20G21G25G29
 -15836437.262   -12867920.178    22126454.962           0.000    22126454.223  
  22126454.794       -1343.006       -1046.495          42.900          48.360  
 -25492952.660   -20203612.616    20620294.735    20620318.390    20620295.977  
  20620297.487       -1547.005       -1205.458          45.870          54.170  
  -1647739.027    -3723038.407    24811129.681           0.000    24811129.373  
  24811134.562       -3738.768       -2913.328          31.610          36.900  
 -14889195.213   -11601960.873    22475621.621    22475636.580    22475622.010  
  22475624.488       -3061.918       -2385.906          42.610          48.150  
 -10245051.049    -7983141.099    23132988.350           0.000    23132988.585  
  23132991.456        2568.149        2001.151          38.160          43.810  
  -9277565.815    -7229256.406    23626741.489    23626797.440    23626740.867  
  23626745.006        3344.886        2606.402          39.490          43.690  
 -23193053.094   -18864779.468    20802745.128           0.000    20802744.347  
  20802746.957        1826.218        1423.024          45.440          51.650  
  -2657236.930    -2070568.397    24908875.022           0.000    24908875.836  
  24908880.256        1792.553        1396.789          32.600          39.080  
 -15799847.437   -14710282.510    21855082.573    21855121.380    21855083.242  
  21855088.273       -1320.652       -1029.079          44.010          49.040  
 -20687490.459   -16120104.294    21408672.443    21408706.080    21408673.787  
  21408675.916        2384.653        1858.173          45.330          50.770  
 15  7 19  1  3 30.0000000  4  3
XYZ        0.000        0.000        0.000 GPS:12:WC        COMMENT
CLK GPS       0.000 GPS:12:WC                               COMMENT
DIA15892704 0.00 0.00     0.00 GPS:12:WC                    COMMENT
 15  7 19  1  3 30.0000000  0 10G02G05G10G12G13G15G20G21G25G29
 -15796106.006   -12836493.215    22134130.058           0.000    22134129.530  
  22134129.755       -1345.722       -1048.615          43.480          48.400  
 -25446326.322   -20167280.404    20629168.322    20629190.290    20629168.595  
  20629169.950       -1561.388       -1216.667          45.880          54.090  
  -1535565.829    -3635630.255    24832476.883           0.000    24832475.249  
  24832481.042       -3739.435       -2913.842          31.180          37.790  
 -14797224.962   -11530295.808    22493122.741    22493169.780    22493123.396  
  22493126.043       -3069.385       -2391.726          43.380          48.590  
 -10321987.747    -8043091.679    23118348.417           0.000    23118348.110  
  23118351.127        2560.968        1995.547          38.630          43.600  
  -9377897.521    -7307436.826    23607648.202    23607701.160    23607648.728  
  23607652.912        3343.890        2605.625          39.930          43.260  
 -23247623.766   -18907302.029    20792360.203           0.000    20792359.811  
  20792362.510        1811.849        1411.831          45.360          51.800  
  -2711007.890    -2112467.356    24898644.965           0.000    24898644.369  
  24898647.842        1792.177        1396.491          33.150          39.420  
 -15759976.433   -14679214.222    21862670.191    21862705.480    21862670.606  
  21862675.223       -1337.375       -1042.110          44.210          49.070  
 -20758915.343   -16175760.009    21395081.506    21395109.880    21395081.907  
  21395084.177        2377.019        1852.221          45.390          50.900  
 15  7 19  1  4  0.0000000  4  3
XYZ        0.000        0.000        0.000 GPS:12:WC        COMMENT
CLK GPS       0.000 GPS:12:WC                               COMMENT
DIA15892704 0.00 0.00     0.00 GPS:12:WC                    COMMENT
 15  7 19  1  4  0.0000000  0 10G02G05G10G12G13G15G20G21G25G29
 -15755693.262   -12805002.761    22141820.484           0.000    22141820.286  
  22141820.187       -1348.447       -1050.738          44.150          48.680  
 -25399269.900   -20130613.059    20638123.007    20638159.510    20638123.423  
  20638124.493       -1575.683       -1227.806          46.480          54.170  
  -1423373.627    -3548207.709    24853827.642           0.000    24853824.172  
  24853830.349       -3740.016       -2914.309          27.460          37.450  
 -14705032.917   -11458457.925    22510666.468    22510692.240    22510666.928  
  22510669.798       -3076.726       -2397.447          44.160          48.930  
 -10398707.583    -8102873.257    23103747.296           0.000    23103748.059  
  23103751.825        2553.672        1989.866          39.290          43.960  
  -9478198.530    -7385593.345    23588561.289    23588579.630    23588562.041  
  23588565.427        3342.824        2604.790          40.390          42.830  
 -23301763.792   -18949489.020    20782057.648           0.000    20782057.220  
  20782059.711        1797.484        1400.636          45.850          51.800  
  -2764768.070    -2154358.275    24888413.570           0.000    24888413.289  
  24888417.267        1791.868        1396.254          33.680          39.390  
 -15719605.313   -14647756.233    21870353.636    21870386.120    21870352.973  
  21870358.142       -1354.006       -1055.069          44.840          49.290  
 -20830110.518   -16231236.745    21381533.688    21381564.620    21381534.239  
  21381536.147        2369.323        1846.224          46.290          51.130  
 15  7 19  1  4 30.0000000  4  3
XYZ        0.000        0.000        0.000 GPS:12:WC        COMMENT
CLK GPS       0.000 GPS:12:WC                               COMMENT
DIA15892704 0.00 0.00     0.00 GPS:12:WC                    COMMENT
 15  7 19  1  4 30.0000000  0 10G02G05G10G12G13G15G20G21G25G29
 -15715198.436   -12773448.341    22149526.305           0.000    22149526.418  
  22149526.446       -1351.199       -1052.879          44.120          48.660  
 -25351786.070   -20093612.669    20647158.434    20647187.280    20647159.264  
  20647160.422       -1589.893       -1238.877          46.130          54.070  
  -1311164.769    -3460772.227    24875176.547           0.000    24875178.314  
  24875182.423       -3740.525       -2914.707          28.980          37.390  
 -14612621.576   -11386449.161    22528251.834    22528273.950    22528252.034  
  22528255.079       -3083.995       -2403.109          43.600          48.700  
 -10475207.219    -8162483.277    23089189.862           0.000    23089191.228  
  23089194.238        2546.280        1984.116          39.140          43.730  
  -9578465.761    -7463723.553    23569481.506    23569534.510    23569481.674  
  23569484.683        3341.636        2603.868          39.660          42.520  
 -23355472.305   -18991339.774    20771837.772           0.000    20771837.251  
  20771839.504        1783.073        1389.409          45.750          51.830  
  -2818518.267    -2196241.395    24878186.235           0.000    24878184.198  
  24878189.061        1791.524        1395.984          33.230          39.450  
 -15678735.929   -14615909.983    21878130.601    21878152.900    21878130.574  
  21878135.159       -1370.592       -1067.990          44.710          49.190  
 -20901073.485   -16286532.542    21368030.288    21368054.000    21368030.530  
  21368032.406        2361.535        1840.156          46.020          51.180  
 15  7 19  1  5  0.0000000  4  3
XYZ        0.000        0.000        0.000 GPS:12:WC        COMMENT
CLK GPS       0.000 GPS:12:WC                               COMMENT
DIA15892704 0.00 0.00     0.00 GPS:12:WC                    COMMENT
 15  7 19  1  5  0.0000000  0 10G02G05G10G12G13G15G20G21G25G29
 -15674621.397   -12741829.865    22157247.812           0.000    22157247.681  
  22157248.056       -1353.948       -1055.028          43.450          48.830  
 -25303876.564   -20056280.578    20656275.649    20656303.020    20656276.132  
  20656277.223       -1604.074       -1249.926          45.960          54.020  
  -1198939.970    -3373325.470    24896534.600           0.000    24896534.150  
  24896538.328       -3741.337       -2915.073          31.260          36.450  
 -14519994.240   -11314272.091    22545878.214    22545908.930    22545878.662  
  22545882.192       -3091.156       -2408.692          43.190          49.030  
 -10551483.783    -8221919.481    23074675.351           0.000    23074676.105  
  23074678.652        2538.783        1978.266          39.610          43.590  
  -9678696.252    -7541825.124    23550407.282    23550462.510    23550407.843  
  23550411.889        3340.353        2602.872          38.610          43.290  
 -23408748.601   -19032853.731    20761698.906           0.000    20761698.873  
  20761701.289        1768.645        1378.163          45.540          51.770  
  -2872259.441    -2238117.478    24867957.861           0.000    24867957.804  
  24867962.310        1791.208        1395.743          33.540          39.440  
 -15637370.450   -14583677.160    21886001.387    21886026.340    21886001.568  
  21886007.051       -1387.098       -1080.853          44.200          49.270  
 -20971801.966   -16341645.629    21354571.120    21354594.400    21354571.355  
  21354572.868        2353.666        1834.026          45.620          50.890  
 15  7 19  1  5 30.0000000  4  3
XYZ        0.000        0.000        0.000 GPS:12:WC        COMMENT
CLK GPS       0.000 GPS:12:WC                               COMMENT
DIA15892704 0.00 0.00     0.00 GPS:12:WC                    COMMENT
 15  7 19  1  5 30.0000000  0 10G02G05G10G12G13G15G20G21G25G29
 -15633961.945   -12710147.177    22164985.320           0.000    22164984.934  
  22164985.186       -1356.691       -1057.160          43.580          48.520  
 -25255543.799   -20018618.677    20665472.967    20665504.990    20665473.512  
  20665474.666       -1618.110       -1260.867          45.920          54.010  
  -1086705.014    -3285869.188    24917891.462           0.000    24917891.684  
  24917895.115       -3741.364       -2915.349          32.450          35.460  
 -14427154.031   -11241929.157    22563545.379    22563580.190    22563545.336  
  22563548.915       -3098.185       -2414.170          42.860          48.580  
 -10627533.935    -8281179.259    23060203.935           0.000    23060204.740  
  23060207.811        2531.203        1972.362          39.830          44.070  
  -9778886.979    -7619895.693    23531342.222    23531350.790    23531342.007  
  23531346.130        3339.005        2601.812          37.450          43.440  
 -23461592.201   -19074030.525    20751643.008           0.000    20751642.841  
  20751645.646        1754.246        1366.944          45.520          51.760  
  -2925992.181    -2279986.569    24857732.798           0.000    24857732.806  
  24857737.286        1790.928        1395.526          32.630          40.090  
 -15595511.014   -14551059.442    21893966.979    21893995.350    21893967.289  
  21893972.666       -1403.525       -1093.655          44.100          49.400  
 -21042293.757   -16396574.290    21341156.660    21341181.100    21341157.110  
  21341158.531        2345.754        1827.861          45.560          50.740  
 15  7 19  1  6  0.0000000  4  3
XYZ        0.000        0.000        0.000 GPS:12:WC        COMMENT
CLK GPS       0.000 GPS:12:WC                               COMMENT
DIA15892704 0.00 0.00     0.00 GPS:12:WC                    COMMENT
 15  7 19  1  6  0.0000000  0 10G02G05G10G12G13G15G20G21G25G29
 -15593219.933   -12678400.150    22172737.310           0.000    22172737.668  
  22172737.922       -1359.470       -1059.329          43.930          48.350  
 -25206790.224   -19980628.881    20674750.670    20674776.410    20674751.167  
  20674752.331       -1632.114       -1271.776          46.110          54.120  
   -974459.677    -3198405.217    24939252.973           0.000    24939250.497  
  24939255.138       -3741.672       -2915.563          31.220          34.240  
 -14334104.164   -11169422.843    22581251.840    22581272.240    22581252.291  
  22581255.528       -3105.137       -2419.583          42.680          48.160  
 -10703354.352    -8340260.022    23045776.000           0.000    23045776.358  
  23045779.267        2523.465        1966.335          40.500          44.240  
  -9879035.113    -7697933.073    23512283.387    23512308.920    23512284.437  
  23512287.730        3337.515        2600.652          37.320          43.380  
 -23514002.674   -19114869.820    20741670.037           0.000    20741669.593  
  20741672.131        1739.775        1355.664          45.890          52.040  
  -2979715.792    -2321849.341    24847509.023           0.000    24847509.548  
  24847513.964        1790.659        1395.317          34.030          40.490  
 -15553159.863   -14518058.577    21902026.647    21902048.320    21902026.506  
  21902031.993       -1419.881       -1106.402          44.400          49.570  
 -21112546.279   -16451316.509    21327787.517    21327811.570    21327788.466  
  21327789.893        2337.730        1821.608          45.920          50.810  
 15  7 19  1  6 30.0000000  4  3
XYZ        0.000        0.000        0.000 GPS:12:WC        COMMENT
CLK GPS       0.000 GPS:12:WC                               COMMENT
DIA15892704 0.00 0.00     0.00 GPS:12:WC                    COMMENT
 15  7 19  1  6 30.0000000  0 10G02G05G10G12G13G15G20G21G25G29
 -15552394.349   -12646587.994    22180506.481           0.000    22180506.020  
  22180506.812       -1362.231       -1061.481          43.160          48.140  
 -25157618.114   -19942312.952    20684107.548    20684139.260    20684108.080  
  20684109.315       -1646.017       -1282.610          45.610          53.920  
   -862206.633    -3110935.247    24960612.086           0.000    24960611.880  
  24960617.284       -3741.883       -2915.765          31.100          35.440  
 -14240847.775   -11096755.599    22598998.078    22599018.300    22598998.492  
  22599001.555       -3111.939       -2424.887          42.320          47.770  
 -10778941.833    -8399159.277    23031392.201           0.000    23031392.790  
  23031394.691        2515.680        1960.263          40.110          44.060  
  -9979137.434    -7775934.769    23493234.549    23493294.570    23493235.660  
  23493239.711        3335.961        2599.449          37.840          44.120  
 -23565979.144   -19155370.927    20731779.625           0.000    20731778.825  
  20731781.489        1725.314        1344.399          45.570          52.080  
  -3033432.328    -2363706.188    24837287.076           0.000    24837286.723  
  24837292.025        1790.448        1395.142          33.480          40.440  
 -15510319.132   -14484676.212    21910178.952    21910200.360    21910179.170  
  21910184.378       -1436.159       -1119.078          43.990          49.450  
 -21182557.302   -16505870.553    21314465.566    21314491.510    21314465.977  
  21314467.200        2329.655        1815.315          45.430          50.770  
 15  7 19  1  7  0.0000000  4  3
XYZ        0.000        0.000        0.000 GPS:12:WC        COMMENT
CLK GPS       0.000 GPS:12:WC                               COMMENT
DIA15892704 0.00 0.00     0.00 GPS:12:WC                    COMMENT
 15  7 19  1  7  0.0000000  0 10G02G05G10G12G13G15G20G21G25G29
 -15511485.253   -12614710.768    22188291.698           0.000    22188291.165  
  22188291.464       -1365.015       -1063.652          43.620          48.170  
 -25108029.416   -19903672.403    20693544.518    20693572.000    20693544.545  
  20693545.740       -1659.866       -1293.405          46.060          54.020  
   -749947.686    -3023460.725    24981976.611           0.000    24981973.643  
  24981980.164       -3742.033       -2915.868          32.740          36.990  
 -14147387.749   -11023929.688    22616782.008    22616804.290    22616783.204  
  22616786.177       -3118.695       -2430.149          42.100          47.350  
 -10854293.420    -8457874.724    23017053.283           0.000    23017053.854  
  23017056.377        2507.752        1954.092          41.080          44.740  
 -10079191.159    -7853898.597    23474193.924    23474222.620    23474195.804  
  23474199.989        3334.281        2598.133          38.640          44.800  
 -23617521.172   -19195533.500    20721970.907           0.000    20721970.725  
  20721973.242        1710.827        1333.113          46.140          52.260  
  -3087142.176    -2405557.689    24827067.406           0.000    24827065.868  
  24827070.659        1790.715        1394.970          33.110          40.430  
 -15466991.035   -14450914.086    21918424.376    21918462.650    21918424.097  
  21918429.260       -1452.362       -1131.708          44.200          49.400  
 -21252324.630   -16560234.702    21301189.262    21301219.170    21301189.597  
  21301191.204        2321.488        1808.952          45.650          51.200  
 15  7 19  1  7 30.0000000  4  3
XYZ        0.000        0.000        0.000 GPS:12:WC        COMMENT
CLK GPS       0.000 GPS:12:WC                               COMMENT
DIA15892704 0.00 0.00     0.00 GPS:12:WC                    COMMENT
 15  7 19  1  7 30.0000000  0 10G02G05G10G12G13G15G20G21G25G29
 -15470492.354   -12582768.241    22196092.644           0.000    22196092.379  
  22196091.419       -1367.842       -1065.853          43.840          47.730  
 -25058026.449   -19864709.056    20703059.158    20703090.580    20703059.743  
  20703061.144       -1673.632       -1304.131          46.150          54.100  
   -637685.221    -2935983.410    25003337.152           0.000    25003336.521  
  25003343.131       -3742.119       -2915.932          34.630          38.490  
 -14053727.199   -10950947.512    22634606.433    22634622.490    22634606.435  
  22634609.292       -3125.320       -2435.311          42.380          47.330  
 -10929406.128    -8516404.026    23002759.000           0.000    23002759.637  
  23002763.018        2499.734        1947.838          40.250          44.960  
 -10179193.070    -7931822.046    23455166.092    23455186.160    23455166.821  
  23455170.104        3332.489        2596.741          39.510          45.330  
 -23668627.905   -19235356.892    20712245.796           0.000    20712245.348  
  20712247.694        1696.307        1321.799          46.230          52.160  
  -3140845.782    -2447404.238    24816848.494           0.000    24816847.647  
  24816851.852        1790.005        1394.809          34.570          40.310  
 -15423177.681   -14416773.839    21926761.229    21926799.640    21926761.598  
  21926766.632       -1468.515       -1144.292          44.370          49.280  
 -21321845.616   -16614406.893    21287959.602    21287981.600    21287960.055  
  21287961.797        2313.223        1802.515          45.730          51.310  
 15  7 19  1  8  0.0000000  4  3
XYZ        0.000        0.000        0.000 GPS:12:WC        COMMENT
CLK GPS       0.000 GPS:12:WC                               COMMENT
DIA15892704 0.00 0.00     0.00 GPS:12:WC                    COMMENT
 15  7 19  1  8  0.0000000  0 10G02G05G10G12G13G15G20G21G25G29
 -15429415.144   -12550760.025    22203909.282           0.000    22203908.920  
  22203908.217       -1370.644       -1068.031          43.380          47.670  
 -25007611.555   -19825424.718    20712652.762    20712677.140    20712653.559  
  20712654.688       -1687.322       -1314.796          46.000          53.970  
   -525421.795    -2848505.387    25024698.466           0.000    25024699.245  
  25024705.896       -3742.083       -2915.921          31.350          37.280  
 -13959869.708   -10877811.888    22652465.580    22652512.570    22652466.535  
  22652469.993       -3131.823       -2440.381          41.560          47.140  
 -11004276.708    -8574744.661    22988512.033           0.000    22988512.289  
  22988515.055        2491.607        1941.509          39.800          44.740  
 -10279140.521    -8009703.067    23436146.930    23436177.350    23436147.200  
  23436150.821        3330.632        2595.300          40.150          45.880  
 -23719299.496   -19274841.213    20702603.219           0.000    20702603.033  
  20702604.894        1681.797        1310.490          46.250          51.950  
  -3194543.513    -2489246.465    24806628.281           0.000    24806628.436  
  24806632.646        1789.827        1394.671          34.380          40.090  
 -15378881.544   -14382257.400    21935190.724    21935202.850    21935190.983  
  21935195.924       -1484.563       -1156.800          43.950          49.120  
 -21391118.081   -16668385.433    21274777.018    21274819.240    21274777.979  
  21274779.516        2304.915        1796.042          45.510          51.250  
 15  7 19  1  8 30.0000000  4  3
XYZ        0.000        0.000        0.000 GPS:12:WC        COMMENT
CLK GPS       0.000 GPS:12:WC                               COMMENT
DIA15892704 0.00 0.00     0.00 GPS:12:WC                    COMMENT
 15  7 19  1  8 30.0000000  0 10G02G05G10G12G13G15G20G21G25G29
 -15388253.289   -12518685.854    22211741.059           0.000    22211741.144  
  22211742.123       -1373.470       -1070.236          43.220          48.430  
 -24956787.032   -19785821.192    20722325.012    20722346.190    20722325.246  
  20722326.261       -1700.954       -1325.416          46.440          54.000  
   -413158.715    -2761027.612    25046060.350           0.000    25046062.561  
  25046068.745       -3742.062       -2915.880          30.990          37.480  
 -13865817.951   -10804524.887    22670363.739    22670376.850    22670364.270  
  22670367.484       -3138.258       -2445.391          42.640          46.840  
 -11078901.558    -8632893.812    22974310.100           0.000    22974311.098  
  22974315.089        2483.373        1935.087          39.470          45.230  
 -10379030.026    -8087538.940    23417138.356    23417174.020    23417138.865  
  23417142.473        3328.647        2593.752          41.140          46.370  
 -23769534.589   -19313985.407    20693044.441           0.000    20693043.989  
  20693045.587        1667.239        1299.148          46.820          52.160  
  -3248235.521    -2531084.233    24796414.022           0.000    24796411.782  
  24796415.723        1789.667        1394.551          34.780          40.140  
 -15334104.478   -14347366.199    21943711.628    21943728.330    21943711.415  
  21943716.825       -1500.547       -1169.260          43.790          49.190  
 -21460139.673   -16722168.487    21261643.253    21261671.420    21261643.802  
  21261645.487        2296.517        1789.493          45.780          51.600  
 15  7 19  1  9  0.0000000  4  3
XYZ        0.000        0.000        0.000 GPS:12:WC        COMMENT
CLK GPS       0.000 GPS:12:WC                               COMMENT
DIA15892704 0.00 0.00     0.00 GPS:12:WC                    COMMENT
 15  7 19  1  9  0.0000000  0 10G02G05G10G12G13G15G20G21G25G29
 -15347006.537   -12486545.554    22219590.272           0.000    22219590.436  
  22219591.220       -1376.315       -1072.451          43.140          48.220  
 -24905555.281   -19745900.343    20732073.599    20732101.160    20732074.100  
  20732075.273       -1714.493       -1335.968          46.230          53.790  
   -300898.217    -2673552.245    25067423.296           0.000    25067424.559  
  25067430.703       -3741.930       -2915.775          30.740          38.630  
 -13771575.320   -10731089.133    22688298.572    22688319.770    22688298.750  
  22688301.411       -3144.582       -2450.324          43.220          46.800  
 -11153278.065    -8690849.454    22960156.361           0.000    22960157.343  
  22960161.470        2475.020        1928.582          39.110          45.280  
 -10478859.035    -8165327.675    23398140.883    23398153.710    23398141.429  
  23398145.690        3326.566        2592.127          40.650          46.690  
 -23819333.765   -19352789.925    20683567.981           0.000    20683567.401  
  20683569.232        1652.676        1287.799          46.870          52.190  
  -3301923.204    -2572918.621    24786195.809           0.000    24786195.045  
  24786199.114        1789.507        1394.418          34.790          40.450  
 -15288849.189   -14312102.363    21952322.524    21952366.480    21952322.954  
  21952328.780       -1516.473       -1181.668          43.650          49.130  
 -21528908.380   -16775754.480    21248557.463    21248587.690    21248557.510  
  21248559.254        2288.017        1782.871          45.800          51.640  
 15  7 19  1  9 30.0000000  4  3
XYZ        0.000        0.000        0.000 GPS:12:WC        COMMENT
CLK GPS       0.000 GPS:12:WC                               COMMENT
DIA15892704 0.00 0.00     0.00 GPS:12:WC                    COMMENT
 15  7 19  1  9 30.0000000  0 10G02G05G10G12G13G15G20G21G25G29
 -15305674.694   -12454338.929    22227457.035           0.000    22227456.097  
  22227455.712       -1379.147       -1074.661          43.850          47.920  
 -24853918.603   -19705663.964    20741899.842    20741933.190    20741899.960  
  20741901.474       -1727.953       -1346.458          46.300          53.840  
   -188643.895    -2586080.916    25088786.360           0.000    25088785.824  
  25088791.942       -3741.696       -2915.629          31.520          39.780  
 -13677145.186   -10657507.269    22706268.501    22706307.450    22706268.275  
  22706270.532       -3150.758       -2455.135          43.210          46.430  
 -11227402.864    -8748608.954    22946050.422           0.000    22946051.520  
  22946055.974        2466.587        1922.023          39.220          45.590  
 -10578624.308    -8243066.725    23379156.004    23379180.730    23379156.862  
  23379160.815        3324.433        2590.460          40.620          46.920  
 -23868695.844   -19391253.849    20674174.809           0.000    20674174.125  
  20674176.027        1638.117        1276.454          46.900          52.370  
  -3355606.923    -2614749.936    24775979.879           0.000    24775979.169  
  24775983.682        1789.400        1394.338          34.680          40.190  
 -15243117.867   -14276467.598    21961025.386    21961075.550    21961025.623  
  21961031.014       -1532.269       -1193.977          43.630          49.070  
 -21597421.427   -16829141.248    21235520.068    21235540.590    21235519.918  
  21235521.751        2279.489        1776.224          45.750          51.810  
 15  7 19  1 10  0.0000000  4  3
XYZ        0.000        0.000        0.000 GPS:12:WC        COMMENT
CLK GPS       0.000 GPS:12:WC                               COMMENT
DIA15892704 0.00 0.00     0.00 GPS:12:WC                    COMMENT
 15  7 19  1 10  0.0000000  0 10G02G05G10G12G13G15G20G21G25G29
 -15264257.189   -12422065.545    22235337.896           0.000    22235337.389  
  22235337.117       -1382.019       -1076.901          42.950          47.760  
 -24801879.053   -19665113.657    20751802.074    20751829.220    20751802.989  
  20751804.240       -1741.356       -1356.901          45.270          53.550  
    -76394.833    -2498615.274    25110140.831           0.000    25110145.449  
  25110151.579       -3741.436       -2915.411          27.360          37.730  
 -13582530.212   -10583781.371    22724273.197    22724279.660    22724273.251  
  22724275.370       -3156.888       -2459.910          42.780          46.510  
 -11301272.896    -8806169.924    22931994.341           0.000    22931994.946  
  22931998.246        2458.040        1915.355          38.730          45.050  
 -10678322.942    -8320753.849    23360184.349    23360204.960    23360184.574  
  23360188.656        3322.134        2588.666          39.550          46.660  
 -23917620.459   -19429376.889    20664864.299           0.000    20664863.818  
  20664865.873        1623.510        1265.072          45.980          52.100  
  -3409286.793    -2656578.246    24765763.428           0.000    24765763.957  
  24765768.291        1789.287        1394.238          33.650          39.810  
 -15196912.688   -14240463.591    21969818.657    21969842.210    21969818.405  
  21969823.541       -1548.047       -1206.267          43.000          48.750  
 -21665676.388   -16882326.902    21222531.647    21222552.380    21222531.447  
  21222533.068        2270.834        1769.481          44.900          51.500  
 15  7 19  1 10 30.0000000  4  3
XYZ        0.000        0.000        0.000 GPS:12:WC        COMMENT
CLK GPS       0.000 GPS:12:WC                               COMMENT
DIA15892704 0.00 0.00     0.00 GPS:12:WC                    COMMENT
 15  7 19  1 10 30.0000000  0 10G02G05G10G12G13G15G20G21G25G29
 -15222753.513   -12389725.024    22243234.109           0.000    22243234.580  
  22243235.295       -1384.897       -1079.139          43.130          48.080  
 -24749438.797   -19624251.123    20761781.847    20761805.870    20761782.130  
  20761783.351       -1754.650       -1367.263          46.090          53.760  
3954916990.584    -2411156.586    25131504.835           0.000    25131503.732  
  25131509.404       -3741.243       -2915.162          27.770          39.540  
 -13487733.427   -10509913.809    22742311.268    22742346.410    22742312.183  
  22742314.863       -3162.875       -2464.576          43.240          47.060  
 -11374884.909    -8863529.857    22917986.402           0.000    22917987.163  
  22917990.943        2449.395        1908.614          39.520          45.860  
 -10777951.667    -8398386.508    23341224.583    23341264.200    23341225.501  
  23341229.955        3319.756        2586.819          39.800          46.660  
 -23966107.101   -19467158.653    20655637.222           0.000    20655637.092  
  20655639.083        1608.915        1253.702          46.580          52.330  
  -3462963.800    -2698404.344    24755550.054           0.000    24755549.131  
  24755553.505        1789.190        1394.168          34.840          39.790  
 -15150235.982   -14204092.160    21978700.474    21978721.560    21978700.402  
  21978705.265       -1563.726       -1218.493          43.690          48.530  
 -21733671.060   -16935309.730    21209591.879    21209615.180    21209592.440  
  21209593.965        2262.111        1762.684          45.570          51.570  
 15  7 19  1 11  0.0000000  4  3
XYZ        0.000        0.000        0.000 GPS:12:WC        COMMENT
CLK GPS       0.000 GPS:12:WC                               COMMENT
DIA15892704 0.00 0.00     0.00 GPS:12:WC                    COMMENT
 15  7 19  1 11  0.0000000  0 10G02G05G10G12G13G15G20G21G25G29
 -15181163.665   -12357317.364    22251148.806           0.000    22251149.216  
  22251149.741       -1387.787       -1081.392          43.120          47.880  
 -24696600.713   -19583078.586    20771836.901    20771865.110    20771836.937  
  20771837.972       -1767.890       -1377.577          45.890          53.590  
3954804761.424    -2323706.882    25152861.331           0.000    25152859.908  
  25152865.160       -3741.145       -2914.825          26.310          39.710  
 -13392758.647   -10435907.549    22760384.781    22760400.840    22760385.462  
  22760388.172       -3168.763       -2469.164          42.780          47.220  
 -11448236.074    -8920686.502    22904029.277           0.000    22904029.281  
  22904031.907        2440.648        1901.797          39.600          45.060  
 -10877507.659    -8475962.480    23322280.663    23322307.300    23322280.594  
  23322284.590        3317.275        2584.882          38.990          46.010  
 -24014155.586   -19504598.997    20646494.010           0.000    20646493.470  
  20646495.689        1594.300        1242.309          46.100          52.240  
  -3516638.563    -2740228.723    24745336.964           0.000    24745335.256  
  24745338.649        1789.115        1394.117          33.900          38.910  
 -15103090.270   -14167355.268    21987671.820    21987707.440    21987671.881  
  21987677.285       -1579.313       -1230.630          43.060          48.540  
 -21801403.367   -16988088.107    21196702.464    21196733.030    21196702.942  
  21196704.934        2253.353        1755.856          44.950          51.410  
 15  7 19  1 11 30.0000000  4  3
XYZ        0.000        0.000        0.000 GPS:12:WC        COMMENT
CLK GPS       0.000 GPS:12:WC                               COMMENT
DIA15892704 0.00 0.00     0.00 GPS:12:WC                    COMMENT
 15  7 19  1 11 30.0000000  0 10G02G05G10G12G13G15G20G21G25G29
 -15139486.630   -12324841.756    22259080.973           0.000    22259080.318  
  22259080.386       -1390.699       -1083.661          43.860          47.760  
 -24643366.707   -19541597.540    20781966.719    20781993.810    20781967.275  
  20781967.929       -1781.053       -1387.832          46.750          53.590  
3975944518.768    -2236267.367    25174218.869           0.000    25174212.916  
  25174219.102       -3749.861       -2914.460          23.450          39.590  
 -13297608.588   -10361764.720    22778491.067    22778519.860    22778491.650  
  22778495.021       -3174.569       -2473.682          43.270          47.960  
 -11521322.849    -8977637.167    22890119.721           0.000    22890120.988  
  22890123.717        2431.772        1894.889          40.110          45.160  
 -10976987.928    -8553479.437    23303348.871    23303363.820    23303349.509  
  23303353.904        3314.702        2582.877          39.510          45.800  
 -24061765.189   -19541697.350    20637433.603           0.000    20637433.455  
  20637435.971        1579.664        1230.905          46.560          52.570  
  -3570311.370    -2782051.568    24735102.969           0.000    24735121.908  
  24735125.236        1789.049        1394.065          35.040          39.600  
 -15055477.716   -14130254.603    21996732.102    21996754.350    21996732.542  
  21996737.716       -1594.846       -1242.737          43.840          48.790  
 -21868870.668   -17040659.974    21183863.953    21183898.400    21183864.430  
  21183866.145        2244.448        1748.920          45.770          51.610  
 15  7 19  1 12  0.0000000  4  3
XYZ        0.000        0.000        0.000 GPS:12:WC        COMMENT
CLK GPS       0.000 GPS:12:WC                               COMMENT
DIA15892704 0.00 0.00     0.00 GPS:12:WC                    COMMENT
 15  7 19  1 12  0.0000000  0 10G02G05G10G12G13G15G20G21G25G29
 -15097722.545   -12292298.318    22267028.429           0.000    22267027.738  
  22267027.687       -1393.586       -1085.912          42.890          47.580  
 -24589739.368   -19499809.991    20792171.521    20792199.470    20792172.321  
  20792172.982       -1794.103       -1398.005          46.260          53.440  
3975832325.992    -2148839.886    25195565.842           0.000    25195564.075  
  25195569.145       -3739.697       -2914.029          28.300          38.350  
 -13202286.493   -10287487.837    22796631.150    22796663.110    22796631.229  
  22796634.386       -3180.223       -2478.095          42.100          48.000  
 -11594142.428    -9034379.612    22876263.468           0.000    22876263.585  
  22876266.626        2422.838        1887.920          39.590          44.710  
 -11076389.530    -8630935.099    23284433.355    23284458.120    23284434.462  
  23284438.511        3312.047        2580.807          39.370          45.310  
 -24108935.782   -19578453.616    20628458.013           0.000    20628457.334  
  20628459.773        1565.038        1219.509          46.060          52.540  
  -3623982.957    -2823873.491    24724881.373           0.000    24724908.254  
  24724911.939        1789.036        1394.046          33.910          39.570  
 -15007400.864   -14092792.157    22005881.479    22005900.980    22005881.130  
  22005886.587       -1610.264       -1254.748          43.170          48.770  
 -21936070.600   -17093023.501    21171076.671    21171104.190    21171076.936  
  21171078.479        2235.523        1741.965          45.580          51.730  
 15  7 19  1 12 30.0000000  4  3
XYZ        0.000        0.000        0.000 GPS:12:WC        COMMENT
CLK GPS       0.000 GPS:12:WC                               COMMENT
DIA15892704 0.00 0.00     0.00 GPS:12:WC                    COMMENT
 15  7 19  1 12 30.0000000  0 10G02G05G10G12G13G15G20G21G25G29
 -15055870.961   -12259686.719    22274991.225           0.000    22274991.515  
  22274991.657       -1396.495       -1088.177          43.160          48.020  
 -24535720.920   -19457717.690    20802450.896    20802485.730    20802451.668  
  20802452.387       -1807.087       -1408.119          46.770          53.580  
3993738171.799    -2061425.906    25216914.652           0.000    25216911.910  
  25216916.103       -3739.061       -2913.529          28.150          36.740  
 -13106795.324   -10213079.220    22814802.257    22814825.600    22814801.745  
  22814805.898       -3185.813       -2482.447          41.710          48.330  
 -11666691.699    -9090911.443    22862457.045           0.000    22862457.143  
  22862461.068        2413.788        1880.866          39.460          45.000  
 -11175709.115    -8708326.849    23265533.966    23265576.100    23265534.083  
  23265538.566        3309.270        2578.646          39.750          45.000  
 -24155666.977   -19614867.489    20619564.471           0.000    20619564.683  
  20619567.128        1550.403        1208.102          46.370          52.670  
  -3677653.702    -2865694.749    24714695.464           0.000    24714695.476  
  24714699.218        1789.023        1394.046          34.060          40.470  
 -14958861.938   -14054969.653    22015117.788    22015146.420    22015117.496  
  22015123.380       -1625.627       -1266.723          43.250          48.830  
 -22003000.966   -17145176.966    21158340.745    21158370.360    21158340.866  
  21158342.092        2226.532        1734.958          46.410          52.090  
 15  7 19  1 13  0.0000000  4  3
XYZ        0.000        0.000        0.000 GPS:12:WC        COMMENT
CLK GPS       0.000 GPS:12:WC                               COMMENT
DIA15892704 0.00 0.00     0.00 GPS:12:WC                    COMMENT
 15  7 19  1 13  0.0000000  0 11G02G05G10G12G13G15G18G20G21G25G29
 -15013931.354   -12227006.531    22282973.024           0.000    22282972.155  
  22282972.585       -1399.467       -1090.495          42.830          47.780  
 -24481313.494   -19415322.282    20812804.646    20812834.350    20812804.701  
  20812805.902       -1820.029       -1418.204          46.600          53.640  
3993626008.428    -1974026.978    25238256.959           0.000    25238255.602  
  25238259.531       -3738.378       -2913.034          28.610          35.900  
 -13011138.308   -10138541.374    22833004.619    22833035.210    22833005.251  
  22833009.095       -3191.298       -2486.725          42.210          48.570  
 -11738967.289    -9147230.002    22848703.261           0.000    22848704.006  
  22848707.057        2404.582        1873.692          40.290          45.210  
 -11274943.640    -8785652.320    23246650.003    23246671.920    23246650.527  
  23246654.423        3306.365        2576.388          39.920          44.290  
   -283773.454      -17797.218    25219878.546           0.000    25219879.366  
  25219885.469        3044.721        2371.343          31.020          20.700  
 -24201958.124   -19650938.474    20610756.243           0.000    20610755.721  
  20610758.000        1535.699        1196.649          46.350          52.620  
  -3731324.116    -2907515.763    24704482.424           0.000    24704481.727  
  24704485.751        1789.020        1394.040          33.730          40.160  
 -14909863.398   -14016789.000    22024442.089    22024467.360    22024441.885  
  22024447.466       -1640.919       -1278.638          43.550          48.820  
 -22069659.464   -17197118.585    21145655.275    21145682.350    21145655.826  
  21145657.175        2217.375        1727.821          46.150          52.080  
 15  7 19  1 13 30.0000000  4  3
XYZ        0.000        0.000        0.000 GPS:12:WC        COMMENT
CLK GPS       0.000 GPS:12:WC                               COMMENT
DIA15892704 0.00 0.00     0.00 GPS:12:WC                    COMMENT
 15  7 19  1 13 30.0000000  0 11G02G05G10G12G13G15G18G20G21G25G29
 -14971903.296   -12194257.414    22290970.370           0.000    22290969.873  
  22290970.260       -1402.429       -1092.800          42.750          47.640  
 -24426519.750   -19372625.852    20823231.128    20823265.460    20823231.598  
  20823232.921       -1832.892       -1428.226          46.510          53.790  
3993513869.100    -1886644.838    25259594.573           0.000    25259594.663  
  25259599.609       -3737.638       -2912.451          30.170          36.880  
 -12915318.387   -10063876.598    22851237.967    22851268.480    22851238.452  
  22851242.986       -3196.689       -2490.927          41.250          48.060  
 -11810966.078    -9203332.868    22835002.904           0.000    22835003.413  
  22835006.335        2395.305        1866.467          40.340          45.430  
 -11374090.356    -8862909.372    23227781.684    23227785.950    23227782.630  
  23227786.810        3303.396        2574.068          39.350          43.840  
   -375050.218      -67567.746    25202510.858           0.000    25202509.241  
  25202518.839        3040.418        2369.160          35.740          32.470  
 -24247809.072   -19686666.451    20602031.096           0.000    20602030.734  
  20602032.816        1521.019        1185.207          46.300          52.630  
  -3784995.471    -2949337.146    24694268.388           0.000    24694267.986  
  24694272.195        1789.031        1394.053          33.040          39.870  
 -14860407.736   -13978252.150    22033853.757    22033886.910    22033853.509  
  22033858.424       -1656.126       -1290.488          43.580          48.700  
 -22136043.300   -17248846.177    21133023.194    21133049.200    21133023.314  
  21133024.881        2208.182        1720.657          45.920          52.020  
 15  7 19  1 14  0.0000000  4  3
XYZ        0.000        0.000        0.000 GPS:12:WC        COMMENT
CLK GPS       0.000 GPS:12:WC                               COMMENT
DIA15892704 0.00 0.00     0.00 GPS:12:WC                    COMMENT
 15  7 19  1 14  0.0000000  0 11G02G05G10G12G13G15G18G20G21G25G29
 -14929786.480   -12161439.131    22298984.975           0.000    22298984.820  
  22298985.559       -1405.359       -1095.084          43.610          48.280  
 -24371341.797   -19329630.037    20833731.366    20833764.210    20833731.776  
  20833733.006       -1845.621       -1438.149          46.920          53.910  
3993401751.144    -1799281.071    25280930.703           0.000    25280929.839  
  25280934.230       -3737.260       -2911.784          29.000          36.430  
 -12819338.967    -9989087.513    22869502.974    22869548.280    22869503.241  
  22869507.093       -3201.917       -2495.002          41.950          47.520  
 -11882685.094    -9259217.739    22821355.510           0.000    22821355.749  
  22821358.361        2385.948        1859.180          41.260          45.560  
 -11473145.975    -8940095.441    23208933.978    23208957.820    23208933.771  
  23208936.922        3300.303        2571.662          40.160          44.040  
   -466198.338     -138591.967    25185164.562           0.000    25185163.553  
  25185174.036        3036.105        2365.780          32.780          32.570  
 -24293219.549   -19722051.199    20593389.509           0.000    20593389.194  
  20593391.469        1506.355        1173.784          46.410          52.750  
  -3838666.522    -2991159.035    24684055.140           0.000    24684055.035  
  24684058.540        1789.077        1394.102          32.460          39.610  
 -14810497.277   -13939360.912    22043350.592    22043387.060    22043351.021  
  22043356.221       -1671.226       -1302.255          44.100          48.650  
 -22202150.181   -17300357.965    21120443.095    21120473.050    21120443.729  
  21120444.892        2198.931        1713.449          46.350          52.040  
 15  7 19  1 14 30.0000000  4  3
XYZ        0.000        0.000        0.000 GPS:12:WC        COMMENT
CLK GPS       0.000 GPS:12:WC                               COMMENT
DIA15892704 0.00 0.00     0.00 GPS:12:WC                    COMMENT
 15  7 19  1 14 30.0000000  0 11G02G05G10G12G13G15G18G20G21G25G29
 -14887580.793   -12128551.606    22307016.192           0.000    22307015.958  
  22307016.997       -1408.340       -1097.409          43.380          48.360  
 -24315782.101   -19286336.760    20844303.248    20844325.370    20844304.248  
  20844305.622       -1858.324       -1448.044          46.800          53.780  
3993289659.761    -1711937.355    25302260.951           0.000    25302260.604  
  25302264.196       -3735.923       -2911.116          31.100          35.920  
 -12723203.270    -9914176.659    22887797.237    22887804.180    22887797.489  
  22887801.164       -3207.094       -2499.034          41.730          47.470  
 -11954121.420    -9314882.302    22807761.254           0.000    22807761.588  
  22807764.475        2376.470        1851.795          40.760          45.380  
 -11572107.463    -9017208.160    23190101.368    23190146.890    23190101.491  
  23190104.790        3297.127        2569.179          39.610          44.310  
   -557216.541     -209514.079    25167843.942           0.000    25167843.489  
  25167853.969        3031.877        2362.345          29.190          32.220  
 -24338189.369   -19757092.583    20584832.172           0.000    20584831.874  
  20584834.097        1491.638        1162.316          46.290          52.800  
  -3892340.252    -3032982.269    24673839.642           0.000    24673840.980  
  24673844.972        1789.146        1394.141          32.510          39.490  
 -14760134.800   -13900117.467    22052934.720    22052957.950    22052934.503  
  22052939.506       -1686.256       -1313.968          43.750          48.320  
 -22267977.776   -17351652.136    21107916.818    21107946.150    21107916.932  
