     3.02           OBSERVATION DATA    GPS(GPS)            RINEX VERSION / TYPE
cnvtToRINEX 2.25.0  convertToRINEX OPR  23-Jan-15 22:34 UTC PGM / RUN BY / DATE 
----------------------------------------------------------- COMMENT             
7619                                                        MARKER NAME         
7619                                                        MARKER NUMBER       
GEODETIC                                                    MARKER TYPE         
GNSS Observer       Trimble                                 OBSERVER / AGENCY   
5239497619          R8 Model 3          4.80                REC # / TYPE / VERS 
                    TRM60158.00                             ANT # / TYPE        
  -740287.1908 -5457064.3395  3207279.4677                  APPROX POSITION XYZ 
       -0.0650        0.0000        0.0000                  ANTENNA: DELTA H/E/N
G    8 C1C C2W C2X C5X L1C L2W L2X L5X                      SYS / # / OBS TYPES 
  2014    10    31    20    28    0.0000000     GPS         TIME OF FIRST OBS   
  2014    10    31    23    59   45.0000000     GPS         TIME OF LAST OBS    
     0                                                      RCV CLOCK OFFS APPL 
G L1C 0.00000                                               SYS / PHASE SHIFT   
G L2X -0.25000                                              SYS / PHASE SHIFT   
G L5X 0.00000                                               SYS / PHASE SHIFT   
    16                                                      LEAP SECONDS        
     9                                                      # OF SATELLITES     
   G05    70     0     0     0    63     0     0     0      PRN / # OF OBS      
   G15   413     0   320     0   397     0   320     0      PRN / # OF OBS      
   G18   126     0     0     0   116     0     0     0      PRN / # OF OBS      
   G21    11     6     0     0    10     6     0     0      PRN / # OF OBS      
   G22    44     0     0     0    39     0     0     0      PRN / # OF OBS      
   G24     7     0     6     6     6     0     6     6      PRN / # OF OBS      
   G26    99     0     0     0    96     0     0     0      PRN / # OF OBS      
   G27    12     0    11    12    12     0    11    12      PRN / # OF OBS      
   G29   130     0    69     0   122     0    69     0      PRN / # OF OBS      
                                                            END OF HEADER       
> 2014 10 31 20 28  0.0000000  0  2
G05  23448820.047 5                                                 123224404.83915                                
G15  20678535.828 5                                                 108666319.37715                                
> 2014 10 31 20 28 15.0000000  0  2
G05  23456156.969 5                                                 123262969.935 5                                
G15  20673040.539 6                                                 108637434.531 6                                
> 2014 10 31 20 28 30.0000000  0  2
G05  23463576.977 5                                                 123301955.861 5                                
G15  20667651.695 6                                                 108609104.799 6                                
> 2014 10 31 20 28 45.0000000  0  2
G05  23471043.063 5                                                 123341185.710 5                                
G15  20662332.773 6                                                 108581153.495 6                                
> 2014 10 31 20 29  0.0000000  0  2
G05  23478541.297 5                                                 123380595.658 5                                
G15  20657073.836 6                                                 108553517.106 6                                
> 2014 10 31 20 29 15.0000000  0  3
G05  23486064.781 5                                                 123420144.292 5                                
G15  20651865.766 6                                                 108526154.488 6                                
G26  21115083.484 5                                                 110960525.89715                                
> 2014 10 31 20 29 30.0000000  0  3
G05  23493616.164 5                                                 123459815.468 5                                
G15  20646707.430 6                                                 108499050.421 6                                
G26  21115595.766 6                                                 110963214.438 6                                
> 2014 10 31 20 29 45.0000000  0  3
G05  23501183.297 5                                                 123499585.388 5                                
G15  20641594.555 6                                                 108472181.151 6                                
G26  21116155.563 5                                                 110966172.712 5                                
> 2014 10 31 20 30  0.0000000  0  3
G05  23508767.742 5                                                 123539445.678 5                                
G15  20636526.461 6                                                 108445538.969 6                                
G26  21116769.313 5                                                 110969392.667 5                                
> 2014 10 31 20 30 15.0000000  0  3
G05  23516367.422 5                                                                                                
G15  20631497.656 6                                                 108419110.505 6                                
G26  21117429.227 6                                                 110972860.707 6                                
> 2014 10 31 20 30 30.0000000  0  3
G05  23523980.516 5                                                 123619391.09915                                
G15  20626507.734 6                                                 108392890.354 6                                
G26  21118135.719 5                                                 110976571.410 5                                
> 2014 10 31 20 30 45.0000000  0  3
G05  23531606.875 5                                                 123659463.91615                                
G15  20621556.625 6                                                 108366872.41716                                
G26  21118885.977 5                                                 110980518.13515                                
> 2014 10 31 20 31  0.0000000  0  3
G05  23539244.266 5                                                 123699595.365 5                                
G15  20616641.648 6                  20616642.996 5                 108341050.864 6                  84421706.86515
G26  21119681.305 5                                                 110984694.882 5                                
> 2014 10 31 20 31 15.0000000  0  3
G05  23546891.625 5                                                 123739780.501 5                                
G15  20611763.289 6                  20611765.848 5                 108315421.559 6                  84401735.989 5
G26  21120519.180 5                                                 110989097.188 5                                
> 2014 10 31 20 31 30.0000000  0  3
G05  23554549.383 6                                                 123780011.543 6                                
G15  20606919.867 5                  20606924.199 5                 108289977.116 5                  84381909.147 5
G26  21121398.172 5                                                 110993717.515 5                                
> 2014 10 31 20 31 45.0000000  0  3
G05  23562213.633 6                                                 123820285.284 6                                
G15  20602110.828 5                  20602115.344 5                 108264714.364 5                  84362223.881 5
G26  21122317.172 5                                                 110998552.268 5                                
> 2014 10 31 20 32  0.0000000  0  3
G05  23569886.922 6                                                 123860598.588 6                                
G15  20597338.203 5                  20597341.281 5                 108239630.807 5                  84342678.255 5
G26  21123277.234 5                                                 111003598.744 5                                
> 2014 10 31 20 32 15.0000000  0  3
G05  23577563.977 6                                                 123900947.759 6                                
G15  20592597.633 5                  20592602.711 5                 108214723.053 5                  84323269.599 5
G26  21124276.852 5                                                 111008853.421 5                                
> 2014 10 31 20 32 30.0000000  0  4
G05  23585250.625 6                                                 123941334.503 6                                
G15  20587891.719 6                  20587897.730 5                 108189993.234 6                  84303999.629 5
G26  21125316.469 5                                                 111014318.26715                                
G29  20014307.977 5                                                 105175853.60015                                
> 2014 10 31 20 32 45.0000000  0  4
G05  23592943.008 5                                                 123981750.453 5                                
G15  20583218.891 6                  20583223.738 5                 108165433.214 6                  84284861.951 5
G26  21126398.781 5                                                 111019984.71615                                
G29  20015236.883 5                                                 105180717.95315                                
> 2014 10 31 20 33  0.0000000  0  4
G05  23600637.977 5                                                 124022196.634 5                                
G15  20578578.492 6                  20578582.074 6                 108141044.498 6                  84265857.736 6
G26  21127516.703 5                                                 111025853.88015                                
G29  20016192.453 5                                                 105185755.886 5                                
> 2014 10 31 20 33 15.0000000  0  3
G05  23608338.125 5                                                 124062667.34415                                
G15  20573968.227 6                  20573972.445 6                 108116821.617 6                  84246982.759 6
G26  21128668.367 5                                                 111031920.19415                                
> 2014 10 31 20 33 30.0000000  0  2
G15  20569391.852 6                  20569393.141 6                 108092764.877 6                  84228237.228 6
G26  21129859.633 5                                                 111038183.65915                                
> 2014 10 31 20 33 45.0000000  0  2
G15  20564844.711 6                  20564845.199 5                 108068868.056 6                  84209616.315 5
G26  21131086.656 4                                                 111044637.70714                                
> 2014 10 31 20 34  0.0000000  0  1
G15  20560329.172 6                  20560327.680 5                 108045132.875 6                  84191121.362 5
> 2014 10 31 20 34 15.0000000  0  1
G15  20555842.438 6                  20555840.898 5                 108021557.755 6                  84172751.133 5
> 2014 10 31 20 34 30.0000000  0  1
G15  20551386.750 6                  20551385.582 5                 107998141.497 6                  84154504.701 5
> 2014 10 31 20 34 45.0000000  0  1
G15  20546961.906 6                  20546960.676 5                 107974886.887 6                  84136384.282 5
> 2014 10 31 20 35  0.0000000  0  1
G15  20542566.781 6                  20542565.906 5                 107951787.770 6                  84118385.010 5
> 2014 10 31 20 35 15.0000000  0  1
G15  20538202.578 6                  20538202.027 5                 107928851.360 6                  84100512.546 5
> 2014 10 31 20 35 30.0000000  0  2
G15  20533866.352 6                  20533866.473 5                 107906071.509 6                  84082762.049 5
G26  21140698.195 5                                                 111095134.78515                                
> 2014 10 31 20 35 45.0000000  0  2
G15  20529562.898 5                  20529564.094 5                 107883452.843 5                  84065137.160 5
G26  21142214.242 5                                                 111103103.502 5                                
> 2014 10 31 20 36  0.0000000  0  2
G15  20525288.648 5                  20525289.965 5                 107860991.34715                  84047634.75215
G26  21143764.133 5                                                 111111258.016 5                                
> 2014 10 31 20 36 15.0000000  0  2
G15  20521044.516 4                  20521044.645 5                 107838685.39814                  84030253.52115
G26  21145348.211 5                                                 111119595.94715                                
> 2014 10 31 20 36 30.0000000  0  1
G26  21146967.773 5                                                 111128116.86115                                
> 2014 10 31 20 36 45.0000000  0  2
G05  23716497.344 5                                                 124630917.72415                                
G26  21148625.883 5                                                 111136822.201 5                                
> 2014 10 31 20 37  0.0000000  0  2
G05  23724240.625 5                                                 124671616.068 5                                
G26  21150320.836 5                                                 111145715.912 5                                
> 2014 10 31 20 37 15.0000000  0  3
G05  23731987.414 5                                                 124712328.074 5                                
G26  21152048.898 6                                                 111154797.379 6                                
G29  20037197.594 5                  20037197.672 5                 105296058.94415                  82048970.71115
> 2014 10 31 20 37 30.0000000  0  3
G05  23739736.516 5                                                 124753044.569 5                                
G26  21153811.656 6                                                 111164057.432 6                                
G29  20038709.422 5                  20038702.461 5                 105303972.206 5                  82055136.871 5
> 2014 10 31 20 37 45.0000000  0  3
G05  23747487.539 5                                                 124793770.295 5                                
G15  20496200.609 5                                                 107708163.27115                                
G26  21155609.625 6                                                 111173500.576 6                                
> 2014 10 31 20 38  0.0000000  0  3
G05  23755239.320 5                                                 124834504.634 5                                
G15  20492166.797 5                                                 107686955.99115                                
G26  21157441.188 6                                                 111183126.399 6                                
> 2014 10 31 20 38 15.0000000  0  3
G05  23762990.297 5                                                 124875245.986 5                                
G15  20488159.492 5                                                                                                
G26  21159307.016 6                                                 111192933.246 6                                
> 2014 10 31 20 38 30.0000000  0  3
G05  23770746.320 5                                                 124915997.785 5                                
G15  20484182.734 4                                                 107645010.56114                                
G26  21161208.648 6                                                 111202924.943 6                                
> 2014 10 31 20 38 45.0000000  0  3
G05  23778502.156 5                                                                                                
G15  20480236.320 4                                                                                                
G26  21163143.070 6                                                 111213095.462 6                                
> 2014 10 31 20 39  0.0000000  0  2
G05  23786257.563 5                                                 124997519.68915                                
G26  21165112.508 6                                                 111223448.704 6                                
> 2014 10 31 20 39 15.0000000  0  1
G26  21167118.109 6                                                 111233984.479 6                                
> 2014 10 31 20 39 30.0000000  0  2
G26  21169156.695 6                                                 111244702.541 6                                
G29  20051801.195 5                                                 105373104.73215                                
> 2014 10 31 20 39 45.0000000  0  2
G26  21171231.391 6                                                 111255602.992 6                                
G29  20053572.477 6                                                 105382407.96316                                
> 2014 10 31 20 40  0.0000000  0  2
G26  21173340.133 6                                                 111266680.476 6                                
G29  20055371.828 6                  20055373.930 5                 105391860.819 6                  82123400.81215
> 2014 10 31 20 40 15.0000000  0  2
G26  21175481.570 6                                                 111277936.626 6                                
G29  20057200.086 6                  20057202.301 5                 105401464.891 6                  82130884.461 5
> 2014 10 31 20 40 30.0000000  0  2
G26  21177657.508 6                                                 111289373.914 6                                
G29  20059057.719 6                  20059060.492 5                 105411222.816 6                  82138487.978 5
> 2014 10 31 20 40 45.0000000  0  2
G26  21179867.148 6                                                 111300986.633 6                                
G29  20060944.070 7                  20060946.242 5                 105421128.904 7                  82146206.962 5
> 2014 10 31 20 41  0.0000000  0  2
G26  21182110.336 6                                                 111312779.932 6                                
G29  20062857.313 6                  20062860.125 5                 105431188.375 6                  82154045.466 5
> 2014 10 31 20 41 15.0000000  0  2
G26  21484180.078 6                                                 112900168.842 6                                
G29  20364593.477 6                  20364594.328 5                 107016816.571 6                  83389599.850 5
> 2014 10 31 20 41 30.0000000  0  2
G26  21486492.219 6                                                 112912314.095 6                                
G29  20366562.992 6                  20366565.199 5                 107027173.957 6                  83397670.491 5
> 2014 10 31 20 41 45.0000000  0  2
G26  21488836.172 6                                                 112924635.821 6                                
G29  20368562.516 6                  20368563.098 4                 107037680.811 6                  83405857.615 4
> 2014 10 31 20 42  0.0000000  0  3
G15  20731433.422 5                  20731430.602 5                 108944435.89415                  84891742.17315
G26  21491214.305 6                                                 112937133.318 6                                
G29  20370589.180 6                  20370589.762 4                 107048336.317 6                  83414160.609 4
> 2014 10 31 20 42 15.0000000  0  3
G15  20727903.344 6                  20727897.848 5                 108925877.452 6                  84877281.079 5
G26  21493627.281 6                                                 112949811.655 6                                
G29  20372645.852 5                  20372645.621 4                 107059145.967 5                  83422583.737 4
> 2014 10 31 20 42 30.0000000  0  3
G15  20724400.266 6                  20724395.242 5                 108907470.563 6                  84862938.069 5
G26  21496073.016 6                                                 112962662.952 6                                
G29  20374729.078 5                  20374729.328 4                 107070101.874 5                  83431120.808 4
> 2014 10 31 20 42 45.0000000  0  3
G15  20720927.039 6                  20720921.512 5                 108889217.678 6                  84848715.097 5
G26  21498552.133 6                                                 112975689.161 6                                
G29  20376843.508 5                  20376842.113 4                 107081205.91415                  83439773.31114
> 2014 10 31 20 43  0.0000000  0  4
G05  24210295.109 5                                                 127225742.47015                                
G15  20717485.117 5                  20717478.680 5                 108871125.137 5                  84834617.055 5
G26  21501065.609 6                                                 112988896.338 6                                
G29  20378987.688 5                  20378986.176 5                 107092464.28915                  83448546.06315
> 2014 10 31 20 43 15.0000000  0  4
G05  24218065.695 5                                                 127266573.595 5                                
G15  20714071.898 5                  20714064.082 5                 108853188.938 5                  84820640.860 5
G26  21503612.820 6                                                 113002280.392 6                                
G29  20381157.820 5                  20381158.770 5                 107103873.07815                  83457436.02115
> 2014 10 31 20 43 30.0000000  0  4
G05  24225832.336 5                                                 127307396.478 5                                
G15  20710689.109 5                  20710677.809 5                 108835398.772 5                  84806778.473 5
G26  21506191.508 6                                                 113015830.549 6                                
G29  20383355.922 5                  20383357.445 5                 107115421.60215                  83466434.84715
> 2014 10 31 20 43 45.0000000  0  4
G05  24233601.383 5                                                 127348215.543 5                                
G15  20707335.086 5                                                                                                
G26  21508802.125 6                                                 113029551.392 6                                
G29  20385581.047 5                  20385583.277 5                 107127114.36915                  83475546.08815
> 2014 10 31 20 44  0.0000000  0  3
G05  24241368.156 5                                                 127389030.393 5                                
G26  21511445.844 6                                                 113043442.118 6                                
G29  20387832.344 4                                                                                                
> 2014 10 31 20 44 15.0000000  0  3
G05  24249133.258 5                                                 127429841.482 5                                
G26  21514120.711 6                                                 113057503.698 6                                
G29  20390113.516 5                  20390116.961 6                 107150931.71715                  83494105.01516
> 2014 10 31 20 44 30.0000000  0  2
G05  24256901.188 6                                                 127470653.433 6                                
G26  21516829.477 6                                                 113071740.727 6                                
> 2014 10 31 20 44 45.0000000  0  2
G05  24264666.516 5                                                 127511460.391 5                                
G26  21519570.266 6                                                 113086147.125 6                                
> 2014 10 31 20 45  0.0000000  0  2
G05  24272431.672 6                                                 127552264.309 6                                
G26  21522345.406 6                                                 113100724.809 6                                
> 2014 10 31 20 45 15.0000000  0  3
G05  24280196.570 6                                                 127593069.169 6                                
G18  22324854.242 5                                                 117317881.53415                                
G26  21525151.773 6                                                 113115477.778 6                                
> 2014 10 31 20 45 30.0000000  0  3
G05  24287961.633 5                                                 127633871.497 5                                
G18  22320023.242 5                                                 117292486.082 5                                
G26  21527991.125 5                                                 113130402.528 5                                
> 2014 10 31 20 45 45.0000000  0  3
G05  24295727.313 5                                                 127674681.788 5                                
G18  22315205.078 5                                                                                                
G26  21530865.313 5                                                 113145509.446 5                                
> 2014 10 31 20 46  0.0000000  0  3
G05  24303492.008 5                                                 127715493.521 5                                
G18  22310398.188 5                                                 117241915.44015                                
G26  21533771.766 5                                                 113160791.945 5                                
> 2014 10 31 20 46 15.0000000  0  3
G05  24311260.016 5                                                 127756305.508 5                                
G18  22305603.594 5                                                 117216732.75915                                
G26  21536714.609 5                                                 113176249.042 5                                
> 2014 10 31 20 46 30.0000000  0  4
G05  24319026.438 5                                                 127797117.172 5                                
G18  22300825.477 5                                                                                                
G26  21539689.555 5                                                 113191880.038 5                                
G29  20411899.234 5                                                 107265131.20615                                
> 2014 10 31 20 46 45.0000000  0  3
G05  24326790.508 5                                                 127837930.150 5                                
G26  21542696.539 5                                                 113207686.27115                                
G29  20414461.203 6                                                 107278598.544 6                                
> 2014 10 31 20 47  0.0000000  0  3
G05  24334558.484 5                                                 127878745.672 5                                
G26  21545742.117 6                                                 113223669.124 6                                
G29  20417054.188 6                                                 107292217.295 6                                
> 2014 10 31 20 47 15.0000000  0  3
G05  24342326.195 5                                                 127919561.62415                                
G26  21548816.086 6                                                 113239826.582 6                                
G29  20419672.430 5                  20419672.566 5                 107305985.196 5                  83615144.85115
> 2014 10 31 20 47 30.0000000  0  3
G05  24350092.328 5                                                 127960374.732 5                                
G26  21551924.031 6                                                 113256155.049 6                                
G29  20422319.695 5                  20422319.590 5                 107319898.877 5                  83625986.682 5
> 2014 10 31 20 47 45.0000000  0  3
G05  24357859.445 5                                                 128001186.052 5                                
G26  21555063.156 6                                                 113272655.655 6                                
G29  20424995.047 5                  20424996.176 5                 107333959.53415                  83636943.03415
> 2014 10 31 20 48  0.0000000  0  2
G05  24365622.461 5                                                 128041995.48315                                
G26  21558236.023 5                                                 113289327.919 5                                
> 2014 10 31 20 48 15.0000000  0  2
G05  24373388.477 5                                                 128082799.459 5                                
G26  21561441.039 5                                                 113306168.837 5                                
> 2014 10 31 20 48 30.0000000  0  2
G05  24381153.797 5                                                 128123602.10715                                
G26  21564677.883 5                                                 113323182.057 5                                
> 2014 10 31 20 48 45.0000000  0  2
G05  24388915.984 5                                                 128164402.30615                                
G26  21567948.242 5                                                 113340366.60415                                
> 2014 10 31 20 49  0.0000000  0  3
G05  24396680.281 5                                                 128205206.729 5                                
G26  21571249.531 5                                                                                                
G29  20438790.844 5                  20438791.133 6                 107406465.93115                  83693436.19316
> 2014 10 31 20 49 15.0000000  0  3
G05  24404383.805 5                                                 128245680.372 5                                
G26  21574524.422 5                                                 113374934.06915                                
G29  20441571.813 5                  20441572.012 6                 107421081.939 5                  83704825.301 6
> 2014 10 31 20 49 30.0000000  0  3
G05  24411992.578 5                                                 128285667.059 5                                
G26  21577739.734 5                                                 113391825.75315                                
G29  20444287.898 5                  20444288.730 6                 107435360.105 5                  83715951.147 6
> 2014 10 31 20 49 45.0000000  0  3
G05  24419551.797 5                                                 128325385.160 5                                
G26  21580938.953 5                                                 113408622.335 5                                
G29  20446980.359 5                  20446982.781 5                 107449518.526 5                  83726983.689 5
> 2014 10 31 20 50  0.0000000  0  4
G05  24427074.500 5                                                                                                
G15  20632387.539 5                                                                                                
G26  21584133.945 6                                                 113425407.52116                                
G29  20449668.570 5                  20449670.250 5                 107463641.12515                  83737988.32115
> 2014 10 31 20 50 15.0000000  0  4
G05  24434570.578 5                                                                                                
G15  20629541.539 5                                                 108408910.82815                                
G26  21587335.992 6                                                 113442224.897 6                                
G29  20452357.969 5                  20452359.785 5                 107477771.618 5                  83748999.090 5
> 2014 10 31 20 50 30.0000000  0  4
G05  24442043.766 5                                                 128443584.77015                                
G15  20626702.320 5                                                 108393993.689 5                                
G26  21590546.609 6                                                 113459097.335 6                                
G29  20455053.828 5                  20455055.250 5                 107491932.994 5                  83760033.938 5
> 2014 10 31 20 50 45.0000000  0  4
G05  24449496.773 5                                                                                                
G15  20623873.094 5                                                 108379138.569 5                                
G26  21593772.617 6                                                 113476043.793 6                                
G29  20457758.352 5                  20457758.152 5                 107506144.260 5                  83771107.641 5
> 2014 10 31 20 51  0.0000000  0  4
G05  24456936.625 5                                                                                                
G15  20621061.398 5                                                                                                
G26  21597013.984 5                                                 113493083.295 5                                
G29  20460477.680 5                  20460475.785 5                 107520424.505 5                  83782235.071 5
> 2014 10 31 20 51 15.0000000  0  3
G15  20618266.703 5                                                 108349681.67915                                
G26  21600277.570 5                                                 113510224.502 5                                
G29  20463206.828 6                  20463208.016 5                 107534782.563 6                  83793423.098 5
> 2014 10 31 20 51 30.0000000  0  3
G15  20615494.734 5                                                 108335099.44415                                
G26  21603557.219 5                                                                                                
G29  20465959.531 6                  20465956.832 5                 107549228.889 6                  83804679.923 5
> 2014 10 31 20 51 45.0000000  0  2
G15  20612740.055 5                                                 108320615.490 5                                
G29  20468726.070 6                  20468721.246 5                 107563760.374 6                  83816003.103 5
> 2014 10 31 20 52  0.0000000  0  2
G15  20610002.742 5                                                 108306237.805 5                                
G29  20471509.625 6                  20471504.258 5                 107578385.104 6                  83827398.939 5
> 2014 10 31 20 52 15.0000000  0  2
G15  20607289.453 6                                                 108291974.402 6                                
G29  20474310.602 6                  20474306.016 5                 107593110.595 6                  83838873.300 5
> 2014 10 31 20 52 30.0000000  0  2
G15  20604597.625 6                                                 108277825.353 6                                
G29  20477130.469 6                  20477127.207 5                 107607936.609 6                  83850425.994 5
> 2014 10 31 20 52 45.0000000  0  2
G15  20601930.094 6                                                 108263796.601 6                                
G29  20479972.063 6                  20479969.926 6                 107622869.259 6                  83862061.795 6
> 2014 10 31 20 53  0.0000000  0  2
G15  20599282.297 6                                                 108249890.172 6                                
G29  20482834.398 6                  20482832.266 6                 107637910.028 6                  83873781.852 6
> 2014 10 31 20 53 15.0000000  0  2
G15  20596661.086 6                                                 108236114.158 6                                
G29  20485718.336 6                  20485716.016 6                 107653066.813 6                  83885592.308 6
> 2014 10 31 20 53 30.0000000  0  2
G15  20594065.320 7                                                 108222472.770 7                                
G29  20488626.484 5                  20488622.230 6                 107668344.036 5                  83897496.611 6
> 2014 10 31 20 53 45.0000000  0  2
G15  20591494.773 6                                                 108208967.323 6                                
G29  20491556.141 5                  20491551.520 6                 107683742.612 5                  83909495.477 6
> 2014 10 31 20 54  0.0000000  0  3
G15  20588950.578 7                                                 108195597.208 7                                
G26  21637699.445 5                                                 113706944.64115                                
G29  20494507.969 5                                                                                                
> 2014 10 31 20 54 15.0000000  0  2
G15  20586432.711 7                                                 108182364.776 7                                
G26  21641257.711 6                                                 113725650.811 6                                
> 2014 10 31 20 54 30.0000000  0  2
G15  20583941.297 6                                                 108169270.723 6                                
G26  21644845.008 5                                                 113744502.914 5                                
> 2014 10 31 20 54 45.0000000  0  2
G15  20581497.727 6                                                 108156431.123 6                                
G26  21648481.328 5                                                 113763616.803 5                                
> 2014 10 31 20 55  0.0000000  0  2
G15  20579186.172 7                                                 108144289.368 7                                
G26  21652253.844 5                                                 113783435.665 5                                
> 2014 10 31 20 55 15.0000000  0  2
G15  20576964.680 6                                                 108132620.668 6                                
G26  21656114.789 6                                                 113803734.278 6                                
> 2014 10 31 20 55 30.0000000  0  2
G15  20574810.164 6                                                 108121298.420 6                                
G26  21660045.625 6                                                 113824385.988 6                                
> 2014 10 31 20 55 45.0000000  0  4
G05  24597472.758 5                                                 129260356.39115                                
G15  20572713.727 6                                                 108110283.155 6                                
G26  21664036.523 6                                                 113845350.743 6                                
G29  20516677.750 6                  20516671.801 6                 107815783.24916                  84012343.03116
> 2014 10 31 20 56  0.0000000  0  4
G05  24605055.633 5                                                 129300212.12115                                
G15  20570669.898 6                                                 108099537.148 6                                
G26  21668079.211 6                                                 113866590.773 6                                
G29  20520105.016 6                  20520099.977 6                 107833800.957 6                  84026382.787 6
> 2014 10 31 20 56 15.0000000  0  4
G05  24612656.406 5                                                 129340148.582 5                                
G15  20568672.438 6                                                 108089036.987 6                                
G26  21672170.016 6                                                 113888082.221 6                                
G29  20523576.008 6                  20523572.082 6                 107852047.916 6                  84040601.146 6
> 2014 10 31 20 56 30.0000000  0  4
G05  24620267.477 5                                                 129380151.80515                                
G15  20566718.359 6                                                 108078768.845 6                                
G26  21676303.625 6                                                 113909811.011 6                                
G29  20527086.516 6                  20527085.063 6                 107870510.063 6                  84054987.164 6
> 2014 10 31 20 56 45.0000000  0  4
G05  24627890.531 4                                                                                                
G15  20564807.797 6                                                 108068725.620 6                                
G26  21680483.047 6                                                 113931769.827 6                                
G29  20530639.813 6                  20530637.398 6                 107889180.096 6                  84069535.182 6
> 2014 10 31 20 57  0.0000000  0  3
G15  20562937.398 6                                                 108058900.868 6                                
G26  21684704.898 6                                                 113953951.985 6                                
G29  20534231.148 6                  20534229.000 6                 107908051.486 6                  84084240.136 6
> 2014 10 31 20 57 15.0000000  0  3
G15  20561106.859 6                                                 108049281.454 6                                
G26  21688964.461 5                                                 113976343.929 5                                
G29  20537857.531 6                  20537856.188 5                 107927110.812 6                  84099091.518 5
> 2014 10 31 20 57 30.0000000  0  3
G15  20559314.094 6                  20559318.414 4                 108039859.139 6                  84186974.08814
G26  21693264.242 5                                                                                                
G29  20541518.742 6                  20541517.180 5                 107946349.688 6                  84114082.820 5
> 2014 10 31 20 57 45.0000000  0  2
G15  20557558.281 6                  20557562.832 4                 108030636.065 6                  84179787.313 4
G29  20545214.156 6                  20545213.359 5                 107965769.999 6                  84129215.483 5
> 2014 10 31 20 58  0.0000000  0  2
G15  20555838.398 5                  20555842.992 4                 108021606.291 5                  84172751.124 4
G29  20548943.070 6                  20548942.180 5                 107985365.771 6                  84144484.900 5
> 2014 10 31 20 58 15.0000000  0  2
G15  20554152.688 5                  20554159.313 4                 108012760.425 5                  84165858.223 4
G29  20552704.016 6                  20552703.531 6                 108005127.044 6                  84159883.280 6
> 2014 10 31 20 58 30.0000000  0  2
G15  20552503.938 5                  20552509.246 4                 108004092.548 5                  84159103.993 4
G29  20556494.883 6                  20556495.969 6                 108025047.997 6                  84175406.077 6
> 2014 10 31 20 58 45.0000000  0  2
G15  20550887.695 6                  20550892.520 4                 107995599.580 6                  84152486.094 4
G29  20560314.586 6                  20560317.352 6                 108045125.568 6                  84191050.906 6
> 2014 10 31 20 59  0.0000000  0  2
G15  20549306.625 6                  20549308.695 5                 107987278.511 6                  84146002.147 5
G29  20564164.195 6                  20564167.289 6                 108065356.227 6                  84206815.020 6
> 2014 10 31 20 59 15.0000000  0  2
G15  20547758.500 6                  20547759.117 5                 107979132.084 6                  84139654.271 5
G29  20568043.211 6                  20568046.910 6                 108085742.594 6                  84222700.465 6
> 2014 10 31 20 59 30.0000000  0  2
G15  20546242.789 6                  20546241.781 5                 107971159.502 6                  84133441.862 5
G29  20571951.375 6                  20571955.227 6                 108106283.732 6                  84238706.513 6
> 2014 10 31 20 59 45.0000000  0  2
G15  20544757.688 6                  20544758.000 5                 107963355.504 6                  84127360.829 5
G29  20575886.156 5                  20575893.559 6                 108126974.218 5                  84254828.939 6
> 2014 10 31 21 00  0.0000000  0  2
G15  20543304.914 6                  20543304.855 5                 107955719.814 6                  84121410.956 5
G29  20579849.633 5                                                                                                
> 2014 10 31 21 00 15.0000000  0  1
G15  20541881.281 6                  20541881.852 5                 107948251.897 6                  84115591.826 5
> 2014 10 31 21 00 30.0000000  0  1
G15  20540491.688 6                  20540492.188 5                 107940953.480 6                  84109904.765 5
> 2014 10 31 21 00 45.0000000  0  1
G15  20539133.922 6                  20539134.320 5                 107933818.566 6                  84104345.086 5
> 2014 10 31 21 01  0.0000000  0  1
G15  20537811.758 6                  20537812.004 5                 107926862.677 6                  84098924.921 5
> 2014 10 31 21 01 15.0000000  0  1
G15  20536523.570 6                  20536524.316 6                 107920101.769 6                  84093656.672 6
> 2014 10 31 21 01 30.0000000  0  2
G15  20535274.750 6                  20535275.023 6                 107913534.479 6                  84088539.313 6
G29  20604269.453 5                                                 108276066.11615                                
> 2014 10 31 21 01 45.0000000  0  2
G15  20534060.953 6                  20534062.023 6                 107907158.915 6                  84083571.331 6
G29  20608448.891 5                                                 108298023.922 5                                
> 2014 10 31 21 02  0.0000000  0  2
G15  20532881.477 6                  20532883.852 6                 107900966.299 6                  84078745.929 6
G29  20612661.188 5                                                 108320143.71815                                
> 2014 10 31 21 02 15.0000000  0  2
G15  20531738.961 6                  20531740.418 6                 107894958.347 6                  84074064.414 6
G29  20616901.891 5                                                 108342427.06215                                
> 2014 10 31 21 02 30.0000000  0  2
G15  20530630.500 6                  20530631.105 6                 107889130.191 6                  84069522.992 6
G29  20621175.719 5                                                                                                
> 2014 10 31 21 02 45.0000000  0  1
G15  20529556.203 6                  20529555.363 6                 107883479.591 6                  84065119.927 6
> 2014 10 31 21 03  0.0000000  0  1
G15  20528515.055 7                  20528513.547 6                 107878003.803 7                  84060853.089 6
> 2014 10 31 21 03 15.0000000  0  1
G15  20527505.242 7                  20527504.023 6                 107872701.830 7                  84056721.680 6
> 2014 10 31 21 03 30.0000000  0  1
G15  20526528.211 7                  20526527.500 6                 107867570.050 7                  84052722.891 6
> 2014 10 31 21 03 45.0000000  0  1
G15  20525583.266 7                  20525583.730 6                 107862609.746 7                  84048857.735 6
> 2014 10 31 21 04  0.0000000  0  1
G15  20524670.070 7                  20524671.285 6                 107857815.231 7                  84045121.750 6
> 2014 10 31 21 04 15.0000000  0  1
G15  20523789.555 6                  20523790.031 6                 107853184.965 6                  84041513.751 6
> 2014 10 31 21 04 30.0000000  0  2
G15  20522941.391 7                  20522941.461 6                 107848724.677 7                  84038038.202 6
G29  20656370.602 5                  20656354.496 5                 108549807.39815                  84584316.79315
> 2014 10 31 21 04 45.0000000  0  1
G15  20522125.625 7                  20522124.512 6                 107844432.466 7                  84034693.648 6
> 2014 10 31 21 05  0.0000000  0  1
G15  20521339.602 7                  20521339.156 5                 107840304.265 7                  84031476.888 5
> 2014 10 31 21 05 15.0000000  0  1
G15  20520585.266 7                  20520584.895 6                 107836343.150 7                  84028390.325 6
> 2014 10 31 21 05 30.0000000  0  1
G15  20519863.492 7                  20519861.883 5                 107832548.646 7                  84025433.582 5
> 2014 10 31 21 05 45.0000000  0  1
G15  20519172.813 7                  20519170.207 5                 107828917.271 7                  84022603.953 5
> 2014 10 31 21 06  0.0000000  0  1
G15  20518510.281 7                  20518508.516 5                 107825442.710 7                  84019896.483 5
> 2014 10 31 21 06 15.0000000  0  1
G15  20517881.055 7                  20517878.262 5                 107822132.566 7                  84017317.156 5
> 2014 10 31 21 06 30.0000000  0  1
G15  20517282.164 7                  20517279.313 5                 107818984.691 7                  84014864.267 5
> 2014 10 31 21 06 45.0000000  0  1
G15  20516713.063 7                  20516712.180 5                 107815999.744 7                  84012538.334 5
> 2014 10 31 21 07  0.0000000  0  1
G15  20516175.305 7                  20516174.715 5                 107813174.345 7                  84010336.752 5
> 2014 10 31 21 07 15.0000000  0  1
G15  20515668.250 7                  20515666.496 5                 107810507.164 7                  84008258.447 5
> 2014 10 31 21 07 30.0000000  0  1
G15  20515189.977 7                  20515189.469 5                 107807997.952 7                  84006303.256 5
> 2014 10 31 21 07 45.0000000  0  1
G15  20514744.125 7                  20514741.809 5                 107805651.736 7                  84004475.045 5
> 2014 10 31 21 08  0.0000000  0  1
G15  20514327.969 6                  20514325.523 5                 107803463.241 6                  84002769.753 5
> 2014 10 31 21 08 15.0000000  0  1
G15  20513941.055 6                  20513938.652 4                 107801431.111 6                  84001186.240 4
> 2014 10 31 21 08 30.0000000  0  1
G15  20513583.602 6                  20513581.043 4                 107799556.077 6                  83999725.142 4
> 2014 10 31 21 08 45.0000000  0  1
G15  20513256.406 6                  20513252.270 3                 107797837.498 6                  83998386.001 3
> 2014 10 31 21 09  0.0000000  0  1
G15  20512960.586 7                                                 107796276.037 7                                
> 2014 10 31 21 09 15.0000000  0  1
G15  20512693.641 7                                                 107794871.806 7                                
> 2014 10 31 21 09 30.0000000  0  1
G15  20512457.414 7                                                 107793628.462 7                                
> 2014 10 31 21 09 45.0000000  0  1
G15  20512248.734 6                                                 107792540.135 6                                
> 2014 10 31 21 10  0.0000000  0  1
G15  20512072.273 6                  20512079.918 5                 107791611.302 6                  83993538.76615
> 2014 10 31 21 10 15.0000000  0  1
G15  20511924.227 6                  20511929.352 5                 107790835.899 6                  83992934.536 5
> 2014 10 31 21 10 30.0000000  0  1
G15  20511806.375 6                  20511809.922 5                 107790216.422 6                  83992451.810 5
> 2014 10 31 21 10 45.0000000  0  1
G15  20511717.875 6                  20511721.832 5                 107789753.609 6                  83992091.162 5
> 2014 10 31 21 11  0.0000000  0  1
G15  20511659.352 6                  20511663.660 5                 107789445.670 6                  83991851.235 5
> 2014 10 31 21 11 15.0000000  0  1
G15  20511629.656 6                  20511634.453 6                 107789291.906 6                  83991731.427 6
> 2014 10 31 21 11 30.0000000  0  1
G15  20511628.680 6                  20511634.398 6                 107789290.947 6                  83991730.680 6
> 2014 10 31 21 11 45.0000000  0  1
G15  20511658.633 6                  20511663.383 6                 107789443.469 6                  83991849.513 6
> 2014 10 31 21 12  0.0000000  0  1
G15  20511718.344 6                  20511720.781 6                 107789753.640 6                  83992091.203 6
> 2014 10 31 21 12 15.0000000  0  1
G15  20511806.727 6                  20511807.945 5                 107790217.744 6                  83992452.833 5
> 2014 10 31 21 12 30.0000000  0  1
G15  20511925.320 7                  20511925.801 5                 107790838.863 7                  83992936.813 5
> 2014 10 31 21 12 45.0000000  0  1
G15  20512071.773 6                  20512071.965 5                 107791610.127 6                  83993537.789 5
> 2014 10 31 21 13  0.0000000  0  1
G15  20512248.547 6                  20512248.449 6                 107792538.917 6                  83994261.543 6
> 2014 10 31 21 13 15.0000000  0  1
G15  20512455.406 6                  20512454.254 5                 107793620.169 6                  83995104.089 5
> 2014 10 31 21 13 30.0000000  0  1
G15  20512689.906 7                  20512689.188 5                 107794855.172 7                  83996066.448 5
> 2014 10 31 21 13 45.0000000  0  1
G15  20512954.000 7                  20512952.746 5                 107796245.683 7                  83997149.968 5
> 2014 10 31 21 14  0.0000000  0  1
G15  20513248.164 6                  20513247.598 6                 107797789.153 6                  83998352.675 6
> 2014 10 31 21 14 15.0000000  0  1
G15  20513571.133 6                  20513570.527 6                 107799488.923 6                  83999677.169 6
> 2014 10 31 21 14 30.0000000  0  1
G15  20513923.141 6                  20513922.570 5                 107801341.601 6                  84001120.821 5
> 2014 10 31 21 14 45.0000000  0  1
G15  20514306.242 6                  20514304.914 5                 107803347.351 6                  84002683.733 5
> 2014 10 31 21 15  0.0000000  0  1
G15  20514716.773 6                  20514716.020 5                 107805503.625 6                  84004363.926 5
> 2014 10 31 21 15 15.0000000  0  1
G15  20515155.523 6                  20515153.070 5                 107807809.416 6                  84006160.638 5
> 2014 10 31 21 15 30.0000000  0  1
G15  20515624.617 6                  20515619.520 5                 107810271.238 6                  84008078.906 5
> 2014 10 31 21 15 45.0000000  0  1
G15  20516121.391 6                  20516116.832 5                 107812881.028 6                  84010112.523 5
> 2014 10 31 21 16  0.0000000  0  1
G15  20516646.805 6                  20516644.926 5                 107815645.278 6                  84012266.478 5
> 2014 10 31 21 16 15.0000000  0  1
G15  20517201.258 6                  20517200.754 5                 107818564.603 6                  84014541.270 5
> 2014 10 31 21 16 30.0000000  0  1
G15  20517785.867 6                  20517786.535 6                 107821637.715 6                  84016935.868 6
> 2014 10 31 21 16 45.0000000  0  1
G15  20518402.930 6                  20518400.195 6                 107824863.400 6                  84019449.371 6
> 2014 10 31 21 17  0.0000000  0  1
G15  20519046.523 6                  20519044.102 6                 107828242.270 6                  84022082.239 6
> 2014 10 31 21 17 15.0000000  0  1
G15  20519720.547 6                  20519716.336 6                 107831773.705 6                  84024834.005 6
> 2014 10 31 21 17 30.0000000  0  1
G15  20520418.781 6                  20520417.246 6                 107835457.154 6                  84027704.240 6
> 2014 10 31 21 17 45.0000000  0  1
G15  20521146.984 6                  20521147.707 6                 107839289.518 6                  84030690.512 6
> 2014 10 31 21 18  0.0000000  0  1
G15  20521903.727 5                  20521905.145 6                 107843271.876 5                  84033793.683 6
> 2014 10 31 21 18 15.0000000  0  1
G15  20522687.797 5                  20522692.273 6                 107847402.390 5                  84037012.286 6
> 2014 10 31 21 18 30.0000000  0  1
G15  20523502.477 5                  20523507.512 6                 107851683.801 5                  84040348.481 6
> 2014 10 31 21 18 45.0000000  0  1
G15  20524345.234 5                  20524350.645 6                 107856118.304 5                  84043803.968 6
> 2014 10 31 21 19  0.0000000  0  1
G15  20525218.555 5                  20525224.789 6                 107860707.118 5                  84047379.678 6
> 2014 10 31 21 19 15.0000000  0  1
G15  20526121.227 5                                                                                                
> 2014 10 31 21 19 30.0000000  0  1
G15  20527052.172 5                  20527056.070 6                 107870337.85215                  84054884.08116
> 2014 10 31 21 19 45.0000000  0  1
G15  20528015.922 5                  20528014.891 5                 107875378.186 5                  84058811.577 5
> 2014 10 31 21 20  0.0000000  0  1
G15  20529007.406 5                  20529003.305 5                 107880569.787 5                  84062856.956 5
> 2014 10 31 21 20 15.0000000  0  1
G15  20530021.188 5                                                                                                
> 2014 10 31 21 20 30.0000000  0  1
G15  20531063.148 5                                                                                                
> 2014 10 31 21 20 45.0000000  0  1
G15  20532136.125 5                  20532135.316 5                 107897042.13715                  84075692.60415
> 2014 10 31 21 21  0.0000000  0  1
G15  20533240.844 5                  20533237.633 5                 107902835.48615                  84080206.93815
> 2014 10 31 21 21 15.0000000  0  1
G15  20534372.719 5                  20534368.949 5                 107908776.69915                  84084836.45815
> 2014 10 31 21 21 30.0000000  0  1
G15  20535531.789 5                  20535527.832 5                 107914863.854 5                  84089579.680 5
> 2014 10 31 21 21 45.0000000  0  1
G15  20536719.250 5                  20536714.648 5                 107921101.412 5                  84094440.114 5
> 2014 10 31 21 22  0.0000000  0  2
G15  20537932.797 5                  20537930.219 5                 107927488.930 5                  84099417.404 5
G18  21733284.109 6                                                 114209171.91416                                
> 2014 10 31 21 22 15.0000000  0  2
