     2.10           OBSERVATION DATA    MIXED               RINEX VERSION / TYPE
RinEdit                                 06/14/2017 16:28:43 PGM / RUN BY / DATE
txau                                                        MARKER NAME
                                                            MARKER NUMBER
                                                            OBSERVER / AGENCY
4725K06326          TRIMBLE NETR5       Nav  4.03   Boot  3.REC # / TYPE / VERS
                    TRM55971.00                             ANT # / TYPE
  -743773.7423 -5460645.9227  3200347.8234                  APPROX POSITION XYZ
        0.0000        0.0000        0.0000                  ANTENNA: DELTA H/E/N
     9    C1    P1    P2    L1    L2    S1    S2    D1    D2# / TYPES OF OBSERV
     1     1                                                WAVELENGTH FACT L1/2
     5.000                                                  INTERVAL
  2012     2    16     7    20    0.0000000     GPS         TIME OF FIRST OBS
     0                                                      RCV CLOCK OFFS APPL
                                                            END OF HEADER
 12  2 16  7 22 15.0000000  0  1G15
  25304467.711           0.000    25304469.621   132975856.562 4 103617574.78845
        38.000          16.000        1382.336        1077.145  
 12  2 16  7 22 20.0000000  0  1G15
  25303154.555           0.000    25303154.711   132968950.195 5 103612193.11745
        40.000          17.000        1380.074        1075.383  
 12  2 16  7 22 25.0000000  0  1G15
  25301843.617           0.000    25301843.117   132962056.390 5 103606821.30345
        41.000          19.000        1377.539        1073.407  
 12  2 16  7 22 30.0000000  0  1G15
  25300532.273           0.000    25300534.262   132955174.868 5 103601459.06945
        40.000          20.000        1374.961        1071.398  
 12  2 16  7 22 35.0000000  0  1G15
  25299225.484           0.000    25299227.359   132948305.624 5 103596106.39746
        41.000          22.000        1372.684        1069.624  
 12  2 16  7 22 40.0000000  0  1G15
  25297921.883           0.000    25297922.988   132941448.751 5 103590763.36746
        42.000          24.000        1370.070        1067.587  
 12  2 16  7 22 45.0000000  0  1G15
  25296618.242           0.000    25296621.266   132934604.049 5 103585429.83946
        40.000          24.000        1367.574        1065.642  
 12  2 16  7 22 50.0000000  0  1G15
  25295318.867           0.000    25295321.188   132927772.246 4 103580106.36046
        38.000          22.000        1365.086        1063.703  
 12  2 16  7 22 55.0000000  0  1G15
  25294020.719           0.000    25294023.625   132920952.576 4 103574792.35046
        38.000          25.000        1362.711        1061.853  
 12  2 16  7 23  0.0000000  0  1G15
  25292725.008           0.000    25292728.582   132914145.600 4 103569488.20046
        38.000          24.000        1360.223        1059.914  
 12  2 16  7 23  5.0000000  0  1G15
  25291431.695           0.000    25291435.344   132907350.631 4 103564193.44046
        38.000          22.000        1357.711        1057.957  
 12  2 16  7 23 10.0000000  0  1G15
  25290139.609           0.000    25290145.410   132900568.354 1 103558908.58346
        33.000          22.000        1355.203        1056.002  
 12  2 16  7 23 15.0000000  0  1G15
  25288852.938           0.000    25288856.855   132893798.449 2 103553633.35745
        34.000          20.000        1352.918        1054.222  
 12  2 16  7 23 20.0000000  0  1G15
  25287562.664           0.000    25287570.629   132887040.864   103548367.74945
        30.000          19.000        1349.977        1051.930  
 12  2 16  7 23 25.0000000  0  1G15
  25286280.328           0.000    25286286.918   132880295.765 2 103543111.87545
        34.000          19.000        1347.645        1050.113  
 12  2 16  7 23 30.0000000  0  1G15
  25285001.758           0.000    25285005.879   132873563.079 1 103537865.64145
        33.000          18.000        1345.332        1048.311  
 12  2 16  7 23 35.0000000  0  1G15
  25283722.555           0.000    25283726.602   132866843.067 2 103532629.29045
        35.000          18.000        1342.793        1046.332  
 12  2 16  7 23 40.0000000  0  1G15
  25282447.109           0.000    25282450.031   132860135.160 3 103527402.32145
        37.000          19.000        1340.199        1044.311  
 12  2 16  7 23 45.0000000  0  1G15
  25281173.289           0.000    25281175.512   132853439.827 5 103522185.16045
        40.000          19.000        1337.770        1042.418  
 12  2 16  7 23 50.0000000  0  1G15
  25279902.063           0.000    25279903.551   132846757.044 4 103516977.74545
        39.000          18.000        1335.289        1040.485  
 12  2 16  7 23 55.0000000  0  1G15
  25278633.016           0.000    25278633.598   132840086.439 5 103511779.83245
        40.000          19.000        1332.926        1038.643  
 12  2 16  7 24  0.0000000  0  1G15
  25277366.367           0.000    25277366.313   132833428.240 5 103506591.55245
        40.000          20.000        1330.379        1036.659  
 12  2 16  7 24  5.0000000  0  1G15
  25276101.555           0.000    25276101.648   132826782.473 5 103501413.02545
        41.000          20.000        1327.926        1034.747  
 12  2 16  7 24 10.0000000  0  1G15
  25274839.297           0.000    25274838.949   132820148.807 5 103496243.87946
        42.000          21.000        1325.355        1032.745  
 12  2 16  7 24 15.0000000  0  1G15
  25273579.875           0.000    25273580.066   132813527.964 5 103491084.74046
        41.000          21.000        1322.852        1030.793  
 12  2 16  7 24 20.0000000  0  1G15
  25272321.828           0.000    25272323.203   132806919.614 5 103485935.37746
        40.000          22.000        1320.148        1028.687  
 12  2 16  7 24 25.0000000  0  1G15
  25271067.055           0.000    25271068.090   132800323.500 4 103480795.53346
        39.000          22.000        1318.012        1027.022  
 12  2 16  7 24 30.0000000  0  1G15
  25269813.523           0.000    25269815.715   132793740.083 3 103475665.59646
        36.000          22.000        1315.328        1024.931  
 12  2 16  7 24 35.0000000  0  1G15
  25268560.555           0.000    25268565.441   132787168.978   103470545.30446
        32.000          21.000        1313.383        1023.415  
 12  2 16  7 24 40.0000000  0  1G15
  25267308.414           0.000    25267318.047   132780611.096   103465435.34745
        28.000          19.000        1310.863        1021.452  
 12  2 16  7 24 45.0000000  0  1G15
  25266064.227           0.000    25266072.102   132774064.651   103460334.30345
        31.000          19.000        1307.996        1019.218  
 12  2 16  7 24 50.0000000  0  1G15
  25264822.430           0.000    25264828.992   132767530.989 2 103455243.14245
        35.000          20.000        1305.633        1017.376  
 12  2 16  7 24 55.0000000  0  1G15
  25263583.984           0.000    25263587.852   132761010.178 4 103450162.01145
        38.000          20.000        1302.820        1015.185  
 12  2 16  7 25  0.0000000  0  1G15
  25262345.570           0.000    25262349.465   132754501.406 5 103445090.22946
        41.000          22.000        1300.484        1013.364  
 12  2 16  7 25  5.0000000  0  1G15
  25261109.859           0.000    25261113.344   132748005.355 5 103440028.37946
        41.000          25.000        1297.922        1011.368  
 12  2 16  7 25 10.0000000  0  1G15
  25259877.000           0.000    25259879.574   132741521.887 5 103434976.31646
        42.000          24.000        1295.477        1009.462  
 12  2 16  7 25 15.0000000  0  1G15
  25258645.164           0.000    25258647.422   132735050.784 5 103429933.89746
        42.000          22.000        1292.918        1007.469  
 12  2 16  7 25 20.0000000  0  1G15
  25257415.984           0.000    25257418.426   132728592.114 5 103424901.15946
        41.000          22.000        1290.406        1005.511  
 12  2 16  7 25 25.0000000  0  1G15
  25256189.805           0.000    25256191.340   132722146.228 5 103419878.34746
        42.000          22.000        1287.863        1003.530  
 12  2 16  7 25 30.0000000  0  1G15
  25254965.047           0.000    25254966.305   132715712.700 5 103414865.17746
        40.000          21.000        1285.441        1001.643  
 12  2 16  7 25 35.0000000  0  1G15
  25253744.141           0.000    25253744.449   132709291.911 5 103409861.90945
        40.000          20.000        1282.727         999.527  
 12  2 16  7 25 40.0000000  0  1G15
  25252524.063           0.000    25252524.438   132702883.361 4 103404868.17045
        39.000          19.000        1280.289         997.628  
 12  2 16  7 25 45.0000000  0  1G15
  25251306.609           0.000    25251307.566   132696487.403 3 103399884.25245
        36.000          18.000        1277.852         995.729  
 12  2 16  7 25 50.0000000  0  1G15
  25250091.258           0.000    25250093.168   132690103.729 2 103394909.99445
        35.000          17.000        1275.336         993.768  
 12  2 16  7 25 55.0000000  0  1G15
  25248876.180           0.000    25248880.922   132683732.940   103389945.73545
        32.000          16.000        1272.652         991.677  
 12  2 16  7 26  0.0000000  0  1G15
  25247666.672           0.000    25247671.363   132677374.309 1 103384991.03945
        33.000          18.000        1270.094         989.683  
 12  2 16  7 26  5.0000000  0  1G15
  25246458.695           0.000    25246463.965   132671028.036 2 103380045.91945
        35.000          18.000        1268.066         988.104  
 12  2 16  7 26 10.0000000  0  1G15
  25245253.828           0.000    25245258.836   132664694.779 2 103375110.92845
        35.000          19.000        1265.496         986.101  
 12  2 16  7 26 15.0000000  0  1G15
  25244052.125           0.000    25244056.684   132658373.980 4 103370185.65645
        38.000          20.000        1262.820         984.016  
 12  2 16  7 26 20.0000000  0  1G15
  25242851.320           0.000    25242855.957   132652065.710 3 103365270.11746
        37.000          21.000        1260.344         982.086  
 12  2 16  7 26 25.0000000  0  1G15
  25241655.023           0.000    25241658.191   132645769.938 4 103360364.33946
        38.000          22.000        1257.832         980.129  
 12  2 16  7 26 30.0000000  0  1G15
  25240459.602           0.000    25240462.262   132639486.961 5 103355468.51346
        40.000          24.000        1255.117         978.013  
 12  2 16  7 26 35.0000000  0  1G15
  25239266.188           0.000    25239269.000   132633216.329 5 103350582.31446
        41.000          23.000        1252.895         976.281  
 12  2 16  7 26 40.0000000  0  1G15
  25238075.656           0.000    25238078.598   132626958.412 5 103345705.98746
        41.000          23.000        1250.328         974.282  
 12  2 16  7 26 45.0000000  0  1G15
  25236887.625           0.000    25236889.813   132620713.016 5 103340839.45846
        42.000          25.000        1247.926         972.410  
 12  2 16  7 26 50.0000000  0  1G15
  25235701.094           0.000    25235703.949   132614480.315 5 103335982.79846
        41.000          22.000        1245.078         970.191  
 12  2 16  7 26 55.0000000  0  1G15
  25234517.023           0.000    25234519.723   132608259.912 5 103331135.75346
        41.000          22.000        1242.871         968.471  
 12  2 16  7 27  0.0000000  0  1G15
  25233336.406           0.000    25233338.402   132602052.457 4 103326298.74846
        39.000          21.000        1240.262         966.438  
 12  2 16  7 27  5.0000000  0  1G15
  25232157.063           0.000    25232159.465   132595857.474 3 103321471.45546
        37.000          21.000        1237.652         964.404  
 12  2 16  7 27 10.0000000  0  1G15
  25230980.734           0.000    25230982.535   132589674.404 3 103316653.46845
        36.000          19.000        1235.320         962.587  
 12  2 16  7 27 15.0000000  0  1G15
  25229805.156           0.000    25229808.625   132583504.522 2 103311845.67445
        34.000          18.000        1232.898         960.700  
 12  2 16  7 27 20.0000000  0  1G15
  25228632.328           0.000    25228636.277   132577347.243   103307047.82545
        32.000          17.000        1230.512         958.840  
 12  2 16  7 27 25.0000000  0  1G15
  25227463.422           0.000    25227467.148   132571202.800 1 103302259.97245
        33.000          16.000        1227.551         956.533  
 12  2 16  7 27 30.0000000  0  1G15
  25226296.461           0.000    25226300.102   132565070.583 2 103297481.66045
        34.000          16.000        1225.414         954.868  
 12  2 16  7 27 35.0000000  0  1G15
  25225132.781           0.000    25225135.895   132558951.103 3 103292713.22745
        37.000          18.000        1222.645         952.710  
 12  2 16  7 27 40.0000000  0  1G15
  25223971.164           0.000    25223974.098   132552844.056 4 103287954.49345
        39.000          19.000        1220.020         950.665  
 12  2 16  7 27 45.0000000  0  1G15
  25222812.180           0.000    25222814.473   132546749.443 5 103283205.45145
        40.000          20.000        1217.594         948.774  
 12  2 16  7 27 50.0000000  0  1G15
  25221654.914           0.000    25221657.801   132540667.832 5 103278466.51846
        40.000          22.000        1215.121         946.848  
 12  2 16  7 27 55.0000000  0  1G15
  25220499.727           0.000    25220502.781   132534598.621 4 103273737.28346
        39.000          22.000        1212.457         944.772  
 12  2 16  7 28  0.0000000  0  1G15
  25219347.648           0.000    25219350.672   132528542.091 5 103269017.87846
        40.000          24.000        1210.074         942.915  
 12  2 16  7 28  5.0000000  0  1G15
  25218196.852           0.000    25218200.855   132522498.385 5 103264308.50046
        40.000          26.000        1207.559         940.955  
 12  2 16  7 28 10.0000000  0  1G15
  25217050.031           0.000    25217053.969   132516466.939 5 103259608.70046
        41.000          26.000        1205.070         939.016  
 12  2 16  7 28 15.0000000  0  1G15
  25215904.875           0.000    25215908.621   132510448.284 5 103254918.83646
        40.000          25.000        1202.566         937.065  
 12  2 16  7 28 20.0000000  0  1G15
  25214762.133           0.000    25214765.395   132504442.044 5 103250238.67446
        40.000          26.000        1199.965         935.038  
 12  2 16  7 28 25.0000000  0  1G15
  25213621.227           0.000    25213624.781   132498448.560 4 103245568.42546
        39.000          24.000        1197.516         933.129  
 12  2 16  7 28 30.0000000  0  1G15
  25212483.070           0.000    25212486.777   132492467.657 3 103240907.97446
        37.000          22.000        1194.949         931.129  
 12  2 16  7 28 35.0000000  0  1G15
  25211346.531           0.000    25211350.875   132486499.464 3 103236257.44346
        36.000          21.000        1192.410         929.151  
 12  2 16  7 28 40.0000000  0  1G15
  25210212.445           0.000    25210217.285   132480544.000 3 103231616.83245
        36.000          20.000        1189.965         927.245  
 12  2 16  7 28 45.0000000  0  1G15
  25209081.133           0.000    25209086.371   132474601.179 2 103226986.10145
        35.000          20.000        1187.313         925.179  
 12  2 16  7 28 50.0000000  0  1G15
  25207952.703           0.000    25207957.262   132468671.115 2 103222365.30345
        34.000          18.000        1184.594         923.060  
 12  2 16  7 28 55.0000000  0  1G15
  25206825.039           0.000    25206830.570   132462753.584 2 103217754.24945
        35.000          17.000        1182.414         921.362  
 12  2 16  7 29  0.0000000  0  1G15
  25205702.680           0.000    25205706.840   132456848.557 3 103213152.95145
        36.000          16.000        1179.688         919.237  
 12  2 16  7 29  5.0000000  0  1G15
  25204582.359           0.000    25204585.293   132450956.445 2 103208561.56945
        35.000          15.000        1177.094         917.216  
 12  2 16  7 29 10.0000000  0  1G15
  25203463.680           0.000    25203465.496   132445076.957 3 103203980.22245
        37.000          15.000        1174.797         915.426  
 12  2 16  7 29 15.0000000  0  1G15
  25202347.266           0.000    25202348.719   132439210.331 3 103199408.75445
        37.000          15.000        1171.977         913.229  
 12  2 16  7 29 20.0000000  0  1G15
  25201234.352           0.000    25201234.750   132433356.160 4 103194846.99045
        38.000          16.000        1169.516         911.311  
 12  2 16  7 29 25.0000000  0  1G15
  25200122.711           0.000    25200122.805   132427514.633 4 103190295.17245
        39.000          18.000        1167.199         909.506  
 12  2 16  7 29 30.0000000  0  1G15
  25199013.898           0.000    25199014.477   132421685.999 4 103185753.34645
        39.000          20.000        1164.516         907.415  
 12  2 16  7 29 35.0000000  0  1G15
  25197906.961           0.000    25197908.297   132415869.885 5 103181221.34545
        40.000          20.000        1162.008         905.461  
 12  2 16  7 29 40.0000000  0  1G15
  25196802.539           0.000    25196804.152   132410066.385 5 103176699.12846
        41.000          22.000        1159.438         903.458  
 12  2 16  7 29 45.0000000  0  1G15
  25195700.789           0.000    25195702.477   132404275.177 5 103172186.48946
        41.000          22.000        1156.953         901.522  
 12  2 16  7 29 50.0000000  0  1G15
  25194600.781           0.000    25194603.633   132398497.103 5 103167684.05546
        40.000          22.000        1154.293         899.449  
 12  2 16  7 29 55.0000000  0  1G15
  25193503.813           0.000    25193507.539   132392731.490 4 103163191.38446
        39.000          22.000        1151.773         897.486  
 12  2 16  7 30  0.0000000  0  1G15
  25192409.031           0.000    25192412.395   132386978.397 4 103158708.47046
        38.000          22.000        1149.004         895.328  
 12  2 16  7 30  5.0000000  0  1G15
  25191316.273           0.000    25191320.719   132381237.934 4 103154235.40946
        38.000          22.000        1146.809         893.617  
 12  2 16  7 30 10.0000000  0  1G15
  25190226.266           0.000    25190230.902   132375510.443 3 103149772.41846
        36.000          21.000        1144.262         891.633  
 12  2 16  7 30 15.0000000  0  1G15
  25189137.422           0.000    25189143.254   132369795.842 2 103145319.51546
        35.000          21.000        1141.547         889.517  
 12  2 16  7 30 20.0000000  0  1G15
  25188052.742           0.000    25188057.934   132364094.200 1 103140876.67245
        33.000          20.000        1139.051         887.572  
 12  2 16  7 30 25.0000000  0  1G15
  25186969.383           0.000    25186975.969   132358405.175 1 103136443.70645
        33.000          19.000        1136.746         885.776  
 12  2 16  7 30 30.0000000  0  1G15
  25185889.188           0.000    25185895.063   132352728.649 2 103132020.49445
        34.000          19.000        1134.043         883.670  
 12  2 16  7 30 35.0000000  0  1G15
  25184811.617           0.000    25184817.316   132347064.799 2 103127607.13845
        35.000          20.000        1131.359         881.579  
 12  2 16  7 30 40.0000000  0  1G15
  25183735.844           0.000    25183741.320   132341413.524 2 103123203.52245
        35.000          19.000        1128.727         879.527  
 12  2 16  7 30 45.0000000  0  1G15
  25182663.055           0.000    25182667.898   132335774.611 3 103118809.62045
        36.000          18.000        1126.594         877.865  
 12  2 16  7 30 50.0000000  0  1G15
  25181592.930           0.000    25181596.867   132330148.784 3 103114425.83945
        37.000          18.000        1123.773         875.668  
 12  2 16  7 30 55.0000000  0  1G15
  25180525.023           0.000    25180528.328   132324535.272 3 103110051.67445
        37.000          18.000        1121.563         873.945  
 12  2 16  7 31  0.0000000  0  1G15
  25179459.891           0.000    25179462.273   132318934.894 4 103105687.72345
        39.000          18.000        1118.844         871.826  
 12  2 16  7 31  5.0000000  0  1G15
  25178396.180           0.000    25178398.570   132313347.063 4 103101333.54545
        38.000          18.000        1116.332         869.869  
 12  2 16  7 31 10.0000000  0  1G15
  25177336.320           0.000    25177337.754   132307772.293 4 103096989.56245
        39.000          18.000        1113.676         867.799  
 12  2 16  7 31 15.0000000  0  1G15
  25176277.664           0.000    25176278.883   132302210.052 4 103092655.32545
        39.000          18.000        1111.211         865.879  
 12  2 16  7 31 20.0000000  0  1G15
  25175222.453           0.000    25175222.422   132296660.815 5 103088331.18145
        40.000          17.000        1108.461         863.736  
 12  2 16  7 31 25.0000000  0  1G15
  25174169.039           0.000    25174168.543   132291124.147 4 103084016.89645
        38.000          18.000        1106.094         861.891  
 12  2 16  7 31 30.0000000  0  1G15
  25173116.891           0.000    25173117.855   132285600.152 4 103079712.47945
        38.000          18.000        1103.645         859.983  
 12  2 16  7 31 35.0000000  0  1G15
  25172068.961           0.000    25172069.434   132280088.856 4 103075417.92845
        38.000          19.000        1100.949         857.883  
 12  2 16  7 31 40.0000000  0  1G15
  25171022.430           0.000    25171023.836   132274590.312 2 103071133.35845
        35.000          19.000        1098.652         856.093  
 12  2 16  7 31 45.0000000  0  1G15
  25169977.852           0.000    25169979.910   132269104.605 2 103066858.78645
        34.000          19.000        1095.867         853.922  
 12  2 16  7 31 50.0000000  0  1G15
  25168934.523           0.000    25168938.844   132263631.745 1 103062594.22845
        33.000          18.000        1093.625         852.175  
 12  2 16  7 31 55.0000000  0  1G15
  25167896.867           0.000    25167899.809   132258172.111   103058340.04245
        32.000          18.000        1090.852         850.014  
 12  2 16  7 32  0.0000000  0  1G15
  25166858.461           0.000    25166863.129   132252724.696   103054095.26645
        32.000          17.000        1087.914         847.725  
 12  2 16  7 32  5.0000000  0  1G15
  25165823.867           0.000    25165829.598   132247289.391   103049860.00645
        32.000          18.000        1085.652         845.963  
 12  2 16  7 32 10.0000000  0  1G15
  25164793.477           0.000    25164797.414   132241867.307 2 103045634.98245
        35.000          18.000        1083.383         844.194  
 12  2 16  7 32 15.0000000  0  1G15
  25163764.141           0.000    25163767.945   132236458.035 2 103041420.02245
        34.000          19.000        1080.664         842.076  
 12  2 16  7 32 20.0000000  0  1G15
  25162737.945           0.000    25162741.293   132231061.693 3 103037215.06145
        36.000          20.000        1078.059         840.046  
 12  2 16  7 32 25.0000000  0  1G15
  25161713.469           0.000    25161717.070   132225678.199 4 103033020.15146
        38.000          22.000        1075.504         838.055  
 12  2 16  7 32 30.0000000  0  1G15
  25160692.172           0.000    25160695.176   132220307.186 3 103028834.93646
        37.000          21.000        1072.918         836.040  
 12  2 16  7 32 35.0000000  0  1G15
  25159672.750           0.000    25159675.375   132214949.219 4 103024659.90246
        38.000          21.000        1070.254         833.964  
 12  2 16  7 32 40.0000000  0  1G15
  25158655.039           0.000    25158658.555   132209603.901 4 103020494.72146
        38.000          21.000        1067.762         832.022  
 12  2 16  7 32 45.0000000  0  1G15
  25157641.328           0.000    25157644.004   132204271.247 3 103016339.38946
        37.000          21.000        1065.266         830.077  
 12  2 16  7 32 50.0000000  0  1G15
  25156628.719           0.000    25156631.219   132198951.570 4 103012194.17346
        38.000          21.000        1062.637         828.029  
 12  2 16  7 32 55.0000000  0  1G15
  25155619.148           0.000    25155620.680   132193644.445 3 103008058.74545
        37.000          20.000        1060.027         825.995  
 12  2 16  7 33  0.0000000  0  1G15
  25154610.836           0.000    25154613.633   132188349.937 4 103003933.13745
        38.000          19.000        1057.609         824.111  
 12  2 16  7 33  5.0000000  0  1G15
  25153605.742           0.000    25153608.867   132183068.370 3 102999817.64045
        36.000          18.000        1054.945         822.035  
 12  2 16  7 33 10.0000000  0  1G15
  25152602.875           0.000    25152605.434   132177799.293 3 102995711.85045
        36.000          17.000        1052.523         820.148  
 12  2 16  7 33 15.0000000  0  1G15
  25151602.141           0.000    25151605.656   132172543.644 3 102991616.47545
        36.000          17.000        1049.945         818.139  
 12  2 16  7 33 20.0000000  0  1G15
  25150604.109           0.000    25150607.348   132167300.908 1 102987531.24545
        33.000          17.000        1047.184         815.987  
 12  2 16  7 33 25.0000000  0  1G15
  25149605.172           0.000    25149612.102   132162070.448   102983455.54145
        31.000          17.000        1044.934         814.234  
 12  2 16  7 33 30.0000000  0  1G15
  25148613.172           0.000    25148619.367   132156852.957   102979390.04745
        32.000          17.000        1042.598         812.414  
 12  2 16  7 33 35.0000000  0  1G15
  25147624.828           0.000    25147629.230   132151647.844 1 102975334.02145
        33.000          16.000        1039.949         810.350  
 12  2 16  7 33 40.0000000  0  1G15
  25146637.117           0.000    25146641.375   132146456.251 2 102971288.70045
        34.000          17.000        1036.793         807.891  
 12  2 16  7 33 45.0000000  0  1G15
  25145651.016           0.000    25145655.988   132141277.057 1 102967252.94645
        33.000          19.000        1034.383         806.013  
 12  2 16  7 33 50.0000000  0  1G15
  25144669.086           0.000    25144673.465   132136110.969 2 102963227.47245
        35.000          20.000        1031.832         804.025  
 12  2 16  7 33 55.0000000  0  1G15
  25143688.914           0.000    25143692.605   132130957.408 3 102959211.72146
        37.000          22.000        1029.387         802.120  
 12  2 16  7 34  0.0000000  0  1G15
  25142711.867           0.000    25142714.625   132125817.256 4 102955206.37046
        39.000          22.000        1026.891         800.174  
 12  2 16  7 34  5.0000000  0  1G15
  25141735.961           0.000    25141739.484   132120689.524 5 102951210.75846
        41.000          25.000        1024.270         798.132  
 12  2 16  7 34 10.0000000  0  1G15
  25140762.531           0.000    25140766.102   132115574.706 5 102947225.17946
        40.000          25.000        1021.707         796.135  
 12  2 16  7 34 15.0000000  0  1G15
  25139792.461           0.000    25139795.332   132110472.586 5 102943249.50046
        41.000          25.000        1019.164         794.154  
 12  2 16  7 34 20.0000000  0  1G15
  25138823.195           0.000    25138826.527   132105383.088 4 102939283.64346
        39.000          24.000        1016.605         792.160  
 12  2 16  7 34 25.0000000  0  1G15
  25137857.930           0.000    25137860.680   132100306.629 5 102935327.96746
        40.000          24.000        1013.891         790.045  
 12  2 16  7 34 30.0000000  0  1G15
  25136893.508           0.000    25136897.160   132095242.823 5 102931382.16246
        40.000          23.000        1011.406         788.109  
 12  2 16  7 34 35.0000000  0  1G15
  25135932.570           0.000    25135936.387   132090191.703 4 102927446.22646
        39.000          25.000        1009.023         786.252  
 12  2 16  7 34 40.0000000  0  1G15
  25134973.563           0.000    25134977.570   132085153.669 4 102923520.48246
        39.000          22.000        1006.324         784.149  
 12  2 16  7 34 45.0000000  0  1G15
  25134017.102           0.000    25134021.012   132080128.509 3 102919604.74746
        36.000          22.000        1003.848         782.219  
 12  2 16  7 34 50.0000000  0  1G15
  25133063.281           0.000    25133066.816   132075116.286 3 102915699.14146
        37.000          21.000        1001.152         780.119  
 12  2 16  7 34 55.0000000  0  1G15
  25132110.867           0.000    25132115.121   132070116.7491  102911803.39455
        32.000          19.000         998.602         778.131  
 12  2 16  7 35  0.0000000  0  1G15
  25131161.758           0.000    25131165.965   132065129.913   102907917.50945
        32.000          19.000         996.055         776.146  
 12  2 16  7 35  5.0000000  0  1G15
  25130214.711           0.000    25130219.230   132060156.276   102904041.98645
        32.000          16.000         993.508         774.162  
 12  2 16  7 35 10.0000000  0  1G15
  25129267.789           0.000    25129275.035           0.0001          0.00055
         0.000           0.000         991.668         772.728  
 12  2 16  7 35 15.0000000  0  1G15
  25128326.078           0.000           0.000   132050246.6981          0.00051
        30.000           0.000         988.262           0.000  
 12  2 16  7 35 20.0000000  0  1G15
  25127390.117           0.000           0.000   132045311.247 2         0.00051
        34.000           0.000         985.648           0.000  
 12  2 16  7 35 25.0000000  0  1G15
  25126451.055           0.000           0.000   132040388.371           0.00051
        32.000           0.000         983.340           0.000  
 12  2 16  7 35 30.0000000  0  1G15
  25125520.125           0.000           0.000   132035478.536 3         0.00051
        36.000           0.000         980.918           0.000  
 12  2 16  7 35 35.0000000  0  1G15
  25124589.039           0.000    25124589.020   132030581.573 3 102880986.71645
        37.000          18.000         978.262         762.282  
 12  2 16  7 35 40.0000000  0  1G15
  25123659.445           0.000    25123660.316   132025697.984 4 102877181.30446
        38.000          21.000         975.449         760.090  
 12  2 16  7 35 45.0000000  0  1G15
  25122732.578           0.000    25122734.379   132020826.979 4 102873385.70246
        38.000          22.000         972.863         758.075  
 12  2 16  7 35 50.0000000  0  1G15
  25121808.438           0.000    25121810.332   132015968.727 4 102869600.05046
        39.000          22.000         970.398         756.155  
 12  2 16  7 35 55.0000000  0  1G15
  25120886.172           0.000    25120888.641   132011123.354 4 102865824.40446
        39.000          22.000         967.668         754.027  
 12  2 16  7 36  0.0000000  0  1G15
  25119966.539           0.000    25119969.633   132006290.904 4 102862058.87046
        39.000          25.000         965.320         752.198  
 12  2 16  7 36  5.0000000  0  1G15
  25119050.352           0.000    25119052.883   132001471.164 4 102858303.20646
        39.000          25.000         962.422         749.939  
 12  2 16  7 36 10.0000000  0  1G15
  25118135.344           0.000    25118139.109   131996664.331 5 102854557.62546
        40.000          26.000         960.090         748.122  
 12  2 16  7 36 15.0000000  0  1G15
  25117222.813           0.000    25117226.859   131991870.206 4 102850821.94246
        39.000          25.000         957.563         746.153  
 12  2 16  7 36 20.0000000  0  1G15
  25116313.430           0.000    25116317.492   131987089.111 4 102847096.41646
        39.000          27.000         954.727         743.943  
 12  2 16  7 36 25.0000000  0  1G15
  25115406.023           0.000    25115409.875   131982320.667 4 102843380.75046
        39.000          26.000         952.340         742.083  
 12  2 16  7 36 30.0000000  0  1G15
  25114501.359           0.000    25114504.586   131977565.293 3 102839675.25846
        37.000          26.000         949.750         740.065  
 12  2 16  7 36 35.0000000  0  1G15
  25113599.352           0.000    25113602.742   131972823.003 3 102835979.99246
        37.000          25.000         947.387         738.223  
 12  2 16  7 36 40.0000000  0  1G15
  25112699.133           0.000    25112701.816   131968093.189 3 102832294.39046
        36.000          22.000         944.805         736.211  
 12  2 16  7 36 45.0000000  0  1G15
  25111799.539           0.000    25111804.891   131963376.356 2 102828618.97746
        34.000          22.000         941.809         733.877  
 12  2 16  7 36 50.0000000  0  1G15
  25110903.914           0.000    25110909.352   131958672.490   102824953.59546
        31.000          22.000         939.508         732.084  
 12  2 16  7 36 55.0000000  0  1G15
  25110011.008           0.000    25110016.527   131953981.4331  102821298.27256
        32.000          21.000         936.699         729.896  
 12  2 16  7 37  0.0000000  0  1G15
  25109118.180           0.000    25109126.355           0.0001          0.00055
         0.000           0.000         934.449         728.142  
 12  2 16  7 37 10.0000000  0  1G15
  25107345.227           0.000    25107353.125   131939984.87111 102810391.86155
        33.000          17.000         929.316         724.143  
 12  2 16  7 37 15.0000000  0  1G15
  25106463.117           0.000    25106470.113   131935345.600 1 102806776.78245
        33.000          18.000         926.680         722.088  
 12  2 16  7 37 20.0000000  0  1G15
  25105583.930           0.000    25105589.613   131930719.135 3 102803171.76545
        36.000          17.000         923.926         719.942  
 12  2 16  7 37 25.0000000  0  1G15
  25104707.820           0.000    25104711.301   131926105.246 4 102799576.55045
        39.000          19.000         921.613         718.140  
 12  2 16  7 37 30.0000000  0  1G15
  25103832.016           0.000    25103835.516   131921504.383 4 102795991.35145
        39.000          19.000         919.039         716.134  
 12  2 16  7 37 35.0000000  0  1G15
  25102959.539           0.000    25102961.246   131916916.573 5 102792416.42345
        40.000          19.000         916.402         714.080  
 12  2 16  7 37 40.0000000  0  1G15
  25102088.367           0.000    25102089.766   131912341.340 5 102788851.25845
        41.000          19.000         913.832         712.077  
 12  2 16  7 37 45.0000000  0  1G15
  25101220.750           0.000    25101221.141   131907779.072 5 102785296.15945
        41.000          19.000         911.164         709.998  
 12  2 16  7 37 50.0000000  0  1G15
  25100355.227           0.000    25100354.766   131903229.982 5 102781751.39845
        41.000          18.000         908.398         707.843  
 12  2 16  7 37 55.0000000  0  1G15
  25099492.789           0.000    25099492.094   131898693.605 5 102778216.50845
        41.000          19.000         905.887         705.886  
 12  2 16  7 38  0.0000000  0  1G15
  25098631.328           0.000    25098631.867   131894169.936 5 102774691.55545
        40.000          20.000         903.527         704.047  
 12  2 16  7 38  5.0000000  0  1G15
  25097772.938           0.000    25097774.430   131889659.187 5 102771176.69146
        40.000          22.000         900.926         702.020  
 12  2 16  7 38 10.0000000  0  1G15
  25096918.117           0.000    25096918.918   131885161.244 5 102767671.77646
        40.000          22.000         898.172         699.874  
 12  2 16  7 38 15.0000000  0  1G15
  25096063.422           0.000    25096065.891   131880676.246 4 102764176.98146
        39.000          23.000         895.539         697.823  
 12  2 16  7 38 20.0000000  0  1G15
  25095212.445           0.000    25095215.945   131876204.271 3 102760692.34246
        36.000          22.000         893.359         696.124  
 12  2 16  7 38 25.0000000  0  1G15
  25094364.906           0.000    25094367.207   131871745.167 4 102757217.70046
        38.000          22.000         890.633         694.000  
 12  2 16  7 38 30.0000000  0  1G15
  25093517.492           0.000    25093521.227   131867299.124 3 102753753.26346
        37.000          22.000         887.797         691.790  
 12  2 16  7 38 35.0000000  0  1G15
  25092673.828           0.000    25092677.758   131862865.554 3 102750298.55046
        36.000          22.000         885.430         689.945  
 12  2 16  7 38 40.0000000  0  1G15
  25091832.117           0.000    25091837.121   131858445.217 2 102746854.16446
        35.000          22.000         882.930         687.997  
 12  2 16  7 38 45.0000000  0  1G15
  25090992.375           0.000    25090998.125   131854037.644 2 102743419.70446
        35.000          22.000         880.164         685.842  
 12  2 16  7 38 50.0000000  0  1G15
  25090156.688           0.000    25090162.246   131849642.739 2 102739995.12146
        35.000          22.000         877.766         683.973  
 12  2 16  7 38 55.0000000  0  1G15
  25089321.094           0.000    25089328.363   131845261.070 1 102736580.88246
        33.000          21.000         874.949         681.779  
 12  2 16  7 39  0.0000000  0  1G15
  25088489.898           0.000    25088496.738   131840892.026 2 102733176.47446
        35.000          21.000         872.594         679.943  
 12  2 16  7 39  5.0000000  0  1G15
  25087660.828           0.000    25087667.539   131836536.067 2 102729782.22345
        35.000          20.000         870.078         677.983  
 12  2 16  7 39 10.0000000  0  1G15
  25086834.617           0.000    25086840.984   131832193.353 2 102726398.33846
        35.000          21.000         867.348         675.855  
 12  2 16  7 39 15.0000000  0  1G15
  25086011.516           0.000    25086017.223   131827863.399 3 102723024.35446
        37.000          22.000         864.715         673.804  
 12  2 16  7 39 20.0000000  0  1G15
  25085190.758           0.000    25085195.344   131823546.331 4 102719660.41346
        38.000          22.000         862.230         671.868  
 12  2 16  7 39 25.0000000  0  1G15
  25084371.766           0.000    25084376.176   131819242.085 5 102716306.47046
        40.000          23.000         859.613         669.829  
 12  2 16  7 39 30.0000000  0  1G15
  25083556.125           0.000    25083559.500   131814951.000 5 102712962.73746
        40.000          23.000         856.879         667.698  
 12  2 16  7 39 35.0000000  0  1G15
  25082742.133           0.000    25082745.598   131810672.709 5 102709629.06846
        40.000          24.000         854.355         665.732  
 12  2 16  7 39 40.0000000  0  1G15
  25081930.414           0.000    25081933.336   131806407.480 5 102706305.44646
        41.000          22.000         851.848         663.777  
 12  2 16  7 39 45.0000000  0  1G15
  25081120.930           0.000    25081124.168   131802154.886 5 102702991.68946
        41.000          22.000         849.211         661.723  
 12  2 16  7 39 50.0000000  0  1G15
  25080313.898           0.000    25080316.824   131797915.091 5 102699688.01846
        42.000          22.000         846.668         659.741  
 12  2 16  7 39 55.0000000  0  1G15
  25079510.836           0.000    25079512.316   131793688.280 5 102696394.38046
        42.000          22.000         844.074         657.720  
 12  2 16  7 40  0.0000000  0  1G15
  25078707.922           0.000    25078710.137   131789474.287 5 102693110.69845
        40.000          20.000         841.523         655.733  
 12  2 16  7 40  5.0000000  0  1G15
  25077909.867           0.000    25077909.926   131785273.654 4 102689837.41145
        39.000          19.000         838.910         653.696  
 12  2 16  7 40 10.0000000  0  1G15
  25077112.516           0.000    25077111.988   131781085.681 5 102686573.99345
        41.000          19.000         836.289         651.654  
 12  2 16  7 40 15.0000000  0  1G15
  25076317.563           0.000    25076316.902   131776910.749 4 102683320.78145
        38.000          19.000         833.574         649.538  
 12  2 16  7 40 20.0000000  0  1G15
  25075525.867           0.000    25075524.324   131772748.562 4 102680077.48645
        39.000          19.000         831.066         647.584  
 12  2 16  7 40 25.0000000  0  1G15
  25074734.344           0.000    25074735.563   131768599.412 3 102676844.40045
        37.000          18.000         828.359         645.475  
 12  2 16  7 40 30.0000000  0  1G15
  25073947.797           0.000    25073948.664   131764463.034 2 102673621.20645
        35.000          19.000         826.055         643.679  
 12  2 16  7 40 35.0000000  0  1G15
  25073162.102           0.000    25073164.297   131760339.850 3 102670408.45845
        36.000          18.000         823.301         641.533  
 12  2 16  7 40 40.0000000  0  1G15
  25072380.203           0.000    25072382.027   131756229.506 3 102667205.53345
        36.000          18.000         820.871         639.640  
 12  2 16  7 40 45.0000000  0  1G15
  25071600.250           0.000    25071602.961   131752132.066 3 102664012.77245
        36.000          18.000         818.395         637.710  
 12  2 16  7 40 50.0000000  0  1G15
  25070822.430           0.000    25070826.066   131748047.747 4 102660830.20745
        38.000          20.000         815.578         635.515  
 12  2 16  7 40 55.0000000  0  1G15
  25070048.266           0.000    25070052.074   131743976.284 4 102657657.65646
        38.000          22.000         812.820         633.366  
 12  2 16  7 41  0.0000000  0  1G15
  25069275.945           0.000    25069280.535   131739917.667 4 102654495.08246
        39.000          22.000         810.320         631.418  
 12  2 16  7 41  5.0000000  0  1G15
  25068506.641           0.000    25068510.531   131735871.970 5 102651342.60046
        40.000          26.000         808.055         629.653  
 12  2 16  7 41 10.0000000  0  1G15
  25067739.469           0.000    25067744.117   131731839.329 4 102648200.30246
        39.000          25.000         805.078         627.334  
 12  2 16  7 41 15.0000000  0  1G15
  25066975.563           0.000    25066979.102   131727819.266 5 102645067.79346
        40.000          24.000         802.777         625.541  
 12  2 16  7 41 20.0000000  0  1G15
  25066213.563           0.000    25066217.180   131723812.293 4 102641945.49346
        39.000          24.000         800.031         623.401  
 12  2 16  7 41 25.0000000  0  1G15
  25065452.906           0.000    25065456.426   131719818.138 4 102638833.15446
        38.000          25.000         797.602         621.508  
 12  2 16  7 41 30.0000000  0  1G15
  25064696.852           0.000    25064699.215   131715836.959 5 102635730.95146
        40.000          25.000         794.969         619.456  
 12  2 16  7 41 35.0000000  0  1G15
  25063940.219           0.000    25063943.914   131711868.896 5 102632638.96746
        40.000          24.000         792.516         617.545  
 12  2 16  7 41 40.0000000  0  1G15
  25063187.906           0.000    25063190.953   131707913.776 5 102629557.05546
        41.000          24.000         789.801         615.429  
 12  2 16  7 41 45.0000000  0  1G15
  25062437.758           0.000    25062440.762   131703971.574 5 102626485.20646
        40.000          23.000         787.137         613.353  
 12  2 16  7 41 50.0000000  0  1G15
  25061690.203           0.000    25061693.230   131700042.285 5 102623423.41446
        40.000          22.000         784.543         611.332  
 12  2 16  7 41 55.0000000  0  1G15
  25060945.789           0.000    25060948.031   131696126.255 4 102620371.96446
        39.000          22.000         782.023         609.369  
 12  2 16  7 42  0.0000000  0  1G15
  25060202.164           0.000    25060205.066   131692222.959 4 102617330.40546
        39.000          21.000         779.246         607.205  
 12  2 16  7 42  5.0000000  0  1G15
  25059461.977           0.000    25059464.469   131688332.459 4 102614298.86145
        38.000          20.000         777.012         605.464  
 12  2 16  7 42 10.0000000  0  1G15
  25058723.914           0.000    25058725.988   131684455.259 3 102611277.64445
        36.000          19.000         774.063         603.166  
 12  2 16  7 42 15.0000000  0  1G15
  25057988.070           0.000    25057989.965   131680590.684 2 102608266.23445
        34.000          18.000         771.582         601.233  
 12  2 16  7 42 20.0000000  0  1G15
  25057256.484           0.000    25057257.168   131676739.236 1 102605265.14345
        33.000          17.000         768.801         599.066  
 12  2 16  7 42 25.0000000  0  1G15
  25056524.469           0.000    25056526.000   131672900.497 1 102602273.83945
        33.000          16.000         766.023         596.901  
 12  2 16  7 42 30.0000000  0  1G15
  25055795.477           0.000    25055797.695   131669074.582   102599292.57245
        32.000          16.000         763.738         595.121  
 12  2 16  7 42 35.0000000  0  1G15
  25055069.883           0.000    25055071.879   131665261.969   102596321.79345
        31.000          15.000         761.059         593.033  
 12  2 16  7 42 40.0000000  0  1G15
  25054345.117           0.000    25054348.594           0.0001          0.00055
         0.000           0.000         758.875         591.331  
 12  2 16  7 42 45.0000000  0  1G15
  25053623.055           0.000    25053628.125           0.0001          0.00052
         0.000           0.000         755.832         588.960  
 12  2 16  7 42 50.0000000  0  1G15
  25052904.117           0.000    25052909.715   131653901.317   102587469.33842
        31.000          13.000         753.535         587.170  
 12  2 16  7 42 55.0000000  0  1G15
  25052188.891           0.000    25052194.195   131650140.576   102584538.86642
        31.000          14.000         751.227         585.371  
 12  2 16  7 43  0.0000000  0  1G15
  25051474.242           0.000    25051480.840   131646392.3341  102581618.19055
        30.000          15.000         748.379         583.152  
 12  2 16  7 43  5.0000000  0  1G15
  25050765.719           0.000    25050770.668           0.0001          0.00055
         0.000           0.000         745.398         580.830  
 12  2 16  7 43 10.0000000  0  1G15
  25050059.227           0.000    25050062.031   131638935.272 2 102575807.49045
        34.000          18.000         743.230         579.141  
 12  2 16  7 43 15.0000000  0  1G15
  25049353.906           0.000    25049356.676   131635226.162 2 102572917.27145
        35.000          18.000         740.828         577.269  
 12  2 16  7 43 20.0000000  0  1G15
  25048650.453           0.000    25048653.379   131631530.208 3 102570037.30945
        36.000          19.000         737.887         574.977  
 12  2 16  7 43 25.0000000  0  1G15
  25047951.055           0.000    25047953.281   131627847.176 3 102567167.39646
        37.000          21.000         734.988         572.718  
 12  2 16  7 43 30.0000000  0  1G15
  25047251.805           0.000    25047255.398   131624177.024 3 102564307.53946
        37.000          21.000         732.664         570.907  
 12  2 16  7 43 35.0000000  0  1G15
  25046556.664           0.000    25046559.594   131620519.918 3 102561457.88046
        37.000          21.000         730.160         568.956  
 12  2 16  7 43 40.0000000  0  1G15
  25045863.625           0.000    25045866.246   131616875.644 3 102558618.17246
        37.000          22.000         727.535         566.911  
 12  2 16  7 43 45.0000000  0  1G15
  25045173.289           0.000    25045175.328   131613244.470 4 102555788.66946
        38.000          22.000         724.973         564.914  
 12  2 16  7 43 50.0000000  0  1G15
  25044484.406           0.000    25044487.074   131609626.021 4 102552969.09546
        38.000          22.000         722.445         562.944  
 12  2 16  7 43 55.0000000  0  1G15
  25043797.602           0.000    25043800.879   131606020.627 4 102550159.68746
        38.000          23.000         719.719         560.820  
 12  2 16  7 44  0.0000000  0  1G15
  25043115.367           0.000    25043117.473   131602428.159 4 102547360.34546
        39.000          22.000         717.375         558.994  
 12  2 16  7 44  5.0000000  0  1G15
  25042433.398           0.000    25042435.813   131598848.695 4 102544571.16946
        38.000          22.000         714.469         556.729  
 12  2 16  7 44 10.0000000  0  1G15
  25041755.250           0.000    25041757.141   131595282.128 4 102541792.00946
        38.000          22.000         711.992         554.799  
 12  2 16  7 44 15.0000000  0  1G15
  25041079.102           0.000    25041081.133   131591728.451 4 102539022.90646
        38.000          22.000         709.527         552.878  
 12  2 16  7 44 20.0000000  0  1G15
  25040405.719           0.000    25040407.617   131588187.891 4 102536264.03646
        38.000          22.000         706.676         550.656  
 12  2 16  7 44 25.0000000  0  1G15
  25039734.273           0.000    25039736.531   131584660.159 3 102533515.16646
        37.000          22.000         704.238         548.757  
 12  2 16  7 44 30.0000000  0  1G15
  25039064.305           0.000    25039067.098   131581145.368 4 102530776.38546
        38.000          21.000         701.793         546.852  
 12  2 16  7 44 35.0000000  0  1G15
  25038397.086           0.000    25038401.195   131577643.244 3 102528047.47145
        36.000          20.000         699.355         544.952  
 12  2 16  7 44 40.0000000  0  1G15
  25037733.875           0.000    25037736.840   131574154.677 3 102525329.08445
        36.000          20.000         696.559         542.773  
 12  2 16  7 44 45.0000000  0  1G15
  25037071.992           0.000    25037075.898   131570678.804 3 102522620.59145
        36.000          20.000         693.832         540.648  
 12  2 16  7 44 50.0000000  0  1G15
  25036409.641           0.000    25036416.266   131567215.7381  102519922.18155
        31.000          19.000         691.621         538.926  
 12  2 16  7 44 55.0000000  0  1G15
  25035753.219           0.000    25035759.160   131563765.9141  102517233.97255
        32.000          18.000         688.855         536.771  
 12  2 16  7 45  0.0000000  0  1G15
  25035099.961           0.000    25035105.844           0.0001          0.00055
         0.000           0.000         686.266         534.752  
 12  2 16  7 45  5.0000000  0  1G15
  25034447.914           0.000    25034453.746           0.0001          0.00055
         0.000           0.000         683.188         532.354  
 12  2 16  7 45 10.0000000  0  1G15
  25033799.219           0.000    25033804.527   131553493.606   102509229.60645
        32.000          16.000         680.824         530.512  
 12  2 16  7 45 15.0000000  0  1G15
  25033152.922           0.000    25033157.281   131550095.412 1 102506581.74945
        33.000          16.000         678.492         528.695  
 12  2 16  7 45 20.0000000  0  1G15
  25032509.805           0.000    25032513.113   131546710.612 2 102503944.23345
        34.000          16.000         675.828         526.619  
 12  2 16  7 45 25.0000000  0  1G15
  25031867.539           0.000    25031870.859   131543338.141 2 102501316.25145
        34.000          16.000         673.309         524.656  
 12  2 16  7 45 30.0000000  0  1G15
  25031229.305           0.000    25031230.793   131539979.020 3 102498698.74745
        36.000          16.000         670.367         522.364  
 12  2 16  7 45 35.0000000  0  1G15
  25030592.680           0.000    25030593.645   131536632.742 3 102496091.12145
        36.000          17.000         667.984         520.507  
 12  2 16  7 45 40.0000000  0  1G15
  25029959.422           0.000    25029959.676   131533299.522 3 102493493.87945
        37.000          18.000         665.324         518.434  
 12  2 16  7 45 45.0000000  0  1G15
  25029327.609           0.000    25029328.223   131529979.195 4 102490906.58945
        38.000          19.000         662.730         516.413  
 12  2 16  7 45 50.0000000  0  1G15
  25028697.516           0.000    25028698.934   131526671.862 4 102488329.45245
        38.000          19.000         660.340         514.551  
 12  2 16  7 45 55.0000000  0  1G15
  25028071.070           0.000    25028072.004   131523377.406 5 102485762.34645
        40.000          19.000         657.594         512.411  
 12  2 16  7 46  0.0000000  0  1G15
  25027446.789           0.000    25027447.766   131520096.072 5 102483205.47345
        40.000          20.000         655.000         510.390  
 12  2 16  7 46  5.0000000  0  1G15
  25026824.898           0.000    25026826.227   131516827.493 5 102480658.52546
        40.000          22.000         652.340         508.317  
 12  2 16  7 46 10.0000000  0  1G15
  25026206.211           0.000    25026207.031   131513571.821 5 102478121.61246
        42.000          22.000         649.965         506.466  
 12  2 16  7 46 15.0000000  0  1G15
  25025588.508           0.000    25025590.660   131510329.427 5 102475595.06546
        41.000          22.000         647.297         504.387  
 12  2 16  7 46 20.0000000  0  1G15
  25024975.000           0.000    25024976.770   131507099.754 5 102473078.44746
        42.000          22.000         644.621         502.302  
 12  2 16  7 46 25.0000000  0  1G15
  25024362.359           0.000    25024364.496   131503882.828 5 102470571.74046
        41.000          22.000         642.090         500.330  
 12  2 16  7 46 30.0000000  0  1G15
  25023752.703           0.000    25023755.230   131500679.132 5 102468075.35546
        41.000          22.000         639.316         498.169  
 12  2 16  7 46 35.0000000  0  1G15
  25023146.484           0.000    25023148.570   131497488.405 5 102465589.07246
        42.000          23.000         636.805         496.211  
 12  2 16  7 46 40.0000000  0  1G15
  25022541.117           0.000    25022544.156   131494310.650 5 102463112.90946
        42.000          24.000         634.094         494.099  
 12  2 16  7 46 45.0000000  0  1G15
  25021938.422           0.000    25021942.195   131491145.863 4 102460646.83646
        39.000          24.000         631.793         492.306  
 12  2 16  7 46 50.0000000  0  1G15
  25021339.320           0.000    25021342.465   131487994.097 4 102458190.90446
        38.000          23.000         629.148         490.246  
 12  2 16  7 46 55.0000000  0  1G15
  25020741.203           0.000    25020744.770   131484854.981 3 102455744.84246
        36.000          22.000         626.453         488.145  
 12  2 16  7 47  0.0000000  0  1G15
  25020145.922           0.000    25020150.234   131481729.105 2 102453309.09346
        35.000          22.000         623.711         486.009  
 12  2 16  7 47  5.0000000  0  1G15
  25019554.617           0.000    25019558.516   131478616.315 2 102450883.55246
        35.000          22.000         621.414         484.219  
 12  2 16  7 47 10.0000000  0  1G15
  25018963.320           0.000    25018968.109   131475516.546 2 102448468.17746
        35.000          22.000         618.613         482.036  
 12  2 16  7 47 15.0000000  0  1G15
  25018375.656           0.000    25018380.180   131472429.300 2 102446062.54046
        34.000          21.000         616.000         480.000  
 12  2 16  7 47 20.0000000  0  1G15
  25017790.352           0.000    25017795.309   131469354.968 2 102443666.95346
        34.000          21.000         613.453         478.015  
 12  2 16  7 47 25.0000000  0  1G15
  25017207.180           0.000    25017212.836   131466293.691 1 102441281.60045
        33.000          20.000         610.941         476.058  
 12  2 16  7 47 30.0000000  0  1G15
  25016626.789           0.000    25016632.910   131463245.493 1 102438906.36645
        33.000          19.000         608.309         474.007  
 12  2 16  7 47 35.0000000  0  1G15
  25016049.867           0.000    25016054.531   131460210.063 2 102436541.10445
        35.000          18.000         605.852         472.092  
 12  2 16  7 47 40.0000000  0  1G15
  25015474.195           0.000    25015479.469   131457187.695 2 102434186.03545
        35.000          17.000         603.320         470.120  
 12  2 16  7 47 45.0000000  0  1G15
  25014901.477           0.000    25014906.297   131454178.202 2 102431841.00345
        35.000          17.000         600.695         468.074  
 12  2 16  7 47 50.0000000  0  1G15
  25014330.758           0.000    25014336.211   131451181.803 2 102429506.16945
        34.000          18.000         598.133         466.078  
 12  2 16  7 47 55.0000000  0  1G15
  25013763.305           0.000    25013768.625   131448198.298 2 102427181.36145
        34.000          19.000         595.355         463.913  
 12  2 16  7 48  0.0000000  0  1G15
  25013198.930           0.000    25013203.180   131445227.795 2 102424866.66945
        35.000          19.000         592.789         461.914  
 12  2 16  7 48  5.0000000  0  1G15
  25012635.078           0.000    25012640.586   131442270.054 2 102422561.96945
        35.000          20.000         590.285         459.962  
 12  2 16  7 48 10.0000000  0  1G15
  25012075.844           0.000    25012080.453   131439325.388 2 102420267.43545
        34.000          18.000         587.656         457.914  
 12  2 16  7 48 15.0000000  0  1G15
  25011518.273           0.000    25011521.988   131436393.656 3 102417982.96745
        36.000          18.000         585.004         455.847  
 12  2 16  7 48 20.0000000  0  1G15
  25010962.242           0.000    25010966.273   131433474.891 3 102415708.61045
        37.000          18.000         582.480         453.881  
 12  2 16  7 48 25.0000000  0  1G15
  25010409.563           0.000    25010413.027   131430568.869 4 102413444.12745
        38.000          18.000         579.941         451.902  
 12  2 16  7 48 30.0000000  0  1G15
  25009859.117           0.000    25009862.730   131427676.138 4 102411190.08645
        38.000          19.000         577.160         449.735  
 12  2 16  7 48 35.0000000  0  1G15
  25009311.563           0.000    25009313.980   131424796.151 4 102408945.93945
        38.000          19.000         574.531         447.687  
 12  2 16  7 48 40.0000000  0  1G15
  25008766.258           0.000    25008768.137   131421928.971 4 102406711.72445
        39.000          18.000         572.109         445.799  
 12  2 16  7 48 45.0000000  0  1G15
  25008221.891           0.000    25008224.609   131419074.981 4 102404487.81845
        38.000          17.000         569.609         443.851  
 12  2 16  7 48 50.0000000  0  1G15
  25007682.000           0.000    25007683.316   131416233.894 4 102402273.92745
        38.000          17.000         566.934         441.766  
 12  2 16  7 48 55.0000000  0  1G15
  25007144.164           0.000    25007144.180   131413405.761 3 102400070.08145
        37.000          16.000         564.152         439.599  
 12  2 16  7 49  0.0000000  0  1G15
  25006608.688           0.000    25006608.418   131410590.433 4 102397876.34045
        38.000          16.000         561.750         437.727  
 12  2 16  7 49  5.0000000  0  1G15
  25006074.945           0.000    25006074.621   131407788.094 4 102395692.63845
        39.000          16.000         559.266         435.791  
 12  2 16  7 49 10.0000000  0  1G15
  25005543.992           0.000    25005544.473   131404998.872 3 102393519.20145
        37.000          18.000         556.543         433.670  
 12  2 16  7 49 15.0000000  0  1G15
