     2.10           OBSERVATION DATA    G (GPS)             RINEX VERSION / TYPE
RinEdit                                 06/14/2017 16:15:05 PGM / RUN BY / DATE
Unknown                                                     MARKER NAME
Unknown             Unknown                                 OBSERVER / AGENCY
1                   Unknown MDP         Unknown             REC # / TYPE / VERS
1                   Unknown                                 ANT # / TYPE
  1112158.6928 -4842855.6141  3985496.9729                  APPROX POSITION XYZ
        0.0000        0.0000        0.0000                  ANTENNA: DELTA H/E/N
    10    L1    L2    P1    P2    D1    D2    S1    S2    C1# / TYPES OF OBSERV
          C2                                                # / TYPES OF OBSERV
     1     1                                                WAVELENGTH FACT L1/2
     1.500                                                  INTERVAL
  2015     8    27     4    58   21.0000000     GPS         TIME OF FIRST OBS
                                                            END OF HEADER
 15  8 27  4 58 21.0000000  0  1G11
   -749653.037 7   -643705.855 7  25060157.611 7  25060158.261 7       949.621 7
       739.973 7        38.000          38.120    25060155.913 7         0.000  
 15  8 27  4 58 22.5000000  0  1G11
   -751076.821 7   -644815.302 7  25059887.070 7  25059887.277 7       948.759 7
       739.282 7        38.080          37.830    25059887.098 7         0.000  
 15  8 27  4 58 24.0000000  0  1G11
   -752499.310 7   -645923.725 7  25059616.194 7  25059616.251 7       947.895 7
       738.619 7        37.990          37.700    25059616.485 7         0.000  
 15  8 27  4 58 25.5000000  0  1G11
   -753920.504 7   -647031.152 7  25059345.769 7  25059345.763 7       947.026 7
       737.934 7        37.870          37.290    25059345.275 7         0.000  
 15  8 27  4 58 27.0000000  0  1G11
   -755340.393 7   -648137.551 7  25059075.455 7  25059075.599 7       946.153 7
       737.257 7        37.720          37.380    25059074.648 7         0.000  
 15  8 27  4 58 28.5000000  0  1G11
   -756758.987 7   -649242.939 7  25058805.563 7  25058805.307 7       945.300 7
       736.588 7        37.590          37.350    25058805.118 7         0.000  
 15  8 27  4 58 30.0000000  0  1G11
   -758176.278 7   -650347.331 7  25058535.653 7  25058535.512 7       944.425 7
       735.919 7        37.490          37.380    25058535.759 7         0.000  
 15  8 27  4 58 31.5000000  0  1G11
   -759592.271 7   -651450.693 7  25058266.012 7  25058266.364 7       943.571 7
       735.240 7        37.370          37.210    25058265.750 7         0.000  
 15  8 27  4 58 33.0000000  0  1G11
   -761006.950 7   -652553.044 7  25057996.616 7  25057997.062 7       942.689 7
       734.565 7        37.340          37.210    25057997.048 7         0.000  
 15  8 27  4 58 34.5000000  0  1G11
   -762420.347 7   -653654.381 7  25057727.547 7  25057728.250 7       941.828 7
       733.884 7        37.180          37.590    25057727.748 7         0.000  
 15  8 27  4 58 36.0000000  0  1G11
   -763832.423 7   -654754.706 7  25057459.107 7  25057459.823 7       940.961 7
       733.213 7        37.100          37.430    25057458.359 7         0.000  
 15  8 27  4 58 37.5000000  0  1G11
   -765243.227 7   -655854.021 7  25057190.048 7  25057190.884 7       940.091 7
       732.530 7        37.150          37.500    25057190.990 7         0.000  
 15  8 27  4 58 39.0000000  0  1G11
   -766652.703 7   -656952.310 7  25056921.786 7  25056923.244 7       939.211 7
       731.858 7        37.400          37.660    25056923.497 7         0.000  
 15  8 27  4 58 40.5000000  0  1G11
   -768060.883 7   -658049.595 7  25056653.755 7  25056655.052 7       938.349 7
       731.177 7        37.510          37.720    25056655.591 7         0.000  
 15  8 27  4 58 42.0000000  0  1G11
   -769467.749 7   -659145.842 7  25056386.418 7  25056387.954 7       937.477 7
       730.500 7        37.260          37.730    25056387.707 7         0.000  
 15  8 27  4 58 43.5000000  0  1G11
   -770873.324 7   -660241.100 7  25056118.951 7  25056120.580 7       936.617 7
       729.836 7        37.440          38.000    25056120.400 7         0.000  
 15  8 27  4 58 45.0000000  0  1G11
   -772277.601 7   -661335.340 7  25055851.537 7  25055853.320 7       935.750 7
       729.154 7        37.360          37.940    25055852.229 7         0.000  
 15  8 27  4 58 46.5000000  0  1G11
   -773680.551 7   -662428.551 7  25055584.808 7  25055586.562 7       934.873 7
       728.469 7        37.700          38.180    25055585.021 7         0.000  
 15  8 27  4 58 48.0000000  0  1G11
   -775082.212 7   -663520.755 7  25055318.121 7  25055320.193 7       934.003 7
       727.801 7        37.510          38.150    25055318.069 7         0.000  
 15  8 27  4 58 49.5000000  0  1G11
   -776482.578 7   -664611.943 7  25055051.964 7  25055053.191 7       933.140 7
       727.116 7        37.720          38.310    25055052.403 7         0.000  
 15  8 27  4 58 51.0000000  0  1G11
   -777881.636 7   -665702.123 7  25054786.047 7  25054787.187 7       932.277 7
       726.451 7        37.830          38.080    25054785.178 7         0.000  
 15  8 27  4 58 52.5000000  0  1G11
   -779279.392 7   -666791.286 7  25054520.084 7  25054521.315 7       931.405 7
       725.774 7        37.880          38.550    25054519.966 7         0.000  
 15  8 27  4 58 54.0000000  0  1G11
   -780675.850 7   -667879.434 7  25054254.396 7  25054255.321 7       930.533 7
       725.087 7        38.060          38.530    25054253.303 7         0.000  
 15  8 27  4 58 55.5000000  0  1G11
   -782070.998 7   -668966.559 7  25053988.724 7  25053989.463 7       929.654 7
       724.404 7        37.920          38.590    25053989.031 7         0.000  
 15  8 27  4 58 57.0000000  0  1G11
   -783464.831 7   -670052.661 7  25053723.668 7  25053724.490 7       928.791 7
       723.730 7        37.930          38.480    25053722.604 7         0.000  
 15  8 27  4 58 58.5000000  0  1G11
   -784857.363 7   -671137.750 7  25053458.576 7  25053459.617 7       927.926 7
       723.059 7        37.730          38.430    25053458.469 7         0.000  
 15  8 27  4 59  0.0000000  0  1G11
   -786248.594 7   -672221.823 7  25053193.554 7  25053194.561 7       927.052 7
       722.369 7        37.850          38.680    25053192.848 7         0.000  
 15  8 27  4 59  1.5000000  0  1G11
   -787638.533 7   -673304.886 7  25052929.163 7  25052929.872 7       926.182 7
       721.700 7        38.050          38.430    25052927.753 7         0.000  
 15  8 27  4 59  3.0000000  0  1G11
   -789027.144 7   -674386.930 7  25052664.772 7  25052665.724 7       925.301 7
       721.022 7        37.920          38.800    25052664.109 7         0.000  
 15  8 27  4 59  4.5000000  0  1G11
   -790414.466 7   -675467.953 7  25052400.610 7  25052401.907 7       924.451 7
       720.348 7        37.560          38.810    25052400.118 7         0.000  
 15  8 27  4 59  6.0000000  0  1G11
   -791800.479 7   -676547.961 7  25052136.686 7  25052138.049 7       923.574 7
       719.664 7        37.540          38.560    25052136.706 7         0.000  
 15  8 27  4 59  7.5000000  0  1G11
   -793185.196 7   -677626.956 7  25051873.510 7  25051874.582 7       922.708 7
       719.001 7        37.550          38.680    25051873.895 7         0.000  
 15  8 27  4 59  9.0000000  0  1G11
   -794568.596 7   -678704.933 7  25051610.172 7  25051611.533 7       921.842 7
       718.308 7        37.380          38.580    25051610.539 7         0.000  
 15  8 27  4 59 10.5000000  0  1G11
   -795950.694 7   -679781.891 7  25051346.868 7  25051348.791 7       920.959 7
       717.630 7        37.120          38.660    25051347.119 7         0.000  
 15  8 27  4 59 12.0000000  0  1G11
   -797331.488 7   -680857.829 7  25051084.194 7  25051085.806 7       920.088 7
       716.955 7        37.140          38.690    25051083.977 7         0.000  
 15  8 27  4 59 13.5000000  0  1G11
   -798710.978 7   -681932.759 7  25050821.731 7  25050823.189 7       919.223 7
       716.278 7        37.070          38.740    25050821.518 7         0.000  
 15  8 27  4 59 15.0000000  0  1G11
   -800089.157 7   -683006.658 7  25050559.510 7  25050561.185 7       918.346 7
       715.597 7        36.750          38.670    25050559.695 7         0.000  
 15  8 27  4 59 16.5000000  0  1G11
   -801466.028 7   -684079.541 7  25050297.327 7  25050299.218 7       917.473 7
       714.927 7        36.780          38.750    25050298.337 7         0.000  
 15  8 27  4 59 18.0000000  0  1G11
   -802841.584 7   -685151.412 7  25050035.435 7  25050037.244 7       916.611 7
       714.237 7        36.550          38.600    25050035.328 7         0.000  
 15  8 27  4 59 19.5000000  0  1G11
   -804215.853 7   -686222.267 7  25049773.592 7  25049775.595 7       915.738 7
       713.564 7        36.280          38.490    25049774.051 7         0.000  
 15  8 27  4 59 21.0000000  0  1G11
   -805588.809 7   -687292.098 7  25049512.546 7  25049514.194 7       914.863 7
       712.885 7        36.020          38.520    25049513.193 7         0.000  
 15  8 27  4 59 22.5000000  0  1G11
   -806960.457 7   -688360.917 7  25049251.303 7  25049253.065 7       913.996 7
       712.206 7        35.960          38.450    25049250.033 7         0.000  
 15  8 27  4 59 24.0000000  0  1G11
   -808330.815 7   -689428.724 7  25048990.539 7  25048992.422 7       913.126 7
       711.530 7        36.060          38.480    25048988.764 7         0.000  
 15  8 27  4 59 25.5000000  0  1G11
   -809699.857 7   -690495.512 7  25048730.079 7  25048731.485 7       912.261 7
       710.857 7        36.070          38.330    25048729.259 7         0.000  
 15  8 27  4 59 27.0000000  0  1G11
   -811067.590 7   -691561.279 7  25048470.166 7  25048471.366 7       911.391 7
       710.174 7        36.260          38.250    25048468.381 7         0.000  
 15  8 27  4 59 28.5000000  0  1G11
   -812434.015 7   -692626.035 7  25048210.065 7  25048211.438 7       910.519 7
       709.493 7        35.930          38.060    25048207.418 7         0.000  
 15  8 27  4 59 30.0000000  0  1G11
   -813799.137 7   -693689.767 7  25047950.373 7  25047951.441 7       909.645 7
       708.822 7        36.250          38.020    25047949.388 7         0.000  
 15  8 27  4 59 31.5000000  0  1G11
   -815162.968 7   -694752.490 7  25047690.906 7  25047691.552 7       908.782 7
       708.140 7        36.140          37.890    25047690.136 7         0.000  
 15  8 27  4 59 33.0000000  0  1G11
   -816525.477 7   -695814.202 7  25047431.891 7  25047432.573 7       907.909 7
       707.460 7        35.970          37.830    25047432.299 7         0.000  
 15  8 27  4 59 34.5000000  0  1G11
   -817886.698 7   -696874.880 7  25047173.228 7  25047173.456 7       907.037 7
       706.783 7        36.140          37.940    25047173.556 7         0.000  
 15  8 27  4 59 36.0000000  0  1G11
   -819246.604 7   -697934.560 7  25046914.464 7  25046914.494 7       906.156 7
       706.107 7        36.090          37.850    25046915.542 7         0.000  
 15  8 27  4 59 37.5000000  0  1G11
   -820605.208 7   -698993.213 7  25046655.469 7  25046656.182 7       905.302 7
       705.443 7        35.910          37.690    25046656.308 7         0.000  
 15  8 27  4 59 39.0000000  0  1G11
   -821962.504 7   -700050.844 7  25046397.668 7  25046397.808 7       904.431 7
       704.748 7        36.100          37.980    25046397.777 7         0.000  
 15  8 27  4 59 40.5000000  0  1G11
   -823318.488 7   -701107.449 7  25046139.849 7  25046139.686 7       903.561 7
       704.069 7        36.030          38.040    25046140.329 7         0.000  
 15  8 27  4 59 42.0000000  0  1G11
   -824673.170 7   -702163.053 7  25045881.641 7  25045882.427 7       902.684 7
       703.390 7        36.040          38.080    25045882.300 7         0.000  
 15  8 27  4 59 43.5000000  0  1G11
   -826026.556 7   -703217.645 7  25045624.214 7  25045624.931 7       901.815 7
       702.714 7        36.280          38.270    25045624.605 7         0.000  
 15  8 27  4 59 45.0000000  0  1G11
   -827378.635 7   -704271.208 7  25045366.709 7  25045367.369 7       900.952 7
       702.035 7        36.310          38.240    25045367.994 7         0.000  
 15  8 27  4 59 46.5000000  0  1G11
   -828729.396 7   -705323.747 7  25045109.671 7  25045110.315 7       900.079 7
       701.360 7        36.330          38.510    25045110.878 7         0.000  
 15  8 27  4 59 48.0000000  0  1G11
   -830078.863 7   -706375.280 7  25044852.888 7  25044853.596 7       899.200 7
       700.675 7        36.220          38.490    25044853.768 7         0.000  
 15  8 27  4 59 49.5000000  0  1G11
   -831427.023 7   -707425.798 7  25044596.339 7  25044596.822 7       898.336 7
       700.013 7        36.320          38.620    25044595.765 7         0.000  
 15  8 27  4 59 51.0000000  0  1G11
   -832773.877 7   -708475.302 7  25044340.252 7  25044340.739 7       897.465 7
       699.322 7        36.340          38.720    25044339.722 7         0.000  
 15  8 27  4 59 52.5000000  0  1G11
   -834119.430 7   -709523.775 7  25044083.960 7  25044084.768 7       896.611 7
       698.649 7        36.290          38.940    25044082.261 7         0.000  
 15  8 27  4 59 54.0000000  0  1G11
   -835463.674 7   -710571.234 7  25043828.050 7  25043828.656 7       895.726 7
       697.965 7        36.230          39.130    25043828.527 7         0.000  
 15  8 27  4 59 55.5000000  0  1G11
   -836806.618 7   -711617.683 7  25043572.682 7  25043573.148 7       894.854 7
       697.292 7        36.060          39.130    25043572.480 7         0.000  
 15  8 27  4 59 57.0000000  0  1G11
   -838148.250 7   -712663.110 7  25043317.116 7  25043318.250 7       893.992 7
       696.611 7        36.390          39.370    25043317.543 7         0.000  
 15  8 27  4 59 58.5000000  0  1G11
   -839488.588 7   -713707.528 7  25043062.326 7  25043063.355 7       893.121 7
       695.938 7        36.520          39.590    25043063.092 7         0.000  
 15  8 27  5  0  0.0000000  0  1G11
   -840827.607 7   -714750.918 7  25042807.826 7  25042808.754 7       892.251 7
       695.259 7        36.450          39.750    25042808.163 7         0.000  
 15  8 27  5  0  1.5000000  0  1G11
   -842165.339 7   -715793.307 7  25042553.203 7  25042554.310 7       891.381 7
       694.581 7        36.620          39.750    25042553.271 7         0.000  
 15  8 27  5  0  3.0000000  0  1G11
   -843501.743 7   -716834.666 7  25042298.626 7  25042300.056 7       890.503 7
       693.902 7        36.460          39.710    25042298.880 7         0.000  
 15  8 27  5  0  4.5000000  0  1G11
   -844836.855 7   -717875.007 7  25042044.591 7  25042045.985 7       889.632 7
       693.227 7        36.270          39.870    25042044.851 7         0.000  
 15  8 27  5  0  6.0000000  0  1G11
   -846170.665 7   -718914.340 7  25041791.102 7  25041792.292 7       888.773 7
       692.547 7        36.240          39.840    25041791.933 7         0.000  
 15  8 27  5  0  7.5000000  0  1G11
   -847503.166 7   -719952.660 7  25041537.414 7  25041538.779 7       887.905 7
       691.859 7        36.070          39.850    25041537.774 7         0.000  
 15  8 27  5  0  9.0000000  0  1G11
   -848834.364 7   -720989.954 7  25041283.689 7  25041285.519 7       887.024 7
       691.193 7        36.130          39.760    25041283.584 7         0.000  
 15  8 27  5  0 10.5000000  0  1G11
   -850164.248 7   -722026.223 7  25041030.880 7  25041032.131 7       886.154 7
       690.507 7        35.830          39.750    25041029.606 7         0.000  
 15  8 27  5  0 12.0000000  0  1G11
   -851492.824 7   -723061.479 7  25040777.546 7  25040779.263 7       885.276 7
       689.835 7        35.630          39.820    25040776.638 7         0.000  
 15  8 27  5  0 13.5000000  0  1G11
   -852820.096 7   -724095.721 7  25040524.875 7  25040526.844 7       884.419 7
       689.150 7        35.860          39.830    25040525.213 7         0.000  
 15  8 27  5  0 15.0000000  0  1G11
   -854146.064 7   -725128.940 7  25040272.375 7  25040274.184 7       883.555 7
       688.478 7        35.620          39.780    25040274.030 7         0.000  
 15  8 27  5  0 16.5000000  0  1G11
   -855470.722 7   -726161.137 7  25040020.220 7  25040022.644 7       882.684 7
       687.796 7        35.430          39.720    25040020.965 7         0.000  
 15  8 27  5  0 18.0000000  0  1G11
   -856794.078 7   -727192.318 7  25039768.278 7  25039770.299 7       881.792 7
       687.110 7        35.610          39.650    25039769.352 7         0.000  
 15  8 27  5  0 19.5000000  0  1G11
   -858116.126 7   -728222.492 7  25039516.873 7  25039518.677 7       880.930 7
       686.453 7        35.120          39.690    25039518.346 7         0.000  
 15  8 27  5  0 21.0000000  0  1G11
   -859436.876 7   -729251.643 7  25039265.441 7  25039267.439 7       880.056 7
       685.758 7        35.360          39.500    25039267.132 7         0.000  
 15  8 27  5  0 22.5000000  0  1G11
   -860756.302 7   -730279.773 7  25039014.702 7  25039016.390 7       879.186 7
       685.089 7        35.410          39.500    25039015.328 7         0.000  
 15  8 27  5  0 24.0000000  0  1G11
   -862074.431 7   -731306.883 7  25038764.272 7  25038765.540 7       878.311 7
       684.396 7        35.350          39.460    25038765.255 7         0.000  
 15  8 27  5  0 25.5000000  0  1G11
   -863391.250 7   -732332.968 7  25038513.563 7  25038514.761 7       877.451 7
       683.730 7        35.670          39.420    25038514.575 7         0.000  
 15  8 27  5  0 27.0000000  0  1G11
   -864706.760 7   -733358.046 7  25038263.062 7  25038264.266 7       876.554 7
       683.041 7        35.900          39.420    25038265.446 7         0.000  
 15  8 27  5  0 28.5000000  0  1G11
   -866020.951 7   -734382.086 7  25038013.380 7  25038014.714 7       875.703 7
       682.363 7        35.820          39.350    25038014.826 7         0.000  
 15  8 27  5  0 30.0000000  0  1G11
   -867333.839 7   -735405.109 7  25037763.498 7  25037764.665 7       874.808 7
       681.674 7        35.880          39.340    25037765.660 7         0.000  
 15  8 27  5  0 31.5000000  0  1G11
   -868645.433 7   -736427.133 7  25037514.141 7  25037515.095 7       873.959 7
       681.013 7        36.070          39.330    25037515.697 7         0.000  
 15  8 27  5  0 33.0000000  0  1G11
   -869955.700 7   -737448.117 7  25037265.124 7  25037265.924 7       873.065 7
       680.311 7        35.860          39.150    25037265.702 7         0.000  
 15  8 27  5  0 34.5000000  0  1G11
   -871264.665 7   -738468.090 7  25037015.661 7  25037016.827 7       872.220 7
       679.649 7        36.170          39.110    25037016.540 7         0.000  
 15  8 27  5  0 36.0000000  0  1G11
   -872572.326 7   -739487.049 7  25036766.993 7  25036768.215 7       871.327 7
       678.956 7        36.180          39.220    25036767.507 7         0.000  
 15  8 27  5  0 37.5000000  0  1G11
   -873878.679 7   -740504.981 7  25036518.475 7  25036519.299 7       870.477 7
       678.284 7        35.890          39.130    25036518.648 7         0.000  
 15  8 27  5  0 39.0000000  0  1G11
   -875183.713 7   -741521.888 7  25036269.719 7  25036271.036 7       869.589 7
       677.588 7        36.280          39.180    25036270.310 7         0.000  
 15  8 27  5  0 40.5000000  0  1G11
   -876487.442 7   -742537.776 7  25036021.886 7  25036022.806 7       868.706 7
       676.908 7        36.130          39.030    25036022.288 7         0.000  
 15  8 27  5  0 42.0000000  0  1G11
   -877789.855 7   -743552.640 7  25035773.693 7  25035775.103 7       867.845 7
       676.239 7        36.320          39.040    25035774.103 7         0.000  
 15  8 27  5  0 43.5000000  0  1G11
   -879090.972 7   -744566.492 7  25035526.146 7  25035527.621 7       866.959 7
       675.557 7        36.450          38.970    25035524.667 7         0.000  
 15  8 27  5  0 45.0000000  0  1G11
   -880390.772 7   -745579.327 7  25035278.550 7  25035280.321 7       866.105 7
       674.887 7        36.320          38.910    25035278.678 7         0.000  
 15  8 27  5  0 46.5000000  0  1G11
   -881689.268 7   -746591.127 7  25035031.647 7  25035033.125 7       865.220 7
       674.198 7        36.280          38.970    25035031.364 7         0.000  
 15  8 27  5  0 48.0000000  0  1G11
   -882986.436 7   -747601.917 7  25034784.525 7  25034785.574 7       864.355 7
       673.515 7        36.360          39.030    25034784.096 7         0.000  
 15  8 27  5  0 49.5000000  0  1G11
   -884282.310 7   -748611.687 7  25034538.021 7  25034539.230 7       863.465 7
       672.833 7        36.340          38.710    25034537.207 7         0.000  
 15  8 27  5  0 51.0000000  0  1G11
   -885576.870 7   -749620.433 7  25034291.509 7  25034292.931 7       862.607 7
       672.162 7        36.340          38.750    25034291.938 7         0.000  
 15  8 27  5  0 52.5000000  0  1G11
   -886870.128 7   -750628.171 7  25034045.957 7  25034046.571 7       861.732 7
       671.489 7        35.910          38.830    25034044.723 7         0.000  
 15  8 27  5  0 54.0000000  0  1G11
   -888162.085 7   -751634.883 7  25033800.071 7  25033800.907 7       860.857 7
       670.806 7        35.930          38.560    25033799.823 7         0.000  
 15  8 27  5  0 55.5000000  0  1G11
   -889452.732 7   -752640.584 7  25033554.574 7  25033555.566 7       859.990 7
       670.122 7        35.980          38.690    25033554.158 7         0.000  
 15  8 27  5  0 57.0000000  0  1G11
   -890742.057 7   -753645.248 7  25033309.223 7  25033310.072 7       859.118 7
       669.439 7        36.040          38.500    25033309.655 7         0.000  
 15  8 27  5  0 58.5000000  0  1G11
   -892030.079 7   -754648.909 7  25033064.363 7  25033065.100 7       858.244 7
       668.761 7        36.450          38.450    25033064.140 7         0.000  
 15  8 27  5  1  0.0000000  0  1G11
   -893316.788 7   -755651.536 7  25032819.419 7  25032819.916 7       857.362 7
       668.082 7        36.150          38.770    25032819.684 7         0.000  
 15  8 27  5  1  1.5000000  0  1G11
   -894602.192 7   -756653.154 7  25032575.207 7  25032575.300 7       856.506 7
       667.404 7        36.060          38.510    25032575.609 7         0.000  
 15  8 27  5  1  3.0000000  0  1G11
   -895886.282 7   -757653.742 7  25032330.710 7  25032331.175 7       855.617 7
       666.720 7        35.980          38.580    25032330.234 7         0.000  
 15  8 27  5  1  4.5000000  0  1G11
   -897169.063 7   -758653.316 7  25032086.304 7  25032087.229 7       854.749 7
       666.044 7        36.750          38.810    25032087.051 7         0.000  
 15  8 27  5  1  6.0000000  0  1G11
   -898450.543 7   -759651.869 7  25031842.290 7  25031843.609 7       853.890 7
       665.365 7        36.280          38.720    25031842.167 7         0.000  
 15  8 27  5  1  7.5000000  0  1G11
   -899730.716 7   -760649.401 7  25031598.607 7  25031600.120 7       853.017 7
       664.678 7        36.540          38.960    25031599.782 7         0.000  
 15  8 27  5  1  9.0000000  0  1G11
   -901009.565 7   -761645.913 7  25031354.928 7  25031356.698 7       852.135 7
       664.001 7        36.680          38.940    25031356.393 7         0.000  
 15  8 27  5  1 10.5000000  0  1G11
   -902287.120 7   -762641.412 7  25031112.092 7  25031114.009 7       851.253 7
       663.321 7        36.820          38.970    25031112.626 7         0.000  
 15  8 27  5  1 12.0000000  0  1G11
   -903563.358 7   -763635.887 7  25030869.030 7  25030870.942 7       850.391 7
       662.647 7        36.790          38.900    25030870.033 7         0.000  
 15  8 27  5  1 13.5000000  0  1G11
   -904838.306 7   -764629.349 7  25030626.335 7  25030628.312 7       849.526 7
       661.974 7        36.970          38.830    25030626.170 7         0.000  
 15  8 27  5  1 15.0000000  0  1G11
   -906111.925 7   -765621.782 7  25030384.225 7  25030386.087 7       848.641 7
       661.279 7        36.980          38.790    25030383.260 7         0.000  
 15  8 27  5  1 16.5000000  0  1G11
   -907384.243 7   -766613.191 7  25030142.022 7  25030143.962 7       847.788 7
       660.610 7        37.140          38.760    25030141.763 7         0.000  
 15  8 27  5  1 18.0000000  0  1G11
   -908655.253 7   -767603.590 7  25029900.044 7  25029902.237 7       846.899 7
       659.919 7        37.120          38.690    25029898.547 7         0.000  
 15  8 27  5  1 19.5000000  0  1G11
   -909924.969 7   -768592.975 7  25029658.390 7  25029660.453 7       846.028 7
       659.253 7        37.170          38.520    25029658.877 7         0.000  
 15  8 27  5  1 21.0000000  0  1G11
   -911193.363 7   -769581.337 7  25029417.183 7  25029418.850 7       845.159 7
       658.568 7        37.390          38.640    25029417.444 7         0.000  
 15  8 27  5  1 22.5000000  0  1G11
   -912460.450 7   -770568.672 7  25029176.260 7  25029177.963 7       844.282 7
       657.883 7        37.490          38.260    25029177.033 7         0.000  
 15  8 27  5  1 24.0000000  0  1G11
   -913726.234 7   -771554.997 7  25028935.309 7  25028936.765 7       843.408 7
       657.210 7        37.570          38.380    25028935.544 7         0.000  
 15  8 27  5  1 25.5000000  0  1G11
   -914990.697 7   -772540.306 7  25028694.450 7  25028695.865 7       842.545 7
       656.531 7        37.680          38.030    25028695.129 7         0.000  
 15  8 27  5  1 27.0000000  0  1G11
   -916253.840 7   -773524.563 7  25028454.052 7  25028455.580 7       841.651 7
       655.831 7        37.510          37.910    25028454.988 7         0.000  
 15  8 27  5  1 28.5000000  0  1G11
   -917515.682 7   -774507.817 7  25028213.687 7  25028215.191 7       840.794 7
       655.168 7        37.550          37.630    25028213.719 7         0.000  
 15  8 27  5  1 30.0000000  0  1G11
   -918776.218 7   -775490.051 7  25027974.124 7  25027974.981 7       839.917 7
       654.479 7        37.480          37.630    25027973.611 7         0.000  
 15  8 27  5  1 31.5000000  0  1G11
   -920035.445 7   -776471.259 7  25027734.490 7  25027735.427 7       839.050 7
       653.802 7        37.390          37.620    25027733.718 7         0.000  
 15  8 27  5  1 33.0000000  0  1G11
   -921293.378 7   -777451.465 7  25027495.183 7  25027495.938 7       838.187 7
       653.134 7        37.460          37.190    25027494.575 7         0.000  
 15  8 27  5  1 34.5000000  0  1G11
   -922549.986 7   -778430.640 7  25027256.554 7  25027257.091 7       837.295 7
       652.439 7        37.270          37.390    25027256.984 7         0.000  
 15  8 27  5  1 36.0000000  0  1G11
   -923805.290 7   -779408.802 7  25027017.433 7  25027017.957 7       836.421 7
       651.756 7        37.460          37.010    25027017.962 7         0.000  
 15  8 27  5  1 37.5000000  0  1G11
   -925059.281 7   -780385.927 7  25026778.486 7  25026779.689 7       835.565 7
       651.080 7        37.590          36.990    25026780.178 7         0.000  
 15  8 27  5  1 39.0000000  0  1G11
   -926311.961 7   -781362.053 7  25026540.447 7  25026541.337 7       834.686 7
       650.400 7        37.640          36.970    25026540.517 7         0.000  
 15  8 27  5  1 40.5000000  0  1G11
   -927563.325 7   -782337.135 7  25026302.568 7  25026303.036 7       833.805 7
       649.721 7        37.690          36.890    25026303.220 7         0.000  
 15  8 27  5  1 42.0000000  0  1G11
   -928813.376 7   -783311.208 7  25026064.758 7  25026065.579 7       832.935 7
       649.035 7        37.970          36.680    25026064.492 7         0.000  
 15  8 27  5  1 43.5000000  0  1G11
   -930062.129 7   -784284.258 7  25025826.956 7  25025827.938 7       832.056 7
       648.351 7        37.810          36.800    25025827.529 7         0.000  
 15  8 27  5  1 45.0000000  0  1G11
   -931309.557 7   -785256.280 7  25025589.590 7  25025590.434 7       831.183 7
       647.667 7        37.950          36.810    25025590.070 7         0.000  
 15  8 27  5  1 46.5000000  0  1G11
   -932555.680 7   -786227.283 7  25025352.509 7  25025353.361 7       830.316 7
       646.993 7        37.920          36.700    25025352.150 7         0.000  
 15  8 27  5  1 48.0000000  0  1G11
   -933800.493 7   -787197.270 7  25025115.265 7  25025116.305 7       829.427 7
       646.312 7        38.030          36.800    25025114.219 7         0.000  
 15  8 27  5  1 49.5000000  0  1G11
   -935044.005 7   -788166.239 7  25024878.617 7  25024880.093 7       828.562 7
       645.636 7        38.230          36.910    25024878.884 7         0.000  
 15  8 27  5  1 51.0000000  0  1G11
   -936286.191 7   -789134.178 7  25024642.118 7  25024643.851 7       827.675 7
       644.954 7        38.280          36.680    25024642.085 7         0.000  
 15  8 27  5  1 52.5000000  0  1G11
   -937527.067 7   -790101.096 7  25024406.416 7  25024407.697 7       826.815 7
       644.273 7        38.320          36.690    25024406.999 7         0.000  
 15  8 27  5  1 54.0000000  0  1G11
   -938766.623 7   -791066.989 7  25024170.518 7  25024172.488 7       825.930 7
       643.581 7        38.250          36.850    25024170.435 7         0.000  
 15  8 27  5  1 55.5000000  0  1G11
   -940004.895 7   -792031.866 7  25023934.933 7  25023936.397 7       825.068 7
       642.909 7        38.540          36.880    25023934.989 7         0.000  
 15  8 27  5  1 57.0000000  0  1G11
   -941241.846 7   -792995.716 7  25023699.381 7  25023701.272 7       824.205 7
       642.237 7        38.360          36.710    25023699.430 7         0.000  
 15  8 27  5  1 58.5000000  0  1G11
   -942477.488 7   -793958.554 7  25023464.273 7  25023465.694 7       823.327 7
       641.546 7        38.530          36.690    25023463.855 7         0.000  
 15  8 27  5  2  0.0000000  0  1G11
   -943711.814 7   -794920.375 7  25023229.051 7  25023230.811 7       822.441 7
       640.863 7        38.810          36.440    25023228.922 7         0.000  
 15  8 27  5  2  1.5000000  0  1G11
   -944944.849 7   -795881.187 7  25022994.893 7  25022995.933 7       821.589 7
       640.195 7        38.720          36.560    25022994.775 7         0.000  
 15  8 27  5  2  3.0000000  0  1G11
   -946176.569 7   -796840.952 7  25022760.341 7  25022761.649 7       820.722 7
       639.515 7        39.030          36.610    25022761.043 7         0.000  
 15  8 27  5  2  4.5000000  0  1G11
   -947406.984 7   -797799.721 7  25022526.270 7  25022526.977 7       819.828 7
       638.835 7        39.030          36.420    25022525.904 7         0.000  
 15  8 27  5  2  6.0000000  0  1G11
   -948636.086 7   -798757.463 7  25022292.220 7  25022293.319 7       818.953 7
       638.152 7        39.090          36.090    25022291.979 7         0.000  
 15  8 27  5  2  7.5000000  0  1G11
   -949863.879 7   -799714.186 7  25022058.545 7  25022059.384 7       818.092 7
       637.478 7        39.310          36.480    25022057.801 7         0.000  
 15  8 27  5  2  9.0000000  0  1G11
   -951090.354 7   -800669.880 7  25021825.354 7  25021826.188 7       817.212 7
       636.794 7        39.310          35.950    25021824.224 7         0.000  
 15  8 27  5  2 10.5000000  0  1G11
   -952315.515 7   -801624.548 7  25021592.153 7  25021593.167 7       816.336 7
       636.110 7        39.420          35.970    25021591.213 7         0.000  
 15  8 27  5  2 12.0000000  0  1G11
   -953539.374 7   -802578.196 7  25021359.162 7  25021359.919 7       815.460 7
       635.423 7        39.610          36.220    25021358.482 7         0.000  
 15  8 27  5  2 13.5000000  0  1G11
   -954761.929 7   -803530.838 7  25021126.490 7  25021127.523 7       814.600 7
       634.754 7        39.600          36.120    25021126.125 7         0.000  
 15  8 27  5  2 15.0000000  0  1G11
   -955983.158 7   -804482.435 7  25020894.132 7  25020894.832 7       813.721 7
       634.070 7        39.720          36.080    25020894.113 7         0.000  
 15  8 27  5  2 16.5000000  0  1G11
   -957203.075 7   -805433.028 7  25020662.106 7  25020662.907 7       812.835 7
       633.380 7        39.750          36.200    25020662.061 7         0.000  
 15  8 27  5  2 18.0000000  0  1G11
   -958421.676 7   -806382.590 7  25020430.584 7  25020430.860 7       811.956 7
       632.690 7        39.820          36.330    25020430.609 7         0.000  
 15  8 27  5  2 19.5000000  0  1G11
   -959638.978 7   -807331.132 7  25020198.830 7  25020199.375 7       811.095 7
       632.023 7        39.740          35.980    25020199.031 7         0.000  
 15  8 27  5  2 21.0000000  0  1G11
   -960854.945 7   -808278.638 7  25019967.603 7  25019968.189 7       810.211 7
       631.330 7        39.910          36.140    25019967.453 7         0.000  
 15  8 27  5  2 22.5000000  0  1G11
   -962069.606 7   -809225.127 7  25019736.302 7  25019736.697 7       809.340 7
       630.647 7        39.630          36.050    25019736.660 7         0.000  
 15  8 27  5  2 24.0000000  0  1G11
   -963282.955 7   -810170.594 7  25019505.557 7  25019506.367 7       808.455 7
       629.960 7        39.870          36.480    25019505.607 7         0.000  
 15  8 27  5  2 25.5000000  0  1G11
   -964495.012 7   -811115.048 7  25019275.081 7  25019275.889 7       807.599 7
       629.308 7        39.730          36.720    25019275.475 7         0.000  
 15  8 27  5  2 27.0000000  0  1G11
   -965705.742 7   -812058.482 7  25019044.622 7  25019045.256 7       806.724 7
       628.618 7        39.660          36.570    25019045.994 7         0.000  
 15  8 27  5  2 28.5000000  0  1G11
   -966915.163 7   -813000.871 7  25018814.441 7  25018815.736 7       805.841 7
       627.919 7        39.690          36.990    25018814.636 7         0.000  
 15  8 27  5  2 30.0000000  0  1G11
   -968123.264 7   -813942.259 7  25018584.485 7  25018585.705 7       804.954 7
       627.236 7        39.550          36.910    25018584.484 7         0.000  
 15  8 27  5  2 31.5000000  0  1G11
   -969330.071 7   -814882.616 7  25018354.685 7  25018356.167 7       804.099 7
       626.574 7        39.500          36.760    25018354.490 7         0.000  
 15  8 27  5  2 33.0000000  0  1G11
   -970535.562 7   -815821.972 7  25018125.099 7  25018126.998 7       803.231 7
       625.894 7        39.410          37.110    25018124.679 7         0.000  
 15  8 27  5  2 34.5000000  0  1G11
   -971739.751 7   -816760.288 7  25017895.975 7  25017897.942 7       802.353 7
       625.198 7        39.130          36.770    25017895.161 7         0.000  
 15  8 27  5  2 36.0000000  0  1G11
   -972942.616 7   -817697.583 7  25017666.772 7  25017669.028 7       801.466 7
       624.510 7        38.960          36.860    25017666.064 7         0.000  
 15  8 27  5  2 37.5000000  0  1G11
   -974144.179 7   -818633.860 7  25017438.008 7  25017439.914 7       800.588 7
       623.843 7        38.640          36.610    25017437.765 7         0.000  
 15  8 27  5  2 39.0000000  0  1G11
   -975344.417 7   -819569.111 7  25017209.473 7  25017211.558 7       799.729 7
       623.154 7        38.520          36.330    25017208.862 7         0.000  
 15  8 27  5  2 40.5000000  0  1G11
   -976543.342 7   -820503.332 7  25016981.337 7  25016983.579 7       798.852 7
       622.485 7        38.120          36.270    25016981.430 7         0.000  
 15  8 27  5  2 42.0000000  0  1G11
   -977740.957 7   -821436.528 7  25016753.244 7  25016755.216 7       797.975 7
       621.787 7        38.240          36.440    25016753.943 7         0.000  
 15  8 27  5  2 43.5000000  0  1G11
   -978937.254 7   -822368.712 7  25016525.538 7  25016527.199 7       797.103 7
       621.115 7        37.790          36.330    25016525.808 7         0.000  
 15  8 27  5  2 45.0000000  0  1G11
   -980132.236 7   -823299.864 7  25016298.340 7  25016299.933 7       796.214 7
       620.424 7        38.150          36.340    25016299.092 7         0.000  
 15  8 27  5  2 46.5000000  0  1G11
   -981325.912 7   -824229.997 7  25016071.168 7  25016072.939 7       795.346 7
       619.747 7        37.840          36.440    25016072.466 7         0.000  
 15  8 27  5  2 48.0000000  0  1G11
   -982518.280 7   -825159.108 7  25015844.633 7  25015845.527 7       794.474 7
       619.070 7        37.850          36.270    25015845.467 7         0.000  
 15  8 27  5  2 49.5000000  0  1G11
   -983709.335 7   -826087.206 7  25015617.846 7  25015618.818 7       793.608 7
       618.403 7        37.660          36.210    25015619.298 7         0.000  
 15  8 27  5  2 51.0000000  0  1G11
   -984899.083 7   -827014.270 7  25015391.605 7  25015392.205 7       792.721 7
       617.708 7        37.820          36.260    25015392.553 7         0.000  
 15  8 27  5  2 52.5000000  0  1G11
   -986087.497 7   -827940.312 7  25015165.548 7  25015166.405 7       791.832 7
       617.008 7        37.800          36.310    25015166.585 7         0.000  
 15  8 27  5  2 54.0000000  0  1G11
   -987274.611 7   -828865.325 7  25014939.399 7  25014940.520 7       790.961 7
       616.332 7        37.840          36.410    25014941.127 7         0.000  
 15  8 27  5  2 55.5000000  0  1G11
   -988460.415 7   -829789.338 7  25014714.021 7  25014714.745 7       790.095 7
       615.658 7        37.720          36.430    25014714.417 7         0.000  
 15  8 27  5  2 57.0000000  0  1G11
   -989644.902 7   -830712.313 7  25014488.624 7  25014489.335 7       789.225 7
       614.969 7        37.800          36.330    25014489.274 7         0.000  
 15  8 27  5  2 58.5000000  0  1G11
   -990828.081 7   -831634.267 7  25014263.298 7  25014264.503 7       788.349 7
       614.304 7        37.730          36.650    25014264.228 7         0.000  
 15  8 27  5  3  0.0000000  0  1G11
   -992009.948 7   -832555.209 7  25014038.872 7  25014040.203 7       787.476 7
       613.624 7        37.560          36.630    25014039.562 7         0.000  
 15  8 27  5  3  1.5000000  0  1G11
   -993190.517 7   -833475.130 7  25013813.937 7  25013815.432 7       786.604 7
       612.941 7        37.590          36.680    25013814.803 7         0.000  
 15  8 27  5  3  3.0000000  0  1G11
   -994369.767 7   -834394.023 7  25013589.699 7  25013591.492 7       785.730 7
       612.255 7        37.450          36.930    25013590.114 7         0.000  
 15  8 27  5  3  4.5000000  0  1G11
   -995547.708 7   -835311.895 7  25013365.736 7  25013367.260 7       784.846 7
       611.565 7        37.330          36.970    25013365.978 7         0.000  
 15  8 27  5  3  6.0000000  0  1G11
   -996724.329 7   -836228.752 7  25013141.783 7  25013143.246 7       783.976 7
       610.891 7        37.320          37.190    25013142.391 7         0.000  
 15  8 27  5  3  7.5000000  0  1G11
   -997899.658 7   -837144.585 7  25012918.390 7  25012919.571 7       783.103 7
       610.210 7        37.140          37.270    25012918.619 7         0.000  
 15  8 27  5  3  9.0000000  0  1G11
   -999073.654 7   -838059.387 7  25012695.119 7  25012696.077 7       782.229 7
       609.531 7        37.050          37.350    25012694.575 7         0.000  
 15  8 27  5  3 10.5000000  0  1G11
  -1000246.336 7   -838973.163 7  25012471.767 7  25012473.016 7       781.360 7
       608.852 7        37.100          37.450    25012473.580 7         0.000  
 15  8 27  5  3 12.0000000  0  1G11
  -1001417.727 7   -839885.929 7  25012248.775 7  25012249.984 7       780.485 7
       608.171 7        36.840          37.490    25012249.050 7         0.000  
 15  8 27  5  3 13.5000000  0  1G11
  -1002587.787 7   -840797.668 7  25012025.657 7  25012027.075 7       779.606 7
       607.480 7        36.610          37.720    25012025.686 7         0.000  
 15  8 27  5  3 15.0000000  0  1G11
  -1003756.532 7   -841708.374 7  25011803.687 7  25011804.414 7       778.724 7
       606.808 7        36.370          37.770    25011805.086 7         0.000  
 15  8 27  5  3 16.5000000  0  1G11
  -1004923.967 7   -842618.069 7  25011580.847 7  25011582.585 7       777.849 7
       606.111 7        36.050          37.870    25011581.327 7         0.000  
 15  8 27  5  3 18.0000000  0  1G11
  -1006090.089 7   -843526.728 7  25011358.856 7  25011360.638 7       776.969 7
       605.433 7        36.110          37.990    25011360.165 7         0.000  
 15  8 27  5  3 19.5000000  0  1G11
  -1007254.916 7   -844434.376 7  25011137.038 7  25011138.837 7       776.097 7
       604.750 7        35.830          37.940    25011137.563 7         0.000  
 15  8 27  5  3 21.0000000  0  1G11
  -1008418.405 7   -845341.006 7  25010915.455 7  25010917.383 7       775.229 7
       604.077 7        35.590          37.940    25010916.451 7         0.000  
 15  8 27  5  3 22.5000000  0  1G11
  -1009580.581 7   -846246.591 7  25010693.907 7  25010696.341 7       774.348 7
       603.386 7        35.520          38.050    25010694.523 7         0.000  
 15  8 27  5  3 24.0000000  0  1G11
  -1010741.438 7   -847151.150 7  25010472.576 7  25010475.577 7       773.475 7
       602.700 7        35.150          38.010    25010472.936 7         0.000  
 15  8 27  5  3 25.5000000  0  1G11
  -1011900.987 7   -848054.689 7  25010252.402 7  25010255.051 7       772.588 7
       602.020 7        35.160          38.070    25010252.163 7         0.000  
 15  8 27  5  3 27.0000000  0  1G11
  -1013059.212 7   -848957.199 7  25010032.266 7  25010034.890 7       771.712 7
       601.338 7        35.090          38.200    25010031.483 7         0.000  
 15  8 27  5  3 28.5000000  0  1G11
  -1014216.130 7   -849858.693 7  25009811.663 7  25009814.683 7       770.846 7
       600.655 7        34.850          38.380    25009810.846 7         0.000  
 15  8 27  5  3 30.0000000  0  1G11
  -1015371.734 7   -850759.162 7  25009591.750 7  25009594.619 7       769.963 7
       599.966 7        35.040          38.210    25009590.945 7         0.000  
 15  8 27  5  3 31.5000000  0  1G11
  -1016526.035 7   -851658.614 7  25009372.910 7  25009375.265 7       769.096 7
       599.286 7        35.080          38.250    25009371.576 7         0.000  
 15  8 27  5  3 33.0000000  0  1G11
  -1017679.015 7   -852557.034 7  25009153.719 7  25009155.992 7       768.209 7
       598.602 7        34.940          38.300    25009153.133 7         0.000  
 15  8 27  5  3 34.5000000  0  1G11
  -1018830.687 7   -853454.435 7  25008934.604 7  25008936.480 7       767.332 7
       597.927 7        34.690          38.360    25008934.447 7         0.000  
 15  8 27  5  3 36.0000000  0  1G11
  -1019981.044 7   -854350.814 7  25008715.577 7  25008717.762 7       766.456 7
       597.240 7        35.330          38.450    25008716.186 7         0.000  
 15  8 27  5  3 37.5000000  0  1G11
  -1021130.107 7   -855246.184 7  25008497.531 7  25008498.942 7       765.604 7
       596.565 7        35.190          38.320    25008498.172 7         0.000  
 15  8 27  5  3 39.0000000  0  1G11
  -1022277.852 7   -856140.520 7  25008278.816 7  25008280.345 7       764.715 7
       595.877 7        35.010          38.250    25008279.498 7         0.000  
 15  8 27  5  3 40.5000000  0  1G11
  -1023424.277 7   -857033.823 7  25008061.085 7  25008062.095 7       763.832 7
       595.201 7        34.990          37.990    25008059.986 7         0.000  
 15  8 27  5  3 42.0000000  0  1G11
  -1024569.384 7   -857926.123 7  25007843.490 7  25007844.014 7       762.965 7
       594.513 7        35.150          38.140    25007843.023 7         0.000  
 15  8 27  5  3 43.5000000  0  1G11
  -1025713.185 7   -858817.393 7  25007625.483 7  25007626.088 7       762.098 7
       593.839 7        34.820          37.980    25007624.404 7         0.000  
 15  8 27  5  3 45.0000000  0  1G11
  -1026855.677 7   -859707.643 7  25007408.234 7  25007408.420 7       761.221 7
       593.164 7        34.330          37.870    25007405.495 7         0.000  
 15  8 27  5  3 46.5000000  0  1G11
  -1027996.853 7   -860596.866 7  25007190.327 7  25007191.593 7       760.362 7
       592.477 7        34.220          37.940    25007189.102 7         0.000  
 15  8 27  5  3 48.0000000  0  1G11
  -1029136.710 7   -861485.059 7  25006973.593 7  25006974.364 7       759.469 7
       591.794 7        34.250          37.670    25006970.178 7         0.000  
 15  8 27  5  3 49.5000000  0  1G11
  -1030275.251 7   -862372.233 7  25006757.247 7  25006757.838 7       758.595 7
       591.112 7        34.270          37.380    25006754.484 7         0.000  
 15  8 27  5  3 51.0000000  0  1G11
  -1031412.494 7   -863258.388 7  25006540.635 7  25006541.360 7       757.718 7
       590.422 7        34.100          37.650    25006538.247 7         0.000  
 15  8 27  5  3 52.5000000  0  1G11
  -1032548.394 7   -864143.513 7  25006323.800 7  25006324.994 7       756.854 7
       589.739 7        33.400          37.620    25006323.159 7         0.000  
 15  8 27  5  3 54.0000000  0  1G11
  -1033682.994 7   -865027.602 7  25006107.815 7  25006109.212 7       755.958 7
       589.058 7        33.610          37.670    25006107.087 7         0.000  
 15  8 27  5  3 55.5000000  0  1G11
  -1034816.281 7   -865910.689 7  25005892.434 7  25005893.529 7       755.091 7
       588.383 7        33.220          37.500    25005891.076 7         0.000  
 15  8 27  5  3 57.0000000  0  1G11
  -1035948.244 7   -866792.734 7  25005676.442 7  25005678.327 7       754.210 7
       587.697 7        33.240          37.690    25005675.562 7         0.000  
 15  8 27  5  3 58.5000000  0  1G11
  -1037078.888 7   -867673.760 7  25005460.800 7  25005462.960 7       753.331 7
       587.015 7        32.980          37.730    25005460.348 7         0.000  
 15  8 27  5  4  0.0000000  0  1G11
  -1038208.231 7   -868553.763 7  25005246.048 7  25005248.189 7       752.465 7
       586.330 7        32.560          37.710    25005244.502 7         0.000  
 15  8 27  5  4  1.5000000  0  1G11
  -1039336.272 7   -869432.747 7  25005031.283 7  25005033.451 7       751.588 7
       585.655 7        32.680          37.550    25005027.894 7         0.000  
 15  8 27  5  4  3.0000000  0  1G11
  -1040462.986 7   -870310.698 7  25004817.194 7  25004819.685 7       750.704 7
       584.965 7        32.730          37.470    25004813.933 7         0.000  
 15  8 27  5  4  4.5000000  0  1G11
  -1041588.381 7   -871187.640 7  25004602.425 7  25004605.257 7       749.834 7
       584.287 7        32.770          37.640    25004602.026 7         0.000  
 15  8 27  5  4  6.0000000  0  1G11
  -1042712.477 7   -872063.555 7  25004388.584 7  25004391.620 7       748.969 7
       583.610 7        33.200          37.710    25004387.785 7         0.000  
 15  8 27  5  4  7.5000000  0  1G11
  -1043835.265 7   -872938.455 7  25004175.510 7  25004177.642 7       748.090 7
       582.931 7        33.540          37.880    25004174.018 7         0.000  
 15  8 27  5  4  9.0000000  0  1G11
  -1044956.720 7   -873812.317 7  25003962.018 7  25003964.324 7       747.211 7
       582.239 7        33.560          37.950    25003961.687 7         0.000  
 15  8 27  5  4 10.5000000  0  1G11
  -1046076.874 7   -874685.159 7  25003749.288 7  25003751.577 7       746.332 7
       581.550 7        33.740          38.290    25003748.508 7         0.000  
 15  8 27  5  4 12.0000000  0  1G11
  -1047195.697 7   -875556.969 7  25003536.430 7  25003538.663 7       745.455 7
       580.866 7        33.910          38.430    25003537.170 7         0.000  
 15  8 27  5  4 13.5000000  0  1G11
  -1048313.223 7   -876427.762 7  25003323.854 7  25003326.527 7       744.578 7
       580.195 7        34.300          38.330    25003324.576 7         0.000  
 15  8 27  5  4 15.0000000  0  1G11
  -1049429.421 7   -877297.519 7  25003111.722 7  25003114.007 7       743.701 7
       579.500 7        34.740          38.530    25003111.538 7         0.000  
 15  8 27  5  4 16.5000000  0  1G11
  -1050544.313 7   -878166.263 7  25002899.453 7  25002901.909 7       742.831 7
       578.826 7        34.740          38.460    25002900.966 7         0.000  
 15  8 27  5  4 18.0000000  0  1G11
  -1051657.887 7   -879033.982 7  25002687.603 7  25002690.130 7       741.944 7
       578.134 7        35.000          38.400    25002688.337 7         0.000  
 15  8 27  5  4 19.5000000  0  1G11
  -1052770.168 7   -879900.689 7  25002476.264 7  25002478.465 7       741.075 7
       577.453 7        35.040          38.310    25002474.330 7         0.000  
 15  8 27  5  4 21.0000000  0  1G11
  -1053881.122 7   -880766.365 7  25002265.303 7  25002267.006 7       740.200 7
       576.778 7        35.440          38.520    25002265.728 7         0.000  
 15  8 27  5  4 22.5000000  0  1G11
  -1054990.771 7   -881631.023 7  25002054.137 7  25002055.829 7       739.327 7
       576.097 7        35.490          38.030    25002054.697 7         0.000  
 15  8 27  5  4 24.0000000  0  1G11
  -1056099.105 7   -882494.654 7  25001843.257 7  25001844.556 7       738.446 7
       575.401 7        35.760          37.950    25001845.287 7         0.000  
 15  8 27  5  4 25.5000000  0  1G11
  -1057206.115 7   -883357.264 7  25001632.791 7  25001633.814 7       737.569 7
       574.722 7        35.740          37.800    25001634.140 7         0.000  
 15  8 27  5  4 27.0000000  0  1G11
  -1058311.818 7   -884218.839 7  25001422.173 7  25001422.933 7       736.685 7
       574.047 7        36.060          37.710    25001422.667 7         0.000  
 15  8 27  5  4 28.5000000  0  1G11
  -1059416.196 7   -885079.397 7  25001212.113 7  25001212.783 7       735.812 7
       573.359 7        36.150          37.440    25001213.111 7         0.000  
 15  8 27  5  4 30.0000000  0  1G11
  -1060519.254 7   -885938.917 7  25001002.013 7  25001002.697 7       734.942 7
       572.668 7        36.270          37.400    25001002.142 7         0.000  
 15  8 27  5  4 31.5000000  0  1G11
  -1061621.022 7   -886797.430 7  25000792.430 7  25000792.739 7       734.073 7
       571.996 7        36.090          37.130    25000792.530 7         0.000  
 15  8 27  5  4 33.0000000  0  1G11
  -1062721.458 7   -887654.918 7  25000582.842 7  25000583.287 7       733.194 7
       571.311 7        36.220          37.040    25000582.572 7         0.000  
 15  8 27  5  4 34.5000000  0  1G11
  -1063820.591 7   -888511.381 7  25000373.109 7  25000373.526 7       732.308 7
       570.632 7        36.090          36.580    25000372.809 7         0.000  
 15  8 27  5  4 36.0000000  0  1G11
  -1064918.399 7   -889366.814 7  25000164.725 7  25000164.360 7       731.425 7
       569.961 7        36.010          36.530    25000164.347 7         0.000  
 15  8 27  5  4 37.5000000  0  1G11
  -1066014.910 7   -890221.245 7  24999955.649 7  24999955.816 7       730.568 7
       569.271 7        35.910          36.590    24999955.217 7         0.000  
 15  8 27  5  4 39.0000000  0  1G11
  -1067110.096 7   -891074.624 7  24999747.465 7  24999746.926 7       729.681 7
       568.589 7        36.080          36.570    24999747.523 7         0.000  
 15  8 27  5  4 40.5000000  0  1G11
  -1068203.943 7   -891926.988 7  24999539.523 7  24999539.625 7       728.809 7
       567.898 7        36.100          36.250    24999538.801 7         0.000  
 15  8 27  5  4 42.0000000  0  1G11
  -1069296.498 7   -892778.326 7  24999331.708 7  24999331.159 7       727.913 7
       567.205 7        35.890          36.170    24999331.832 7         0.000  
 15  8 27  5  4 43.5000000  0  1G11
  -1070387.725 7   -893628.635 7  24999123.822 7  24999123.850 7       727.045 7
       566.535 7        35.910          35.970    24999124.069 7         0.000  
 15  8 27  5  4 45.0000000  0  1G11
  -1071477.645 7   -894477.925 7  24998916.509 7  24998916.549 7       726.177 7
       565.834 7        35.840          35.730    24998917.124 7         0.000  
 15  8 27  5  4 46.5000000  0  1G11
  -1072566.248 7   -895326.185 7  24998709.382 7  24998709.424 7       725.285 7
       565.175 7        35.560          35.930    24998709.799 7         0.000  
 15  8 27  5  4 48.0000000  0  1G11
  -1073653.528 7   -896173.429 7  24998502.451 7  24998502.769 7       724.425 7
       564.477 7        35.390          35.740    24998501.715 7         0.000  
 15  8 27  5  4 49.5000000  0  1G11
  -1074739.523 7   -897019.656 7  24998295.930 7  24998296.268 7       723.556 7
       563.808 7        35.460          35.960    24998295.240 7         0.000  
 15  8 27  5  4 51.0000000  0  1G11
  -1075824.189 7   -897864.840 7  24998089.046 7  24998090.104 7       722.675 7
       563.118 7        35.400          35.860    24998088.419 7         0.000  
 15  8 27  5  4 52.5000000  0  1G11
  -1076907.532 7   -898709.018 7  24997882.644 7  24997884.362 7       721.792 7
       562.436 7        35.280          36.000    24997882.752 7         0.000  
 15  8 27  5  4 54.0000000  0  1G11
  -1077989.556 7   -899552.153 7  24997677.286 7  24997678.651 7       720.897 7
       561.754 7        35.290          36.190    24997676.031 7         0.000  
 15  8 27  5  4 55.5000000  0  1G11
  -1079070.279 7   -900394.276 7  24997471.463 7  24997472.708 7       720.039 7
       561.075 7        35.500          36.180    24997470.267 7         0.000  
 15  8 27  5  4 57.0000000  0  1G11
  -1080149.679 7   -901235.360 7  24997266.189 7  24997267.419 7       719.155 7
       560.379 7        35.180          36.170    24997266.002 7         0.000  
 15  8 27  5  4 58.5000000  0  1G11
  -1081227.742 7   -902075.422 7  24997061.277 7  24997061.734 7       718.282 7
       559.702 7        35.450          35.990    24997061.459 7         0.000  
 15  8 27  5  5  0.0000000  0  1G11
  -1082304.517 7   -902914.455 7  24996855.760 7  24996857.179 7       717.398 7
       559.023 7        35.240          36.000    24996856.590 7         0.000  
 15  8 27  5  5  1.5000000  0  1G11
  -1083379.971 7   -903752.473 7  24996651.230 7  24996652.346 7       716.542 7
       558.333 7        35.270          35.870    24996651.752 7         0.000  
 15  8 27  5  5  3.0000000  0  1G11
  -1084454.122 7   -904589.458 7  24996446.838 7  24996447.523 7       715.662 7
       557.651 7        35.530          36.020    24996447.509 7         0.000  
 15  8 27  5  5  4.5000000  0  1G11
  -1085526.935 7   -905425.423 7  24996242.485 7  24996243.515 7       714.790 7
       556.970 7        35.360          36.040    24996242.101 7         0.000  
 15  8 27  5  5  6.0000000  0  1G11
  -1086598.455 7   -906260.354 7  24996038.974 7  24996039.287 7       713.899 7
       556.280 7        35.470          35.930    24996038.941 7         0.000  
 15  8 27  5  5  7.5000000  0  1G11
  -1087668.656 7   -907094.281 7  24995835.062 7  24995835.811 7       713.031 7
       555.595 7        35.680          35.970    24995834.566 7         0.000  
 15  8 27  5  5  9.0000000  0  1G11
  -1088737.534 7   -907927.170 7  24995632.060 7  24995632.263 7       712.148 7
       554.910 7        35.360          35.730    24995631.020 7         0.000  
 15  8 27  5  5 10.5000000  0  1G11
  -1089805.102 7   -908759.041 7  24995429.476 7  24995428.957 7       711.285 7
       554.243 7        35.170          36.030    24995428.594 7         0.000  
 15  8 27  5  5 12.0000000  0  1G11
  -1090871.356 7   -909589.877 7  24995226.343 7  24995226.654 7       710.397 7
       553.555 7        35.380          35.930    24995226.551 7         0.000  
 15  8 27  5  5 13.5000000  0  1G11
  -1091936.317 7   -910419.712 7  24995023.747 7  24995023.762 7       709.530 7
       552.877 7        35.180          35.870    24995022.665 7         0.000  
 15  8 27  5  5 15.0000000  0  1G11
  -1092999.944 7   -911248.506 7  24994820.846 7  24994821.758 7       708.640 7
       552.182 7        34.920          35.890    24994820.847 7         0.000  
 15  8 27  5  5 16.5000000  0  1G11
  -1094062.238 7   -912076.266 7  24994618.722 7  24994619.657 7       707.763 7
       551.502 7        35.070          36.050    24994618.799 7         0.000  
 15  8 27  5  5 18.0000000  0  1G11
  -1095123.231 7   -912903.009 7  24994417.432 7  24994417.808 7       706.887 7
       550.820 7        34.790          36.300    24994417.630 7         0.000  
 15  8 27  5  5 19.5000000  0  1G11
  -1096182.919 7   -913728.743 7  24994215.301 7  24994216.179 7       706.018 7
       550.141 7        35.050          36.260    24994215.397 7         0.000  
 15  8 27  5  5 21.0000000  0  1G11
  -1097241.270 7   -914553.441 7  24994013.254 7  24994014.814 7       705.127 7
       549.460 7        34.890          36.200    24994013.993 7         0.000  
 15  8 27  5  5 22.5000000  0  1G11
  -1098298.315 7   -915377.108 7  24993813.170 7  24993813.356 7       704.243 7
       548.771 7        34.650          35.880    24993811.511 7         0.000  
 15  8 27  5  5 24.0000000  0  1G11
  -1099354.036 7   -916199.751 7  24993611.586 7  24993612.049 7       703.374 7
       548.080 7        34.540          36.140    24993609.760 7         0.000  
 15  8 27  5  5 25.5000000  0  1G11
  -1100408.455 7   -917021.376 7  24993410.105 7  24993412.192 7       702.509 7
       547.414 7        34.180          36.160    24993408.794 7         0.000  
 15  8 27  5  5 27.0000000  0  1G11
  -1101461.540 7   -917841.973 7  24993209.777 7  24993211.579 7       701.619 7
       546.731 7        34.460          36.430    24993208.745 7         0.000  
 15  8 27  5  5 28.5000000  0  1G11
  -1102513.314 7   -918661.538 7  24993010.319 7  24993011.128 7       700.746 7
       546.030 7        34.050          36.000    24993009.771 7         0.000  
 15  8 27  5  5 30.0000000  0  1G11
  -1103563.761 7   -919480.072 7  24992809.317 7  24992811.466 7       699.857 7
       545.359 7        33.610          36.020    24992806.303 7         0.000  
 15  8 27  5  5 31.5000000  0  1G11
  -1104612.912 7   -920297.599 7  24992609.512 7  24992611.711 7       698.992 7
       544.678 7        33.830          36.070    24992608.744 7         0.000  
 15  8 27  5  5 33.0000000  0  1G11
  -1105660.733 7   -921114.085 7  24992410.452 7  24992412.199 7       698.112 7
       543.986 7        34.210          35.920    24992409.964 7         0.000  
 15  8 27  5  5 34.5000000  0  1G11
  -1106707.236 7   -921929.550 7  24992211.415 7  24992212.489 7       697.239 7
       543.300 7        33.910          35.760    24992210.905 7         0.000  
 15  8 27  5  5 36.0000000  0  1G11
  -1107752.432 7   -922743.983 7  24992012.725 7  24992014.092 7       696.357 7
       542.619 7        33.860          35.780    24992013.784 7         0.000  
 15  8 27  5  5 37.5000000  0  1G11
  -1108796.327 7   -923557.404 7  24991814.199 7  24991815.309 7       695.486 7
       541.929 7        34.020          35.790    24991816.237 7         0.000  
 15  8 27  5  5 39.0000000  0  1G11
  -1109838.879 7   -924369.789 7  24991616.093 7  24991616.701 7       694.611 7
       541.252 7        34.190          35.790    24991615.014 7         0.000  
 15  8 27  5  5 40.5000000  0  1G11
  -1110880.142 7   -925181.153 7  24991417.896 7  24991418.511 7       693.722 7
       540.575 7        33.900          35.960    24991418.513 7         0.000  
 15  8 27  5  5 42.0000000  0  1G11
  -1111920.078 7   -925991.489 7  24991219.980 7  24991220.723 7       692.851 7
       539.872 7        34.150          35.570    24991220.052 7         0.000  
 15  8 27  5  5 43.5000000  0  1G11
  -1112958.709 7   -926800.800 7  24991022.603 7  24991023.134 7       691.992 7
       539.204 7        34.280          35.760    24991022.213 7         0.000  
 15  8 27  5  5 45.0000000  0  1G11
  -1113996.003 7   -927609.075 7  24990824.758 7  24990825.580 7       691.094 7
       538.516 7        34.150          35.420    24990825.216 7         0.000  
 15  8 27  5  5 46.5000000  0  1G11
